{"2022-09-11":{"type":"FeatureCollection","features":[{"type":"Feature","geometry":{"type":"Point","coordinates":[121.458184,31.259443]},"properties":{"town":"静安区","published_address":"中山北路814弄","geocoded_address":"上海市静安区中山北路814弄","date":1662825600000}}]},"2022-09-10":{"type":"FeatureCollection","features":[{"type":"Feature","geometry":{"type":"Point","coordinates":[121.437978,31.259244]},"properties":{"town":"普陀区","published_address":"交通路1913弄","geocoded_address":"上海市普陀区交通路1913弄","date":1662739200000}}]},"2022-09-08":{"type":"FeatureCollection","features":[{"type":"Feature","geometry":{"type":"Point","coordinates":[121.592625,31.272845]},"properties":{"town":"浦东新区","published_address":"浦兴路街道东荷小区","geocoded_address":"上海市浦东新区东荷小区","date":1662566400000}},{"type":"Feature","geometry":{"type":"Point","coordinates":[121.396496,31.157348]},"properties":{"town":"闵行区","published_address":"莲花路1328号","geocoded_address":"上海市闵行区莲花路1328号","date":1662566400000}},{"type":"Feature","geometry":{"type":"Point","coordinates":[121.189319,31.05113]},"properties":{"town":"松江区","published_address":"三新北路1800弄","geocoded_address":"上海市松江区三新北路1800弄","date":1662566400000}}]}}