{"2022-08-28":{"type":"FeatureCollection","features":[{"type":"Feature","geometry":{"type":"Point","coordinates":[121.75827,31.046118]},"properties":{"town":"浦东新区","published_address":"惠南镇海燕苑","geocoded_address":"上海市浦东新区海燕苑","date":1661616000000}},{"type":"Feature","geometry":{"type":"Point","coordinates":[121.533002,31.240217]},"properties":{"town":"浦东新区","published_address":"洋泾街道乳山路505弄","geocoded_address":"上海市浦东新区洋泾街道乳山路505弄","date":1661616000000}},{"type":"Feature","geometry":{"type":"Point","coordinates":[121.451223,31.134841]},"properties":{"town":"徐汇区","published_address":"罗秀路65号","geocoded_address":"上海市徐汇区罗秀路65号","date":1661616000000}},{"type":"Feature","geometry":{"type":"Point","coordinates":[121.538274,31.330751]},"properties":{"town":"杨浦区","published_address":"包头路1150弄","geocoded_address":"上海市杨浦区包头路1150弄","date":1661616000000}},{"type":"Feature","geometry":{"type":"Point","coordinates":[121.547928,31.304795]},"properties":{"town":"杨浦区","published_address":"军工路1300号","geocoded_address":"上海市宝山区军工路1300号","date":1661616000000}},{"type":"Feature","geometry":{"type":"Point","coordinates":[121.514076,31.294742]},"properties":{"town":"杨浦区","published_address":"政法路315号","geocoded_address":"上海市杨浦区政法路|315号","date":1661616000000}},{"type":"Feature","geometry":{"type":"Point","coordinates":[121.523353,31.307378]},"properties":{"town":"杨浦区","published_address":"政立路6弄","geocoded_address":"上海市杨浦区政立路6弄","date":1661616000000}}]},"2022-08-27":{"type":"FeatureCollection","features":[{"type":"Feature","geometry":{"type":"Point","coordinates":[121.698839,31.227705]},"properties":{"town":"浦东新区","published_address":"合庆镇东风村二队","geocoded_address":"上海市浦东新区东风村","date":1661529600000}},{"type":"Feature","geometry":{"type":"Point","coordinates":[121.557696,31.240298]},"properties":{"town":"浦东新区","published_address":"洋泾街道张杨路2238弄","geocoded_address":"上海市浦东新区洋泾街道张杨路2238弄","date":1661529600000}},{"type":"Feature","geometry":{"type":"Point","coordinates":[121.558367,31.240788]},"properties":{"town":"浦东新区","published_address":"洋泾街道崮山路626弄小区","geocoded_address":"上海市浦东新区洋泾街道崮山路626弄","date":1661529600000}},{"type":"Feature","geometry":{"type":"Point","coordinates":[121.759243,31.14781]},"properties":{"town":"浦东新区","published_address":"祝桥镇施新路958号","geocoded_address":"上海市浦东新区祝桥镇施新路958号","date":1661529600000}},{"type":"Feature","geometry":{"type":"Point","coordinates":[121.505386,31.316293]},"properties":{"town":"杨浦区","published_address":"国霞路399弄","geocoded_address":"上海市杨浦区国霞路399弄","date":1661529600000}},{"type":"Feature","geometry":{"type":"Point","coordinates":[121.513208,31.308595]},"properties":{"town":"杨浦区","published_address":"国京路50弄","geocoded_address":"上海市杨浦区国京路50弄","date":1661529600000}},{"type":"Feature","geometry":{"type":"Point","coordinates":[121.514076,31.294742]},"properties":{"town":"杨浦区","published_address":"政法路315号","geocoded_address":"上海市杨浦区政法路|315号","date":1661529600000}},{"type":"Feature","geometry":{"type":"Point","coordinates":[121.515519,31.287117]},"properties":{"town":"杨浦区","published_address":"政本路268号","geocoded_address":"上海市杨浦区政本路268号","date":1661529600000}},{"type":"Feature","geometry":{"type":"Point","coordinates":[121.39268,31.353487]},"properties":{"town":"宝山区","published_address":"电台路398弄","geocoded_address":"上海市宝山区电台路398弄","date":1661529600000}}]},"2022-08-26":{"type":"FeatureCollection","features":[{"type":"Feature","geometry":{"type":"Point","coordinates":[121.505386,31.316293]},"properties":{"town":"杨浦区","published_address":"国霞路399弄","geocoded_address":"上海市杨浦区国霞路399弄","date":1661443200000}},{"type":"Feature","geometry":{"type":"Point","coordinates":[121.55148,31.311643]},"properties":{"town":"杨浦区","published_address":"民星路160号","geocoded_address":"上海市杨浦区民星路160号","date":1661443200000}}]},"2022-08-25":{"type":"FeatureCollection","features":[{"type":"Feature","geometry":{"type":"Point","coordinates":[121.767035,31.058038]},"properties":{"town":"浦东新区","published_address":"惠南镇靖海路547弄","geocoded_address":"上海市浦东新区惠南镇靖海路547弄","date":1661356800000}},{"type":"Feature","geometry":{"type":"Point","coordinates":[121.767035,31.058038]},"properties":{"town":"浦东新区","published_address":"惠南镇靖海路547弄","geocoded_address":"上海市浦东新区惠南镇靖海路547弄","date":1661356800000}},{"type":"Feature","geometry":{"type":"Point","coordinates":[121.456391,31.247308]},"properties":{"town":"静安区","published_address":"梅园路330号","geocoded_address":"上海市静安区梅园路330-360号","date":1661356800000}},{"type":"Feature","geometry":{"type":"Point","coordinates":[121.55148,31.311643]},"properties":{"town":"杨浦区","published_address":"民星路160号","geocoded_address":"上海市杨浦区民星路160号","date":1661356800000}},{"type":"Feature","geometry":{"type":"Point","coordinates":[121.513819,31.294511]},"properties":{"town":"杨浦区","published_address":"四平路2152号","geocoded_address":"上海市杨浦区四平路2152号","date":1661356800000}},{"type":"Feature","geometry":{"type":"Point","coordinates":[121.315601,31.190483]},"properties":{"town":"闵行区","published_address":"申长路630弄1-3号","geocoded_address":"上海市闵行区申长路630弄1-3号","date":1661356800000}}]}}