{"2022-05-26":{"type":"FeatureCollection","features":[{"type":"Feature","geometry":{"type":"Point","coordinates":[121.524537,31.216523]},"properties":{"town":"浦东新区","published_address":"北张家浜路168弄","geocoded_address":"上海市浦东新区北张家浜路168弄","date":1653494400000}},{"type":"Feature","geometry":{"type":"Point","coordinates":[121.520549,31.215817]},"properties":{"town":"浦东新区","published_address":"北张家浜路58号","geocoded_address":"上海市浦东新区北张家浜路58号","date":1653494400000}},{"type":"Feature","geometry":{"type":"Point","coordinates":[121.814275,30.897551]},"properties":{"town":"浦东新区","published_address":"彩云路221弄","geocoded_address":"上海市浦东新区彩云路221弄","date":1653494400000}},{"type":"Feature","geometry":{"type":"Point","coordinates":[121.680888,31.283656]},"properties":{"town":"浦东新区","published_address":"曹路镇群乐村南冯家宅","geocoded_address":"上海市浦东新区群乐村","date":1653494400000}},{"type":"Feature","geometry":{"type":"Point","coordinates":[121.520864,31.236879]},"properties":{"town":"浦东新区","published_address":"东方路258号","geocoded_address":"上海市浦东新区东方路|258号","date":1653494400000}},{"type":"Feature","geometry":{"type":"Point","coordinates":[121.567314,31.320291]},"properties":{"town":"浦东新区","published_address":"东塘路681号生活区","geocoded_address":"上海市浦东新区东塘路|681号","date":1653494400000}},{"type":"Feature","geometry":{"type":"Point","coordinates":[121.564109,31.19639]},"properties":{"town":"浦东新区","published_address":"芳华路630弄","geocoded_address":"上海市浦东新区芳华路630弄","date":1653494400000}},{"type":"Feature","geometry":{"type":"Point","coordinates":[121.602193,31.054291]},"properties":{"town":"浦东新区","published_address":"航头镇鹤东村沿江","geocoded_address":"上海市浦东新区航头镇鹤东村沿江","date":1653494400000}},{"type":"Feature","geometry":{"type":"Point","coordinates":[121.67474,31.27736]},"properties":{"town":"浦东新区","published_address":"金晓路96弄","geocoded_address":"上海市浦东新区金晓路96弄","date":1653494400000}},{"type":"Feature","geometry":{"type":"Point","coordinates":[121.518257,31.235026]},"properties":{"town":"浦东新区","published_address":"崂山四村","geocoded_address":"上海市浦东新区崂山四村","date":1653494400000}},{"type":"Feature","geometry":{"type":"Point","coordinates":[121.6828,31.202624]},"properties":{"town":"浦东新区","published_address":"利川路501弄","geocoded_address":"上海市浦东新区利川路501弄","date":1653494400000}},{"type":"Feature","geometry":{"type":"Point","coordinates":[121.493621,31.166803]},"properties":{"town":"浦东新区","published_address":"灵岩路56弄","geocoded_address":"上海市浦东新区灵岩路56弄","date":1653494400000}},{"type":"Feature","geometry":{"type":"Point","coordinates":[121.581109,31.276857]},"properties":{"town":"浦东新区","published_address":"浦东大道2970弄","geocoded_address":"上海市浦东新区浦东大道2970弄","date":1653494400000}},{"type":"Feature","geometry":{"type":"Point","coordinates":[121.56502,31.248492]},"properties":{"town":"浦东新区","published_address":"群峰路128弄","geocoded_address":"上海市浦东新区128弄","date":1653494400000}},{"type":"Feature","geometry":{"type":"Point","coordinates":[121.529807,31.237033]},"properties":{"town":"浦东新区","published_address":"乳山路200弄","geocoded_address":"上海市浦东新区乳山路200弄","date":1653494400000}},{"type":"Feature","geometry":{"type":"Point","coordinates":[121.588456,31.098891]},"properties":{"town":"浦东新区","published_address":"瑞阳路81弄","geocoded_address":"上海市浦东新区瑞阳路81弄","date":1653494400000}},{"type":"Feature","geometry":{"type":"Point","coordinates":[121.506538,31.154559]},"properties":{"town":"浦东新区","published_address":"三林镇联丰村徐隆昌队徐隆昌","geocoded_address":"上海市浦东新区徐隆昌","date":1653494400000}},{"type":"Feature","geometry":{"type":"Point","coordinates":[121.748282,31.057206]},"properties":{"town":"浦东新区","published_address":"听和路65弄","geocoded_address":"上海市浦东新区听和路65弄","date":1653494400000}},{"type":"Feature","geometry":{"type":"Point","coordinates":[121.469455,31.175235]},"properties":{"town":"浦东新区","published_address":"耀龙路16号工地生活区","geocoded_address":"上海市浦东新区耀龙路16号","date":1653494400000}},{"type":"Feature","geometry":{"type":"Point","coordinates":[121.549362,31.204142]},"properties":{"town":"浦东新区","published_address":"玉兰路60弄","geocoded_address":"上海市浦东新区玉兰路60弄","date":1653494400000}},{"type":"Feature","geometry":{"type":"Point","coordinates":[121.747201,31.084518]},"properties":{"town":"浦东新区","published_address":"祝桥镇立新村","geocoded_address":"上海市浦东新区立新村委","date":1653494400000}},{"type":"Feature","geometry":{"type":"Point","coordinates":[121.473395,31.209436]},"properties":{"town":"黄浦区","published_address":"重庆南路283号","geocoded_address":"上海市黄浦区重庆南路283号","date":1653494400000}},{"type":"Feature","geometry":{"type":"Point","coordinates":[121.472668,31.217103]},"properties":{"town":"黄浦区","published_address":"淡水路214弄","geocoded_address":"上海市黄浦区淡水路214弄","date":1653494400000}},{"type":"Feature","geometry":{"type":"Point","coordinates":[121.498429,31.220844]},"properties":{"town":"黄浦区","published_address":"复兴东路318号","geocoded_address":"上海市黄浦区复兴东路|318","date":1653494400000}},{"type":"Feature","geometry":{"type":"Point","coordinates":[121.491089,31.222694]},"properties":{"town":"黄浦区","published_address":"复兴东路701弄","geocoded_address":"上海市黄浦区复兴东路701弄","date":1653494400000}},{"type":"Feature","geometry":{"type":"Point","coordinates":[121.485273,31.235666]},"properties":{"town":"黄浦区","published_address":"汉口路271号","geocoded_address":"上海市黄浦区汉口路271号","date":1653494400000}},{"type":"Feature","geometry":{"type":"Point","coordinates":[121.476194,31.198272]},"properties":{"town":"黄浦区","published_address":"鲁班路598弄","geocoded_address":"上海市黄浦区鲁班路598弄","date":1653494400000}},{"type":"Feature","geometry":{"type":"Point","coordinates":[121.490129,31.211869]},"properties":{"town":"黄浦区","published_address":"陆家浜路976号","geocoded_address":"上海市黄浦区陆家浜路976号","date":1653494400000}},{"type":"Feature","geometry":{"type":"Point","coordinates":[121.49488,31.204016]},"properties":{"town":"黄浦区","published_address":"南车站路553号","geocoded_address":"上海市黄浦区南车站路|553","date":1653494400000}},{"type":"Feature","geometry":{"type":"Point","coordinates":[121.487484,31.216337]},"properties":{"town":"黄浦区","published_address":"蓬莱路411号","geocoded_address":"上海市黄浦区蓬莱路|411","date":1653494400000}},{"type":"Feature","geometry":{"type":"Point","coordinates":[121.494775,31.206807]},"properties":{"town":"黄浦区","published_address":"瞿溪路119号","geocoded_address":"上海市黄浦区瞿溪路|119","date":1653494400000}},{"type":"Feature","geometry":{"type":"Point","coordinates":[121.477688,31.200272]},"properties":{"town":"黄浦区","published_address":"瞿溪路937弄","geocoded_address":"上海市黄浦区瞿溪路937弄","date":1653494400000}},{"type":"Feature","geometry":{"type":"Point","coordinates":[121.495838,31.223864]},"properties":{"town":"黄浦区","published_address":"四牌楼路95弄","geocoded_address":"上海市黄浦区四牌楼路95弄","date":1653494400000}},{"type":"Feature","geometry":{"type":"Point","coordinates":[121.479491,31.232536]},"properties":{"town":"黄浦区","published_address":"浙江中路167弄","geocoded_address":"上海市黄浦区浙江中路167弄","date":1653494400000}},{"type":"Feature","geometry":{"type":"Point","coordinates":[121.493436,31.20451]},"properties":{"town":"黄浦区","published_address":"中山南路1726弄","geocoded_address":"上海市黄浦区中山南路1726弄","date":1653494400000}},{"type":"Feature","geometry":{"type":"Point","coordinates":[121.490908,31.223135]},"properties":{"town":"黄浦区","published_address":"昼锦路180弄","geocoded_address":"上海市黄浦区昼锦路180弄","date":1653494400000}},{"type":"Feature","geometry":{"type":"Point","coordinates":[121.47123,31.263363]},"properties":{"town":"静安区","published_address":"宝昌路731弄","geocoded_address":"上海市静安区宝昌路731弄","date":1653494400000}},{"type":"Feature","geometry":{"type":"Point","coordinates":[121.477989,31.258336]},"properties":{"town":"静安区","published_address":"宝山路519号","geocoded_address":"上海市静安区宝山路519-1号","date":1653494400000}},{"type":"Feature","geometry":{"type":"Point","coordinates":[121.459595,31.254978]},"properties":{"town":"静安区","published_address":"大统路933弄","geocoded_address":"上海市静安区大统路933弄","date":1653494400000}},{"type":"Feature","geometry":{"type":"Point","coordinates":[121.461047,31.259142]},"properties":{"town":"静安区","published_address":"共和新路970弄","geocoded_address":"上海市静安区共和新路970弄","date":1653494400000}},{"type":"Feature","geometry":{"type":"Point","coordinates":[121.457535,31.272427]},"properties":{"town":"静安区","published_address":"广延路25弄","geocoded_address":"上海市静安区广延路25弄","date":1653494400000}},{"type":"Feature","geometry":{"type":"Point","coordinates":[121.458531,31.243915]},"properties":{"town":"静安区","published_address":"华康路69弄","geocoded_address":"上海市静安区华康路69弄","date":1653494400000}},{"type":"Feature","geometry":{"type":"Point","coordinates":[121.455933,31.306977]},"properties":{"town":"静安区","published_address":"岭南路100弄","geocoded_address":"上海市静安区岭南路100弄","date":1653494400000}},{"type":"Feature","geometry":{"type":"Point","coordinates":[121.466055,31.257069]},"properties":{"town":"静安区","published_address":"南山路71弄","geocoded_address":"上海市静安区南山路71弄","date":1653494400000}},{"type":"Feature","geometry":{"type":"Point","coordinates":[121.470749,31.263098]},"properties":{"town":"静安区","published_address":"青云路435弄","geocoded_address":"上海市静安区青云路435弄","date":1653494400000}},{"type":"Feature","geometry":{"type":"Point","coordinates":[121.46684,31.24944]},"properties":{"town":"静安区","published_address":"虬江路1368弄","geocoded_address":"上海市静安区虬江路1368弄","date":1653494400000}},{"type":"Feature","geometry":{"type":"Point","coordinates":[121.442032,31.307966]},"properties":{"town":"静安区","published_address":"三泉路415弄","geocoded_address":"上海市静安区三泉路415弄","date":1653494400000}},{"type":"Feature","geometry":{"type":"Point","coordinates":[121.439849,31.317654]},"properties":{"town":"静安区","published_address":"三泉路895弄","geocoded_address":"上海市静安区三泉路895弄","date":1653494400000}},{"type":"Feature","geometry":{"type":"Point","coordinates":[121.45022,31.260428]},"properties":{"town":"静安区","published_address":"谈家桥路163弄","geocoded_address":"上海市静安区谈家桥路163弄","date":1653494400000}},{"type":"Feature","geometry":{"type":"Point","coordinates":[121.470686,31.261479]},"properties":{"town":"静安区","published_address":"通阁路200弄","geocoded_address":"上海市静安区通阁路200弄","date":1653494400000}},{"type":"Feature","geometry":{"type":"Point","coordinates":[121.438155,31.234634]},"properties":{"town":"静安区","published_address":"余姚路321弄","geocoded_address":"上海市静安区余姚路321弄","date":1653494400000}},{"type":"Feature","geometry":{"type":"Point","coordinates":[121.465413,31.258665]},"properties":{"town":"静安区","published_address":"芷江西路123弄","geocoded_address":"上海市静安区芷江西路123弄","date":1653494400000}},{"type":"Feature","geometry":{"type":"Point","coordinates":[121.463952,31.258355]},"properties":{"town":"静安区","published_address":"芷江西路165弄","geocoded_address":"上海市静安区芷江西路165弄","date":1653494400000}},{"type":"Feature","geometry":{"type":"Point","coordinates":[121.460769,31.258332]},"properties":{"town":"静安区","published_address":"芷江西路285弄","geocoded_address":"上海市静安区芷江西路285弄","date":1653494400000}},{"type":"Feature","geometry":{"type":"Point","coordinates":[121.458083,31.257427]},"properties":{"town":"静安区","published_address":"芷江西路393弄","geocoded_address":"上海市静安区芷江西路393弄","date":1653494400000}},{"type":"Feature","geometry":{"type":"Point","coordinates":[121.472118,31.256093]},"properties":{"town":"静安区","published_address":"中华新路288弄","geocoded_address":"上海市静安区中华新路288弄","date":1653494400000}},{"type":"Feature","geometry":{"type":"Point","coordinates":[121.467619,31.254847]},"properties":{"town":"静安区","published_address":"中华新路455弄","geocoded_address":"上海市静安区中华新路455弄","date":1653494400000}},{"type":"Feature","geometry":{"type":"Point","coordinates":[121.465396,31.261193]},"properties":{"town":"静安区","published_address":"中山北路570弄","geocoded_address":"上海市静安区中山北路570弄","date":1653494400000}},{"type":"Feature","geometry":{"type":"Point","coordinates":[121.435713,31.170397]},"properties":{"town":"徐汇区","published_address":"漕溪路251弄","geocoded_address":"上海市徐汇区漕溪路251弄","date":1653494400000}},{"type":"Feature","geometry":{"type":"Point","coordinates":[121.442302,31.137378]},"properties":{"town":"徐汇区","published_address":"长桥二村","geocoded_address":"上海市徐汇区长桥二村","date":1653494400000}},{"type":"Feature","geometry":{"type":"Point","coordinates":[121.427343,31.198019]},"properties":{"town":"徐汇区","published_address":"番禺路800弄","geocoded_address":"上海市徐汇区番禺路800弄","date":1653494400000}},{"type":"Feature","geometry":{"type":"Point","coordinates":[121.450483,31.166631]},"properties":{"town":"徐汇区","published_address":"机场新村","geocoded_address":"上海市徐汇区机场新村","date":1653494400000}},{"type":"Feature","geometry":{"type":"Point","coordinates":[121.449909,31.139622]},"properties":{"town":"徐汇区","published_address":"龙吴路1323弄","geocoded_address":"上海市徐汇区龙吴路1323弄","date":1653494400000}},{"type":"Feature","geometry":{"type":"Point","coordinates":[121.425629,31.1723]},"properties":{"town":"徐汇区","published_address":"田林十一村","geocoded_address":"上海市徐汇区田林十一村","date":1653494400000}},{"type":"Feature","geometry":{"type":"Point","coordinates":[121.427605,31.180679]},"properties":{"town":"徐汇区","published_address":"文定路468弄","geocoded_address":"上海市徐汇区文定路468弄","date":1653494400000}},{"type":"Feature","geometry":{"type":"Point","coordinates":[121.373467,31.217173]},"properties":{"town":"长宁区","published_address":"天山西路1070号","geocoded_address":"上海市长宁区天山西路","date":1653494400000}},{"type":"Feature","geometry":{"type":"Point","coordinates":[121.35215,31.230042]},"properties":{"town":"长宁区","published_address":"协和路1551号","geocoded_address":"上海市长宁区协和路1551号","date":1653494400000}},{"type":"Feature","geometry":{"type":"Point","coordinates":[121.382738,31.212463]},"properties":{"town":"长宁区","published_address":"新渔东路175号","geocoded_address":"上海市长宁区新渔东路","date":1653494400000}},{"type":"Feature","geometry":{"type":"Point","coordinates":[121.351554,31.187307]},"properties":{"town":"长宁区","published_address":"迎宾二路123号","geocoded_address":"上海市长宁区迎宾二路123号","date":1653494400000}},{"type":"Feature","geometry":{"type":"Point","coordinates":[121.409012,31.242069]},"properties":{"town":"普陀区","published_address":"曹杨七村","geocoded_address":"上海市普陀区曹杨七村","date":1653494400000}},{"type":"Feature","geometry":{"type":"Point","coordinates":[121.445302,31.245859]},"properties":{"town":"普陀区","published_address":"昌化路994弄","geocoded_address":"上海市普陀区昌化路994弄","date":1653494400000}},{"type":"Feature","geometry":{"type":"Point","coordinates":[121.427361,31.252163]},"properties":{"town":"普陀区","published_address":"石泉一村","geocoded_address":"上海市普陀区石泉一村","date":1653494400000}},{"type":"Feature","geometry":{"type":"Point","coordinates":[121.447276,31.260128]},"properties":{"town":"普陀区","published_address":"泰山一村","geocoded_address":"上海市普陀区泰山一村","date":1653494400000}},{"type":"Feature","geometry":{"type":"Point","coordinates":[121.442568,31.263706]},"properties":{"town":"普陀区","published_address":"延长西路16号","geocoded_address":"上海市普陀区延长西路|16号","date":1653494400000}},{"type":"Feature","geometry":{"type":"Point","coordinates":[121.442705,31.258085]},"properties":{"town":"普陀区","published_address":"宜川三村","geocoded_address":"上海市普陀区宜川三村","date":1653494400000}},{"type":"Feature","geometry":{"type":"Point","coordinates":[121.378243,31.231515]},"properties":{"town":"普陀区","published_address":"真北路1817弄","geocoded_address":"上海市普陀区真北路","date":1653494400000}},{"type":"Feature","geometry":{"type":"Point","coordinates":[121.470278,31.297056]},"properties":{"town":"虹口区","published_address":"车站北路625弄","geocoded_address":"上海市虹口区车站北路625弄","date":1653494400000}},{"type":"Feature","geometry":{"type":"Point","coordinates":[121.505111,31.267443]},"properties":{"town":"虹口区","published_address":"大连路975弄","geocoded_address":"上海市虹口区大连路975弄","date":1653494400000}},{"type":"Feature","geometry":{"type":"Point","coordinates":[121.493283,31.275723]},"properties":{"town":"虹口区","published_address":"大连西路201弄","geocoded_address":"上海市虹口区大连西路201弄","date":1653494400000}},{"type":"Feature","geometry":{"type":"Point","coordinates":[121.501331,31.256904]},"properties":{"town":"虹口区","published_address":"丹徒路405号","geocoded_address":"上海市虹口区丹徒路405号","date":1653494400000}},{"type":"Feature","geometry":{"type":"Point","coordinates":[121.471584,31.267504]},"properties":{"town":"虹口区","published_address":"广联路29弄","geocoded_address":"上海市虹口区广联路29弄","date":1653494400000}},{"type":"Feature","geometry":{"type":"Point","coordinates":[121.473523,31.266391]},"properties":{"town":"虹口区","published_address":"恒业路365弄","geocoded_address":"上海市虹口区恒业路365弄","date":1653494400000}},{"type":"Feature","geometry":{"type":"Point","coordinates":[121.491233,31.244952]},"properties":{"town":"虹口区","published_address":"金山路43号","geocoded_address":"上海市虹口区金山路|43号","date":1653494400000}},{"type":"Feature","geometry":{"type":"Point","coordinates":[121.465329,31.299947]},"properties":{"town":"虹口区","published_address":"奎照路11弄","geocoded_address":"上海市虹口区奎照路","date":1653494400000}},{"type":"Feature","geometry":{"type":"Point","coordinates":[121.488274,31.277815]},"properties":{"town":"虹口区","published_address":"临平路250弄","geocoded_address":"上海市虹口区临平北路250弄","date":1653494400000}},{"type":"Feature","geometry":{"type":"Point","coordinates":[121.488316,31.26664]},"properties":{"town":"虹口区","published_address":"欧阳路196号","geocoded_address":"上海市虹口区欧阳路196号","date":1653494400000}},{"type":"Feature","geometry":{"type":"Point","coordinates":[121.49956,31.26365]},"properties":{"town":"虹口区","published_address":"瑞虹路233弄","geocoded_address":"上海市虹口区233弄","date":1653494400000}},{"type":"Feature","geometry":{"type":"Point","coordinates":[121.500694,31.266761]},"properties":{"town":"虹口区","published_address":"瑞虹路368弄","geocoded_address":"上海市虹口区瑞虹路368弄","date":1653494400000}},{"type":"Feature","geometry":{"type":"Point","coordinates":[121.500733,31.266653]},"properties":{"town":"虹口区","published_address":"瑞虹路383弄","geocoded_address":"上海市虹口区瑞虹路383弄","date":1653494400000}},{"type":"Feature","geometry":{"type":"Point","coordinates":[121.500252,31.268332]},"properties":{"town":"虹口区","published_address":"瑞虹路438弄","geocoded_address":"上海市虹口区瑞虹路438弄","date":1653494400000}},{"type":"Feature","geometry":{"type":"Point","coordinates":[121.485298,31.265187]},"properties":{"town":"虹口区","published_address":"山阴路69弄","geocoded_address":"上海市虹口区山阴路69弄","date":1653494400000}},{"type":"Feature","geometry":{"type":"Point","coordinates":[121.486409,31.265356]},"properties":{"town":"虹口区","published_address":"山阴路85弄","geocoded_address":"上海市虹口区山阴路85弄","date":1653494400000}},{"type":"Feature","geometry":{"type":"Point","coordinates":[121.483141,31.255373]},"properties":{"town":"虹口区","published_address":"四川北路1515弄","geocoded_address":"上海市虹口区四川北路1515弄","date":1653494400000}},{"type":"Feature","geometry":{"type":"Point","coordinates":[121.482073,31.255747]},"properties":{"town":"虹口区","published_address":"四川北路1545弄","geocoded_address":"上海市虹口区四川北路1545弄","date":1653494400000}},{"type":"Feature","geometry":{"type":"Point","coordinates":[121.491755,31.265363]},"properties":{"town":"虹口区","published_address":"四平路288弄","geocoded_address":"上海市虹口区四平路288弄","date":1653494400000}},{"type":"Feature","geometry":{"type":"Point","coordinates":[121.476552,31.263967]},"properties":{"town":"虹口区","published_address":"天通庵路666弄","geocoded_address":"上海市虹口区天通庵路666弄","date":1653494400000}},{"type":"Feature","geometry":{"type":"Point","coordinates":[121.474337,31.268077]},"properties":{"town":"虹口区","published_address":"同心路338弄","geocoded_address":"上海市虹口区同心路338弄","date":1653494400000}},{"type":"Feature","geometry":{"type":"Point","coordinates":[121.478854,31.266281]},"properties":{"town":"虹口区","published_address":"同心路93弄","geocoded_address":"上海市虹口区同心路93弄","date":1653494400000}},{"type":"Feature","geometry":{"type":"Point","coordinates":[121.493962,31.259975]},"properties":{"town":"虹口区","published_address":"物华路118弄","geocoded_address":"上海市虹口区物华路118弄","date":1653494400000}},{"type":"Feature","geometry":{"type":"Point","coordinates":[121.469694,31.270013]},"properties":{"town":"虹口区","published_address":"西宝兴路949弄","geocoded_address":"上海市虹口区西宝兴路949弄","date":1653494400000}},{"type":"Feature","geometry":{"type":"Point","coordinates":[121.481636,31.254788]},"properties":{"town":"虹口区","published_address":"新广路243号","geocoded_address":"上海市虹口区新广路243号","date":1653494400000}},{"type":"Feature","geometry":{"type":"Point","coordinates":[121.494894,31.279908]},"properties":{"town":"虹口区","published_address":"玉田路220弄","geocoded_address":"上海市虹口区玉田路220弄","date":1653494400000}},{"type":"Feature","geometry":{"type":"Point","coordinates":[121.505424,31.268965]},"properties":{"town":"虹口区","published_address":"榆兰新村","geocoded_address":"上海市虹口区榆兰新村","date":1653494400000}},{"type":"Feature","geometry":{"type":"Point","coordinates":[121.47939,31.276462]},"properties":{"town":"虹口区","published_address":"中山北一路250弄","geocoded_address":"上海市虹口区中山北一路250弄","date":1653494400000}},{"type":"Feature","geometry":{"type":"Point","coordinates":[121.501596,31.2605]},"properties":{"town":"虹口区","published_address":"舟山路204号","geocoded_address":"上海市虹口区舟山路|204号","date":1653494400000}},{"type":"Feature","geometry":{"type":"Point","coordinates":[121.47794,31.283628]},"properties":{"town":"虹口区","published_address":"友谊三村","geocoded_address":"上海市虹口区友谊三村","date":1653494400000}},{"type":"Feature","geometry":{"type":"Point","coordinates":[121.504573,31.268905]},"properties":{"town":"虹口区","published_address":"远洋新村","geocoded_address":"上海市虹口区远洋新村","date":1653494400000}},{"type":"Feature","geometry":{"type":"Point","coordinates":[121.518553,31.277385]},"properties":{"town":"杨浦区","published_address":"凤城二村","geocoded_address":"上海市杨浦区凤城二村(二小区)","date":1653494400000}},{"type":"Feature","geometry":{"type":"Point","coordinates":[121.527519,31.263318]},"properties":{"town":"杨浦区","published_address":"济宁路479弄","geocoded_address":"上海市杨浦区济宁路479弄","date":1653494400000}},{"type":"Feature","geometry":{"type":"Point","coordinates":[121.528508,31.263437]},"properties":{"town":"杨浦区","published_address":"济宁路521弄","geocoded_address":"上海市杨浦区济宁路521弄","date":1653494400000}},{"type":"Feature","geometry":{"type":"Point","coordinates":[121.525174,31.284783]},"properties":{"town":"杨浦区","published_address":"控江西三村","geocoded_address":"上海市杨浦区控江","date":1653494400000}},{"type":"Feature","geometry":{"type":"Point","coordinates":[121.517577,31.31557]},"properties":{"town":"杨浦区","published_address":"市光路299号","geocoded_address":"上海市杨浦区市光路299号","date":1653494400000}},{"type":"Feature","geometry":{"type":"Point","coordinates":[121.49694,31.301105]},"properties":{"town":"杨浦区","published_address":"武东路57号","geocoded_address":"上海市杨浦区武东路57号","date":1653494400000}},{"type":"Feature","geometry":{"type":"Point","coordinates":[121.521004,31.281236]},"properties":{"town":"杨浦区","published_address":"延吉西路80弄","geocoded_address":"上海市杨浦区延吉西路80弄","date":1653494400000}},{"type":"Feature","geometry":{"type":"Point","coordinates":[121.537522,31.327113]},"properties":{"town":"杨浦区","published_address":"殷行路451弄","geocoded_address":"上海市杨浦区殷行路451弄","date":1653494400000}},{"type":"Feature","geometry":{"type":"Point","coordinates":[121.533447,31.30237]},"properties":{"town":"杨浦区","published_address":"营口路866弄","geocoded_address":"上海市杨浦区营口路866弄","date":1653494400000}},{"type":"Feature","geometry":{"type":"Point","coordinates":[121.541906,31.273592]},"properties":{"town":"杨浦区","published_address":"长阳路2121弄","geocoded_address":"上海市杨浦区长阳路2121弄","date":1653494400000}},{"type":"Feature","geometry":{"type":"Point","coordinates":[121.523353,31.307378]},"properties":{"town":"杨浦区","published_address":"政立路6弄","geocoded_address":"上海市杨浦区政立路6弄","date":1653494400000}},{"type":"Feature","geometry":{"type":"Point","coordinates":[121.397961,31.361379]},"properties":{"town":"宝山区","published_address":"宝荻路500弄","geocoded_address":"上海市宝山区宝荻路500弄","date":1653494400000}},{"type":"Feature","geometry":{"type":"Point","coordinates":[121.330415,31.467824]},"properties":{"town":"宝山区","published_address":"长虹路429号","geocoded_address":"上海市宝山区长虹路429号","date":1653494400000}},{"type":"Feature","geometry":{"type":"Point","coordinates":[121.494417,31.35304]},"properties":{"town":"宝山区","published_address":"长江路255号","geocoded_address":"上海市宝山区长江路255号","date":1653494400000}},{"type":"Feature","geometry":{"type":"Point","coordinates":[121.456219,31.337727]},"properties":{"town":"宝山区","published_address":"长江西路1301号","geocoded_address":"上海市宝山区长江西路|1301号","date":1653494400000}},{"type":"Feature","geometry":{"type":"Point","coordinates":[121.431972,31.401391]},"properties":{"town":"宝山区","published_address":"富锦路1858号","geocoded_address":"上海市宝山区富锦路1858号","date":1653494400000}},{"type":"Feature","geometry":{"type":"Point","coordinates":[121.424101,31.278487]},"properties":{"town":"宝山区","published_address":"沪太路1500弄","geocoded_address":"上海市宝山区沪太路1500弄","date":1653494400000}},{"type":"Feature","geometry":{"type":"Point","coordinates":[121.421937,31.287252]},"properties":{"town":"宝山区","published_address":"沪太路1771弄","geocoded_address":"上海市宝山区沪太路1771弄","date":1653494400000}},{"type":"Feature","geometry":{"type":"Point","coordinates":[121.435182,31.371039]},"properties":{"town":"宝山区","published_address":"梅林路866弄","geocoded_address":"上海市宝山区梅林路866弄","date":1653494400000}},{"type":"Feature","geometry":{"type":"Point","coordinates":[121.331659,31.486187]},"properties":{"town":"宝山区","published_address":"潘新路255弄","geocoded_address":"上海市宝山区潘新路255弄","date":1653494400000}},{"type":"Feature","geometry":{"type":"Point","coordinates":[121.351581,31.315694]},"properties":{"town":"宝山区","published_address":"市台路388弄","geocoded_address":"上海市宝山区市台路","date":1653494400000}},{"type":"Feature","geometry":{"type":"Point","coordinates":[121.479611,31.378083]},"properties":{"town":"宝山区","published_address":"水产路1458号","geocoded_address":"上海市宝山区水产路1458号","date":1653494400000}},{"type":"Feature","geometry":{"type":"Point","coordinates":[121.442387,31.364661]},"properties":{"town":"宝山区","published_address":"水产路2600弄","geocoded_address":"上海市宝山区水产路2600弄","date":1653494400000}},{"type":"Feature","geometry":{"type":"Point","coordinates":[121.490807,31.348986]},"properties":{"town":"宝山区","published_address":"淞南路549弄","geocoded_address":"上海市宝山区淞南路549弄","date":1653494400000}},{"type":"Feature","geometry":{"type":"Point","coordinates":[121.39768,31.327576]},"properties":{"town":"宝山区","published_address":"纬地路358弄","geocoded_address":"上海市宝山区纬地路358弄","date":1653494400000}},{"type":"Feature","geometry":{"type":"Point","coordinates":[121.456196,31.337302]},"properties":{"town":"宝山区","published_address":"泗塘二村","geocoded_address":"上海市宝山区泗塘二村","date":1653494400000}},{"type":"Feature","geometry":{"type":"Point","coordinates":[121.46029,31.336686]},"properties":{"town":"宝山区","published_address":"泗塘四村","geocoded_address":"上海市宝山区泗塘四村","date":1653494400000}},{"type":"Feature","geometry":{"type":"Point","coordinates":[121.445234,31.330689]},"properties":{"town":"宝山区","published_address":"通河四村","geocoded_address":"上海市宝山区通河四村","date":1653494400000}},{"type":"Feature","geometry":{"type":"Point","coordinates":[121.362299,31.143321]},"properties":{"town":"闵行区","published_address":"七莘路2288弄","geocoded_address":"上海市闵行区七莘路2288弄","date":1653494400000}},{"type":"Feature","geometry":{"type":"Point","coordinates":[121.295336,31.204788]},"properties":{"town":"闵行区","published_address":"诸翟村","geocoded_address":"上海市闵行区诸翟村","date":1653494400000}},{"type":"Feature","geometry":{"type":"Point","coordinates":[121.326869,31.24624]},"properties":{"town":"嘉定区","published_address":"鹤望路365弄","geocoded_address":"上海市嘉定区鹤望路365弄","date":1653494400000}},{"type":"Feature","geometry":{"type":"Point","coordinates":[121.373328,31.248588]},"properties":{"town":"嘉定区","published_address":"梅川路1728弄","geocoded_address":"上海市嘉定区梅川路1728弄","date":1653494400000}},{"type":"Feature","geometry":{"type":"Point","coordinates":[121.489139,31.3708]},"properties":{"town":"嘉定区","published_address":"桃园新村","geocoded_address":"上海市宝山区桃园新村(泰和路)","date":1653494400000}},{"type":"Feature","geometry":{"type":"Point","coordinates":[121.274207,31.18155]},"properties":{"town":"青浦区","published_address":"华徐公路333号","geocoded_address":"上海市青浦区华徐公路333号","date":1653494400000}},{"type":"Feature","geometry":{"type":"Point","coordinates":[121.294667,31.196465]},"properties":{"town":"青浦区","published_address":"龙联路108弄","geocoded_address":"上海市青浦区龙联路108弄","date":1653494400000}}]},"2022-05-25":{"type":"FeatureCollection","features":[{"type":"Feature","geometry":{"type":"Point","coordinates":[121.734048,31.140756]},"properties":{"town":"浦东新区","published_address":"川沙新镇储店村南张家宅","geocoded_address":"上海市浦东新区储店村","date":1653408000000}},{"type":"Feature","geometry":{"type":"Point","coordinates":[121.574542,31.290923]},"properties":{"town":"浦东新区","published_address":"东沟四村","geocoded_address":"上海市浦东新区东沟四村","date":1653408000000}},{"type":"Feature","geometry":{"type":"Point","coordinates":[121.557784,31.196189]},"properties":{"town":"浦东新区","published_address":"芳华路371弄","geocoded_address":"上海市浦东新区芳华路371弄","date":1653408000000}},{"type":"Feature","geometry":{"type":"Point","coordinates":[121.5682,31.339076]},"properties":{"town":"浦东新区","published_address":"高桥镇南塘村","geocoded_address":"上海市浦东新区高桥镇南塘村","date":1653408000000}},{"type":"Feature","geometry":{"type":"Point","coordinates":[121.604543,31.185006]},"properties":{"town":"浦东新区","published_address":"海纳路490弄工地生活区","geocoded_address":"上海市浦东新区龙象工地生活区","date":1653408000000}},{"type":"Feature","geometry":{"type":"Point","coordinates":[121.602397,31.021295]},"properties":{"town":"浦东新区","published_address":"环镇东路200弄","geocoded_address":"上海市浦东新区环镇东路200弄","date":1653408000000}},{"type":"Feature","geometry":{"type":"Point","coordinates":[121.764987,31.074573]},"properties":{"town":"浦东新区","published_address":"惠南镇陆楼村","geocoded_address":"上海市浦东新区陆楼村","date":1653408000000}},{"type":"Feature","geometry":{"type":"Point","coordinates":[121.608975,31.258477]},"properties":{"town":"浦东新区","published_address":"金港路121号生活区","geocoded_address":"上海市浦东新区金港路121号","date":1653408000000}},{"type":"Feature","geometry":{"type":"Point","coordinates":[121.518632,31.234973]},"properties":{"town":"浦东新区","published_address":"崂山三村","geocoded_address":"上海市浦东新区崂山三村","date":1653408000000}},{"type":"Feature","geometry":{"type":"Point","coordinates":[121.514647,31.238659]},"properties":{"town":"浦东新区","published_address":"浦东大道140弄","geocoded_address":"上海市浦东新区浦东大道140弄","date":1653408000000}},{"type":"Feature","geometry":{"type":"Point","coordinates":[121.521113,31.240025]},"properties":{"town":"浦东新区","published_address":"乳山路313弄","geocoded_address":"上海市浦东新区313弄","date":1653408000000}},{"type":"Feature","geometry":{"type":"Point","coordinates":[121.523764,31.122456]},"properties":{"town":"浦东新区","published_address":"三林镇天花庵村南陈队大陈家宅","geocoded_address":"上海市浦东新区南陈队","date":1653408000000}},{"type":"Feature","geometry":{"type":"Point","coordinates":[121.486,31.129125]},"properties":{"town":"浦东新区","published_address":"三林镇新春村方家队方巷","geocoded_address":"上海市浦东新区方巷","date":1653408000000}},{"type":"Feature","geometry":{"type":"Point","coordinates":[121.505304,31.122998]},"properties":{"town":"浦东新区","published_address":"三舒路181弄","geocoded_address":"上海市浦东新区三舒路181弄","date":1653408000000}},{"type":"Feature","geometry":{"type":"Point","coordinates":[121.523151,31.23202]},"properties":{"town":"浦东新区","published_address":"商城路918弄","geocoded_address":"上海市浦东新区商城路918弄","date":1653408000000}},{"type":"Feature","geometry":{"type":"Point","coordinates":[121.54537,31.237999]},"properties":{"town":"浦东新区","published_address":"沈家弄路877弄","geocoded_address":"上海市浦东新区沈家弄路877弄","date":1653408000000}},{"type":"Feature","geometry":{"type":"Point","coordinates":[121.488286,31.175377]},"properties":{"town":"浦东新区","published_address":"耀华路260号","geocoded_address":"上海市浦东新区耀华路260号","date":1653408000000}},{"type":"Feature","geometry":{"type":"Point","coordinates":[121.504261,31.134527]},"properties":{"town":"浦东新区","published_address":"永泰路136弄","geocoded_address":"上海市浦东新区永泰路136弄","date":1653408000000}},{"type":"Feature","geometry":{"type":"Point","coordinates":[121.543901,31.232918]},"properties":{"town":"浦东新区","published_address":"羽山路383弄","geocoded_address":"上海市浦东新区羽山路383弄","date":1653408000000}},{"type":"Feature","geometry":{"type":"Point","coordinates":[121.340118,31.354697]},"properties":{"town":"浦东新区","published_address":"张江镇劳动村吴家宅北","geocoded_address":"上海市宝山区吴家宅","date":1653408000000}},{"type":"Feature","geometry":{"type":"Point","coordinates":[121.633998,31.188597]},"properties":{"town":"浦东新区","published_address":"中科路2500弄","geocoded_address":"上海市浦东新区中科路2500弄","date":1653408000000}},{"type":"Feature","geometry":{"type":"Point","coordinates":[121.634456,31.189845]},"properties":{"town":"浦东新区","published_address":"中科路2635弄","geocoded_address":"上海市浦东新区中科路2635弄","date":1653408000000}},{"type":"Feature","geometry":{"type":"Point","coordinates":[121.591909,31.111574]},"properties":{"town":"浦东新区","published_address":"祝家港路399弄","geocoded_address":"上海市浦东新区祝家港路399弄","date":1653408000000}},{"type":"Feature","geometry":{"type":"Point","coordinates":[121.49046,31.207289]},"properties":{"town":"黄浦区","published_address":"保屯路99弄","geocoded_address":"上海市黄浦区保屯路99弄","date":1653408000000}},{"type":"Feature","geometry":{"type":"Point","coordinates":[121.479533,31.239362]},"properties":{"town":"黄浦区","published_address":"北京东路431弄","geocoded_address":"上海市黄浦区北京东路431弄","date":1653408000000}},{"type":"Feature","geometry":{"type":"Point","coordinates":[121.473836,31.216438]},"properties":{"town":"黄浦区","published_address":"淡水路229弄","geocoded_address":"上海市黄浦区淡水路229弄","date":1653408000000}},{"type":"Feature","geometry":{"type":"Point","coordinates":[121.484975,31.215915]},"properties":{"town":"黄浦区","published_address":"方斜路269号","geocoded_address":"上海市黄浦区方斜路269号","date":1653408000000}},{"type":"Feature","geometry":{"type":"Point","coordinates":[121.499619,31.210542]},"properties":{"town":"黄浦区","published_address":"海潮路93弄","geocoded_address":"上海市黄浦区海潮路93弄","date":1653408000000}},{"type":"Feature","geometry":{"type":"Point","coordinates":[121.469578,31.236624]},"properties":{"town":"黄浦区","published_address":"黄河路229号","geocoded_address":"上海市黄浦区黄河路229号","date":1653408000000}},{"type":"Feature","geometry":{"type":"Point","coordinates":[121.490029,31.231057]},"properties":{"town":"黄浦区","published_address":"金陵东路87号","geocoded_address":"上海市黄浦区金陵东路87号","date":1653408000000}},{"type":"Feature","geometry":{"type":"Point","coordinates":[121.480398,31.207782]},"properties":{"town":"黄浦区","published_address":"局门路241弄","geocoded_address":"上海市黄浦区局门路241弄","date":1653408000000}},{"type":"Feature","geometry":{"type":"Point","coordinates":[121.496233,31.223319]},"properties":{"town":"黄浦区","published_address":"聚奎新村","geocoded_address":"上海市黄浦区聚奎新村","date":1653408000000}},{"type":"Feature","geometry":{"type":"Point","coordinates":[121.483078,31.208152]},"properties":{"town":"黄浦区","published_address":"丽园路448弄","geocoded_address":"上海市黄浦区丽园路448弄","date":1653408000000}},{"type":"Feature","geometry":{"type":"Point","coordinates":[121.476161,31.20583]},"properties":{"town":"黄浦区","published_address":"丽园路842弄","geocoded_address":"上海市黄浦区丽园路842弄","date":1653408000000}},{"type":"Feature","geometry":{"type":"Point","coordinates":[121.471277,31.193068]},"properties":{"town":"黄浦区","published_address":"龙华东路888弄","geocoded_address":"上海市黄浦区龙华东路888弄","date":1653408000000}},{"type":"Feature","geometry":{"type":"Point","coordinates":[121.496203,31.224403]},"properties":{"town":"黄浦区","published_address":"陆家宅支路27号","geocoded_address":"上海市黄浦区陆家宅支路|27号","date":1653408000000}},{"type":"Feature","geometry":{"type":"Point","coordinates":[121.462638,31.215055]},"properties":{"town":"黄浦区","published_address":"茂名南路169弄","geocoded_address":"上海市黄浦区茂名南路169弄","date":1653408000000}},{"type":"Feature","geometry":{"type":"Point","coordinates":[121.491463,31.215705]},"properties":{"town":"黄浦区","published_address":"尚文路133弄","geocoded_address":"上海市黄浦区尚文路133弄","date":1653408000000}},{"type":"Feature","geometry":{"type":"Point","coordinates":[121.489622,31.204295]},"properties":{"town":"黄浦区","published_address":"西藏南路1433弄","geocoded_address":"上海市黄浦区西藏南路1433弄","date":1653408000000}},{"type":"Feature","geometry":{"type":"Point","coordinates":[121.490889,31.208089]},"properties":{"town":"黄浦区","published_address":"斜土东路68弄","geocoded_address":"上海市黄浦区斜土东路68弄","date":1653408000000}},{"type":"Feature","geometry":{"type":"Point","coordinates":[121.472899,31.202328]},"properties":{"town":"黄浦区","published_address":"斜土路688号","geocoded_address":"上海市黄浦区斜土路688号","date":1653408000000}},{"type":"Feature","geometry":{"type":"Point","coordinates":[121.472972,31.25949]},"properties":{"town":"静安区","published_address":"宝昌路517号","geocoded_address":"上海市静安区宝昌路517号","date":1653408000000}},{"type":"Feature","geometry":{"type":"Point","coordinates":[121.449969,31.306005]},"properties":{"town":"静安区","published_address":"场中路2187弄","geocoded_address":"上海市静安区场中路2187弄","date":1653408000000}},{"type":"Feature","geometry":{"type":"Point","coordinates":[121.450116,31.313208]},"properties":{"town":"静安区","published_address":"汾西路845号","geocoded_address":"上海市静安区汾西路|845","date":1653408000000}},{"type":"Feature","geometry":{"type":"Point","coordinates":[121.451238,31.249427]},"properties":{"town":"静安区","published_address":"恒丰路710号","geocoded_address":"上海市静安区恒丰路|710","date":1653408000000}},{"type":"Feature","geometry":{"type":"Point","coordinates":[121.463637,31.248365]},"properties":{"town":"静安区","published_address":"京江路238号","geocoded_address":"上海市静安区京江路238号","date":1653408000000}},{"type":"Feature","geometry":{"type":"Point","coordinates":[121.455933,31.306977]},"properties":{"town":"静安区","published_address":"岭南路100弄","geocoded_address":"上海市静安区岭南路100弄","date":1653408000000}},{"type":"Feature","geometry":{"type":"Point","coordinates":[121.466607,31.2569]},"properties":{"town":"静安区","published_address":"南山路35弄","geocoded_address":"上海市静安区南山路35弄","date":1653408000000}},{"type":"Feature","geometry":{"type":"Point","coordinates":[121.453765,31.310453]},"properties":{"town":"静安区","published_address":"彭浦新村372号","geocoded_address":"上海市静安区彭浦新村|372","date":1653408000000}},{"type":"Feature","geometry":{"type":"Point","coordinates":[121.472748,31.264064]},"properties":{"town":"静安区","published_address":"青云路315弄","geocoded_address":"上海市静安区青云路315弄","date":1653408000000}},{"type":"Feature","geometry":{"type":"Point","coordinates":[121.4736,31.26283]},"properties":{"town":"静安区","published_address":"青云路350弄","geocoded_address":"上海市静安区青云路350弄","date":1653408000000}},{"type":"Feature","geometry":{"type":"Point","coordinates":[121.470749,31.263098]},"properties":{"town":"静安区","published_address":"青云路435弄","geocoded_address":"上海市静安区青云路435弄","date":1653408000000}},{"type":"Feature","geometry":{"type":"Point","coordinates":[121.439298,31.313596]},"properties":{"town":"静安区","published_address":"三泉路717弄","geocoded_address":"上海市静安区三泉路717弄","date":1653408000000}},{"type":"Feature","geometry":{"type":"Point","coordinates":[121.45022,31.260428]},"properties":{"town":"静安区","published_address":"谈家桥路163弄","geocoded_address":"上海市静安区谈家桥路163弄","date":1653408000000}},{"type":"Feature","geometry":{"type":"Point","coordinates":[121.440578,31.288252]},"properties":{"town":"静安区","published_address":"万荣路970弄","geocoded_address":"上海市静安区万荣路970弄","date":1653408000000}},{"type":"Feature","geometry":{"type":"Point","coordinates":[121.454166,31.308229]},"properties":{"town":"静安区","published_address":"闻喜路675号","geocoded_address":"上海市静安区闻喜路|675","date":1653408000000}},{"type":"Feature","geometry":{"type":"Point","coordinates":[121.455814,31.230166]},"properties":{"town":"静安区","published_address":"西藏北路987弄","geocoded_address":"上海市静安区西藏北路987弄","date":1653408000000}},{"type":"Feature","geometry":{"type":"Point","coordinates":[121.438297,31.217025]},"properties":{"town":"静安区","published_address":"延安西路433号","geocoded_address":"上海市静安区延安西路433号","date":1653408000000}},{"type":"Feature","geometry":{"type":"Point","coordinates":[121.458083,31.257427]},"properties":{"town":"静安区","published_address":"芷江西路393弄","geocoded_address":"上海市静安区芷江西路393弄","date":1653408000000}},{"type":"Feature","geometry":{"type":"Point","coordinates":[121.470744,31.259851]},"properties":{"town":"静安区","published_address":"芷江中路413弄","geocoded_address":"上海市静安区芷江中路413弄","date":1653408000000}},{"type":"Feature","geometry":{"type":"Point","coordinates":[121.472118,31.256093]},"properties":{"town":"静安区","published_address":"中华新路288弄","geocoded_address":"上海市静安区中华新路288弄","date":1653408000000}},{"type":"Feature","geometry":{"type":"Point","coordinates":[121.465317,31.253888]},"properties":{"town":"静安区","published_address":"中华新路499号","geocoded_address":"上海市普陀区中华新路|499号","date":1653408000000}},{"type":"Feature","geometry":{"type":"Point","coordinates":[121.460833,31.251747]},"properties":{"town":"静安区","published_address":"中兴路1340弄","geocoded_address":"上海市静安区中兴路1340弄","date":1653408000000}},{"type":"Feature","geometry":{"type":"Point","coordinates":[121.460772,31.252504]},"properties":{"town":"静安区","published_address":"中兴路1385弄","geocoded_address":"上海市静安区中兴路1385弄","date":1653408000000}},{"type":"Feature","geometry":{"type":"Point","coordinates":[121.454683,31.190382]},"properties":{"town":"徐汇区","published_address":"东安路338弄","geocoded_address":"上海市徐汇区东安路338弄","date":1653408000000}},{"type":"Feature","geometry":{"type":"Point","coordinates":[121.459582,31.213581]},"properties":{"town":"徐汇区","published_address":"复兴中路1218弄","geocoded_address":"上海市徐汇区复兴中路1218弄","date":1653408000000}},{"type":"Feature","geometry":{"type":"Point","coordinates":[121.446552,31.131202]},"properties":{"town":"徐汇区","published_address":"罗秀新村","geocoded_address":"上海市徐汇区罗秀新村","date":1653408000000}},{"type":"Feature","geometry":{"type":"Point","coordinates":[121.457729,31.219116]},"properties":{"town":"徐汇区","published_address":"陕西南路186弄","geocoded_address":"上海市徐汇区陕西南路186弄","date":1653408000000}},{"type":"Feature","geometry":{"type":"Point","coordinates":[121.442747,31.156104]},"properties":{"town":"徐汇区","published_address":"石龙路321号","geocoded_address":"上海市徐汇区石龙路321号","date":1653408000000}},{"type":"Feature","geometry":{"type":"Point","coordinates":[121.432378,31.176379]},"properties":{"town":"徐汇区","published_address":"田林东路100弄","geocoded_address":"上海市徐汇区田林东路100弄","date":1653408000000}},{"type":"Feature","geometry":{"type":"Point","coordinates":[121.456899,31.198857]},"properties":{"town":"徐汇区","published_address":"医学院路72弄","geocoded_address":"上海市徐汇区医学院路72弄","date":1653408000000}},{"type":"Feature","geometry":{"type":"Point","coordinates":[121.419162,31.17266]},"properties":{"town":"徐汇区","published_address":"宜山路701弄","geocoded_address":"上海市徐汇区宜山路701弄","date":1653408000000}},{"type":"Feature","geometry":{"type":"Point","coordinates":[121.37509,31.212719]},"properties":{"town":"长宁区","published_address":"哈密路398弄","geocoded_address":"上海市长宁区哈密路398弄","date":1653408000000}},{"type":"Feature","geometry":{"type":"Point","coordinates":[121.360038,31.213132]},"properties":{"town":"长宁区","published_address":"淞虹路685弄","geocoded_address":"上海市长宁区淞虹路685弄","date":1653408000000}},{"type":"Feature","geometry":{"type":"Point","coordinates":[121.412344,31.221646]},"properties":{"town":"长宁区","published_address":"万航渡路2088弄","geocoded_address":"上海市长宁区万航渡路2088弄","date":1653408000000}},{"type":"Feature","geometry":{"type":"Point","coordinates":[121.35215,31.230042]},"properties":{"town":"长宁区","published_address":"协和路1551号","geocoded_address":"上海市长宁区协和路1551号","date":1653408000000}},{"type":"Feature","geometry":{"type":"Point","coordinates":[121.420953,31.204775]},"properties":{"town":"长宁区","published_address":"新华路613号","geocoded_address":"上海市长宁区新华路|613","date":1653408000000}},{"type":"Feature","geometry":{"type":"Point","coordinates":[121.382738,31.212463]},"properties":{"town":"长宁区","published_address":"新渔东路175号","geocoded_address":"上海市长宁区新渔东路","date":1653408000000}},{"type":"Feature","geometry":{"type":"Point","coordinates":[121.426483,31.217091]},"properties":{"town":"长宁区","published_address":"宣化路217号","geocoded_address":"上海市长宁区宣化路217号","date":1653408000000}},{"type":"Feature","geometry":{"type":"Point","coordinates":[121.406222,31.197472]},"properties":{"town":"长宁区","published_address":"伊犁南路566号","geocoded_address":"上海市长宁区伊犁南路566号","date":1653408000000}},{"type":"Feature","geometry":{"type":"Point","coordinates":[121.409012,31.242069]},"properties":{"town":"普陀区","published_address":"曹杨七村","geocoded_address":"上海市普陀区曹杨七村","date":1653408000000}},{"type":"Feature","geometry":{"type":"Point","coordinates":[121.447276,31.260128]},"properties":{"town":"普陀区","published_address":"泰山一村","geocoded_address":"上海市普陀区泰山一村","date":1653408000000}},{"type":"Feature","geometry":{"type":"Point","coordinates":[121.362206,31.359091]},"properties":{"town":"普陀区","published_address":"新村路50弄","geocoded_address":"上海市宝山区50弄","date":1653408000000}},{"type":"Feature","geometry":{"type":"Point","coordinates":[121.442705,31.258085]},"properties":{"town":"普陀区","published_address":"宜川三村","geocoded_address":"上海市普陀区宜川三村","date":1653408000000}},{"type":"Feature","geometry":{"type":"Point","coordinates":[121.505111,31.267443]},"properties":{"town":"虹口区","published_address":"大连路975弄","geocoded_address":"上海市虹口区大连路975弄","date":1653408000000}},{"type":"Feature","geometry":{"type":"Point","coordinates":[121.494485,31.2761]},"properties":{"town":"虹口区","published_address":"大连西路195弄","geocoded_address":"上海市虹口区大连西路195弄","date":1653408000000}},{"type":"Feature","geometry":{"type":"Point","coordinates":[121.493283,31.275723]},"properties":{"town":"虹口区","published_address":"大连西路201弄","geocoded_address":"上海市虹口区大连西路201弄","date":1653408000000}},{"type":"Feature","geometry":{"type":"Point","coordinates":[121.49119,31.275457]},"properties":{"town":"虹口区","published_address":"大连西路215弄","geocoded_address":"上海市虹口区大连西路215弄","date":1653408000000}},{"type":"Feature","geometry":{"type":"Point","coordinates":[121.481453,31.258133]},"properties":{"town":"虹口区","published_address":"东宝兴路276号","geocoded_address":"上海市虹口区东宝兴路276号","date":1653408000000}},{"type":"Feature","geometry":{"type":"Point","coordinates":[121.476579,31.261793]},"properties":{"town":"虹口区","published_address":"东宝兴路667弄","geocoded_address":"上海市虹口区东宝兴路667弄","date":1653408000000}},{"type":"Feature","geometry":{"type":"Point","coordinates":[121.494385,31.251952]},"properties":{"town":"虹口区","published_address":"东汉阳路309弄","geocoded_address":"上海市虹口区东汉阳路309弄","date":1653408000000}},{"type":"Feature","geometry":{"type":"Point","coordinates":[121.488384,31.284632]},"properties":{"town":"虹口区","published_address":"东体育会路671号","geocoded_address":"上海市虹口区东体育会路671-699单号","date":1653408000000}},{"type":"Feature","geometry":{"type":"Point","coordinates":[121.486075,31.285126]},"properties":{"town":"虹口区","published_address":"东体育会路880弄","geocoded_address":"上海市虹口区东体育会路880弄","date":1653408000000}},{"type":"Feature","geometry":{"type":"Point","coordinates":[121.502397,31.262272]},"properties":{"town":"虹口区","published_address":"飞虹路237弄","geocoded_address":"上海市虹口区飞虹路237弄","date":1653408000000}},{"type":"Feature","geometry":{"type":"Point","coordinates":[121.499736,31.259403]},"properties":{"town":"虹口区","published_address":"公平路761号","geocoded_address":"上海市虹口区公平路761号","date":1653408000000}},{"type":"Feature","geometry":{"type":"Point","coordinates":[121.462145,31.281022]},"properties":{"town":"虹口区","published_address":"广灵四路881弄","geocoded_address":"上海市虹口区广灵四路881弄","date":1653408000000}},{"type":"Feature","geometry":{"type":"Point","coordinates":[121.491233,31.244952]},"properties":{"town":"虹口区","published_address":"金山路43号","geocoded_address":"上海市虹口区金山路|43号","date":1653408000000}},{"type":"Feature","geometry":{"type":"Point","coordinates":[121.492263,31.262671]},"properties":{"town":"虹口区","published_address":"临平北路60弄","geocoded_address":"上海市虹口区临平北路60弄","date":1653408000000}},{"type":"Feature","geometry":{"type":"Point","coordinates":[121.499135,31.260073]},"properties":{"town":"虹口区","published_address":"临平路20弄","geocoded_address":"上海市虹口区临平路20弄","date":1653408000000}},{"type":"Feature","geometry":{"type":"Point","coordinates":[121.488274,31.277815]},"properties":{"town":"虹口区","published_address":"临平路250弄","geocoded_address":"上海市虹口区临平北路250弄","date":1653408000000}},{"type":"Feature","geometry":{"type":"Point","coordinates":[121.498178,31.261535]},"properties":{"town":"虹口区","published_address":"临平路46弄","geocoded_address":"上海市虹口区临平路46弄","date":1653408000000}},{"type":"Feature","geometry":{"type":"Point","coordinates":[121.49956,31.26365]},"properties":{"town":"虹口区","published_address":"瑞虹路233弄","geocoded_address":"上海市虹口区233弄","date":1653408000000}},{"type":"Feature","geometry":{"type":"Point","coordinates":[121.483697,31.252558]},"properties":{"town":"虹口区","published_address":"四川北路1363号","geocoded_address":"上海市虹口区四川北路1363号","date":1653408000000}},{"type":"Feature","geometry":{"type":"Point","coordinates":[121.483464,31.263944]},"properties":{"town":"虹口区","published_address":"四川北路1999弄","geocoded_address":"上海市虹口区四川北路1999弄","date":1653408000000}},{"type":"Feature","geometry":{"type":"Point","coordinates":[121.483162,31.263711]},"properties":{"town":"虹口区","published_address":"四川北路2023弄","geocoded_address":"上海市虹口区四川北路2023弄","date":1653408000000}},{"type":"Feature","geometry":{"type":"Point","coordinates":[121.490888,31.265184]},"properties":{"town":"虹口区","published_address":"四平路311号","geocoded_address":"上海市虹口区四平路311号","date":1653408000000}},{"type":"Feature","geometry":{"type":"Point","coordinates":[121.492066,31.268991]},"properties":{"town":"虹口区","published_address":"四平路421弄","geocoded_address":"上海市虹口区四平路421弄","date":1653408000000}},{"type":"Feature","geometry":{"type":"Point","coordinates":[121.488632,31.257437]},"properties":{"town":"虹口区","published_address":"四平路52弄","geocoded_address":"上海市虹口区四平路52弄","date":1653408000000}},{"type":"Feature","geometry":{"type":"Point","coordinates":[121.50031,31.27451]},"properties":{"town":"虹口区","published_address":"四平路827弄","geocoded_address":"上海市虹口区四平路827弄","date":1653408000000}},{"type":"Feature","geometry":{"type":"Point","coordinates":[121.492507,31.272928]},"properties":{"town":"虹口区","published_address":"天宝西路252弄","geocoded_address":"上海市虹口区天宝西路252弄","date":1653408000000}},{"type":"Feature","geometry":{"type":"Point","coordinates":[121.485926,31.292733]},"properties":{"town":"虹口区","published_address":"吴家湾路52弄","geocoded_address":"上海市虹口区吴家湾路52弄","date":1653408000000}},{"type":"Feature","geometry":{"type":"Point","coordinates":[121.469694,31.270013]},"properties":{"town":"虹口区","published_address":"西宝兴路949弄","geocoded_address":"上海市虹口区西宝兴路949弄","date":1653408000000}},{"type":"Feature","geometry":{"type":"Point","coordinates":[121.481636,31.254788]},"properties":{"town":"虹口区","published_address":"新广路243号","geocoded_address":"上海市虹口区新广路243号","date":1653408000000}},{"type":"Feature","geometry":{"type":"Point","coordinates":[121.494894,31.279908]},"properties":{"town":"虹口区","published_address":"玉田路220弄","geocoded_address":"上海市虹口区玉田路220弄","date":1653408000000}},{"type":"Feature","geometry":{"type":"Point","coordinates":[121.493576,31.28133]},"properties":{"town":"虹口区","published_address":"玉田支路34号","geocoded_address":"上海市虹口区玉田支路34-38双号","date":1653408000000}},{"type":"Feature","geometry":{"type":"Point","coordinates":[121.518423,31.28098]},"properties":{"town":"杨浦区","published_address":"长岭路60弄","geocoded_address":"上海市杨浦区长岭路60弄","date":1653408000000}},{"type":"Feature","geometry":{"type":"Point","coordinates":[121.521856,31.281809]},"properties":{"town":"杨浦区","published_address":"凤城三村","geocoded_address":"上海市杨浦区凤城三村","date":1653408000000}},{"type":"Feature","geometry":{"type":"Point","coordinates":[121.534375,31.322817]},"properties":{"town":"杨浦区","published_address":"工农三村","geocoded_address":"上海市杨浦区工农三村","date":1653408000000}},{"type":"Feature","geometry":{"type":"Point","coordinates":[121.512634,31.299524]},"properties":{"town":"杨浦区","published_address":"邯郸路524弄","geocoded_address":"上海市杨浦区邯郸路524弄","date":1653408000000}},{"type":"Feature","geometry":{"type":"Point","coordinates":[121.539585,31.268912]},"properties":{"town":"杨浦区","published_address":"河间路555弄","geocoded_address":"上海市杨浦区河间路555弄","date":1653408000000}},{"type":"Feature","geometry":{"type":"Point","coordinates":[121.518141,31.292564]},"properties":{"town":"杨浦区","published_address":"黄兴路1999弄","geocoded_address":"上海市杨浦区黄兴路1999弄","date":1653408000000}},{"type":"Feature","geometry":{"type":"Point","coordinates":[121.527682,31.264372]},"properties":{"town":"杨浦区","published_address":"霍山路1200弄","geocoded_address":"上海市杨浦区霍山路1200弄","date":1653408000000}},{"type":"Feature","geometry":{"type":"Point","coordinates":[121.527519,31.263318]},"properties":{"town":"杨浦区","published_address":"济宁路479弄","geocoded_address":"上海市杨浦区济宁路479弄","date":1653408000000}},{"type":"Feature","geometry":{"type":"Point","coordinates":[121.530376,31.324565]},"properties":{"town":"杨浦区","published_address":"开鲁三村","geocoded_address":"上海市杨浦区开鲁三村","date":1653408000000}},{"type":"Feature","geometry":{"type":"Point","coordinates":[121.530451,31.325903]},"properties":{"town":"杨浦区","published_address":"开鲁四村","geocoded_address":"上海市杨浦区开鲁四村","date":1653408000000}},{"type":"Feature","geometry":{"type":"Point","coordinates":[121.533986,31.286574]},"properties":{"town":"杨浦区","published_address":"控江三村","geocoded_address":"上海市杨浦区控江三村","date":1653408000000}},{"type":"Feature","geometry":{"type":"Point","coordinates":[121.525174,31.284783]},"properties":{"town":"杨浦区","published_address":"控江西三村","geocoded_address":"上海市杨浦区控江","date":1653408000000}},{"type":"Feature","geometry":{"type":"Point","coordinates":[121.506866,31.269709]},"properties":{"town":"杨浦区","published_address":"辽源西路338弄","geocoded_address":"上海市杨浦区辽源西路338弄","date":1653408000000}},{"type":"Feature","geometry":{"type":"Point","coordinates":[121.540751,31.266347]},"properties":{"town":"杨浦区","published_address":"临青路284号","geocoded_address":"上海市杨浦区临青路|284","date":1653408000000}},{"type":"Feature","geometry":{"type":"Point","coordinates":[121.53494,31.262554]},"properties":{"town":"杨浦区","published_address":"眉州路420弄","geocoded_address":"上海市杨浦区眉州路420弄","date":1653408000000}},{"type":"Feature","geometry":{"type":"Point","coordinates":[121.538826,31.266935]},"properties":{"town":"杨浦区","published_address":"平凉路1545弄","geocoded_address":"上海市杨浦区平凉路1545弄","date":1653408000000}},{"type":"Feature","geometry":{"type":"Point","coordinates":[121.528276,31.262696]},"properties":{"town":"杨浦区","published_address":"齐齐哈尔路598弄","geocoded_address":"上海市杨浦区齐齐哈尔路598弄","date":1653408000000}},{"type":"Feature","geometry":{"type":"Point","coordinates":[121.395686,31.360939]},"properties":{"town":"宝山区","published_address":"宝荻路535弄","geocoded_address":"上海市宝山区宝荻路535弄","date":1653408000000}},{"type":"Feature","geometry":{"type":"Point","coordinates":[121.404087,31.376627]},"properties":{"town":"宝山区","published_address":"富联三路369号","geocoded_address":"上海市宝山区富联三路369号","date":1653408000000}},{"type":"Feature","geometry":{"type":"Point","coordinates":[121.436774,31.38967]},"properties":{"town":"宝山区","published_address":"富杨路223弄","geocoded_address":"上海市宝山区富杨路223弄","date":1653408000000}},{"type":"Feature","geometry":{"type":"Point","coordinates":[121.432332,31.366799]},"properties":{"town":"宝山区","published_address":"红林路99弄","geocoded_address":"上海市宝山区红林路99弄","date":1653408000000}},{"type":"Feature","geometry":{"type":"Point","coordinates":[121.327231,31.485993]},"properties":{"town":"宝山区","published_address":"罗宁路3030弄","geocoded_address":"上海市宝山区罗宁路3030弄","date":1653408000000}},{"type":"Feature","geometry":{"type":"Point","coordinates":[121.3822,31.35619]},"properties":{"town":"宝山区","published_address":"沙浦路518弄","geocoded_address":"上海市宝山区沙浦路518弄","date":1653408000000}},{"type":"Feature","geometry":{"type":"Point","coordinates":[121.478298,31.366087]},"properties":{"town":"宝山区","published_address":"铁力路58号","geocoded_address":"上海市宝山区铁力路58号","date":1653408000000}},{"type":"Feature","geometry":{"type":"Point","coordinates":[121.44142,31.339161]},"properties":{"town":"宝山区","published_address":"呼玛三村","geocoded_address":"上海市宝山区呼玛三村","date":1653408000000}},{"type":"Feature","geometry":{"type":"Point","coordinates":[121.445313,31.343914]},"properties":{"town":"宝山区","published_address":"呼玛四村","geocoded_address":"上海市宝山区呼玛四村","date":1653408000000}},{"type":"Feature","geometry":{"type":"Point","coordinates":[121.372586,31.330761]},"properties":{"town":"宝山区","published_address":"沈杨村","geocoded_address":"上海市宝山区沈杨村","date":1653408000000}},{"type":"Feature","geometry":{"type":"Point","coordinates":[121.46223,31.330355]},"properties":{"town":"宝山区","published_address":"泗塘七村","geocoded_address":"上海市宝山区泗塘七村","date":1653408000000}},{"type":"Feature","geometry":{"type":"Point","coordinates":[121.481793,31.334987]},"properties":{"town":"宝山区","published_address":"淞南八村","geocoded_address":"上海市宝山区淞南八村","date":1653408000000}},{"type":"Feature","geometry":{"type":"Point","coordinates":[121.447108,31.333801]},"properties":{"town":"宝山区","published_address":"通河二村","geocoded_address":"上海市宝山区通河","date":1653408000000}},{"type":"Feature","geometry":{"type":"Point","coordinates":[121.445234,31.330689]},"properties":{"town":"宝山区","published_address":"通河四村","geocoded_address":"上海市宝山区通河四村","date":1653408000000}},{"type":"Feature","geometry":{"type":"Point","coordinates":[121.407364,31.449223]},"properties":{"town":"宝山区","published_address":"月狮村","geocoded_address":"上海市宝山区月狮村","date":1653408000000}},{"type":"Feature","geometry":{"type":"Point","coordinates":[121.354169,31.138942]},"properties":{"town":"闵行区","published_address":"中谊路909弄","geocoded_address":"上海市闵行区中谊路909弄","date":1653408000000}},{"type":"Feature","geometry":{"type":"Point","coordinates":[121.381709,31.112813]},"properties":{"town":"闵行区","published_address":"平阳四村","geocoded_address":"上海市闵行区","date":1653408000000}},{"type":"Feature","geometry":{"type":"Point","coordinates":[121.442667,31.055206]},"properties":{"town":"闵行区","published_address":"塘湾村","geocoded_address":"上海市闵行区塘湾村","date":1653408000000}},{"type":"Feature","geometry":{"type":"Point","coordinates":[121.298005,31.301542]},"properties":{"town":"嘉定区","published_address":"鹤槎路182弄","geocoded_address":"上海市嘉定区鹤槎路182弄","date":1653408000000}},{"type":"Feature","geometry":{"type":"Point","coordinates":[121.25944,31.40798]},"properties":{"town":"嘉定区","published_address":"永靖路898弄北区","geocoded_address":"上海市嘉定区永靖路898弄","date":1653408000000}},{"type":"Feature","geometry":{"type":"Point","coordinates":[121.225707,31.316603]},"properties":{"town":"嘉定区","published_address":"吉麦隆精品超市","geocoded_address":"上海市嘉定区精品超市","date":1653408000000}},{"type":"Feature","geometry":{"type":"Point","coordinates":[121.254033,31.011302]},"properties":{"town":"松江区","published_address":"环城路413号","geocoded_address":"上海市松江区环城路413-417幢","date":1653408000000}},{"type":"Feature","geometry":{"type":"Point","coordinates":[121.175058,31.111866]},"properties":{"town":"青浦区","published_address":"外青松公路7989号","geocoded_address":"上海市青浦区外青松公路7989号","date":1653408000000}}]},"2022-05-24":{"type":"FeatureCollection","features":[{"type":"Feature","geometry":{"type":"Point","coordinates":[121.708388,31.209049]},"properties":{"town":"浦东新区","published_address":"北蔡镇中界村陆家队陆家宅","geocoded_address":"上海市浦东新区北蔡镇队陆家宅","date":1653321600000}},{"type":"Feature","geometry":{"type":"Point","coordinates":[121.715706,31.153034]},"properties":{"town":"浦东新区","published_address":"川沙新镇八灶村张家宅","geocoded_address":"上海市浦东新区八灶村","date":1653321600000}},{"type":"Feature","geometry":{"type":"Point","coordinates":[121.482142,31.168419]},"properties":{"town":"浦东新区","published_address":"德州路421弄","geocoded_address":"上海市浦东新区德州路421弄","date":1653321600000}},{"type":"Feature","geometry":{"type":"Point","coordinates":[121.520864,31.236879]},"properties":{"town":"浦东新区","published_address":"东方路258号","geocoded_address":"上海市浦东新区东方路|258号","date":1653321600000}},{"type":"Feature","geometry":{"type":"Point","coordinates":[121.585843,31.107723]},"properties":{"town":"浦东新区","published_address":"繁荣东路159弄","geocoded_address":"上海市浦东新区繁荣东路159弄","date":1653321600000}},{"type":"Feature","geometry":{"type":"Point","coordinates":[121.639973,31.330728]},"properties":{"town":"浦东新区","published_address":"高东镇珊黄村苍头宅","geocoded_address":"上海市浦东新区苍头宅","date":1653321600000}},{"type":"Feature","geometry":{"type":"Point","coordinates":[121.604543,31.185006]},"properties":{"town":"浦东新区","published_address":"海纳路490弄工地生活区","geocoded_address":"上海市浦东新区龙象工地生活区","date":1653321600000}},{"type":"Feature","geometry":{"type":"Point","coordinates":[121.67424,31.289495]},"properties":{"town":"浦东新区","published_address":"海鹏路301弄","geocoded_address":"上海市浦东新区海鹏路301弄","date":1653321600000}},{"type":"Feature","geometry":{"type":"Point","coordinates":[121.609591,31.075214]},"properties":{"town":"浦东新区","published_address":"航昌路489弄","geocoded_address":"上海市浦东新区航昌路489弄","date":1653321600000}},{"type":"Feature","geometry":{"type":"Point","coordinates":[121.501272,31.233479]},"properties":{"town":"浦东新区","published_address":"花园石桥路28弄","geocoded_address":"上海市浦东新区花园石桥路28弄","date":1653321600000}},{"type":"Feature","geometry":{"type":"Point","coordinates":[121.674647,31.28679]},"properties":{"town":"浦东新区","published_address":"金睦路353弄","geocoded_address":"上海市浦东新区金睦路353弄","date":1653321600000}},{"type":"Feature","geometry":{"type":"Point","coordinates":[121.676639,31.284027]},"properties":{"town":"浦东新区","published_address":"金钻路669弄","geocoded_address":"上海市浦东新区金钻路669弄","date":1653321600000}},{"type":"Feature","geometry":{"type":"Point","coordinates":[121.549112,31.148377]},"properties":{"town":"浦东新区","published_address":"康桥镇花墙村","geocoded_address":"上海市浦东新区花墙村","date":1653321600000}},{"type":"Feature","geometry":{"type":"Point","coordinates":[121.518257,31.235026]},"properties":{"town":"浦东新区","published_address":"崂山四村","geocoded_address":"上海市浦东新区崂山四村","date":1653321600000}},{"type":"Feature","geometry":{"type":"Point","coordinates":[121.520535,31.124679]},"properties":{"town":"浦东新区","published_address":"三林镇天花庵村北陈队大陈家宅","geocoded_address":"上海市浦东新区三林镇天花庵村北陈队大陈家宅","date":1653321600000}},{"type":"Feature","geometry":{"type":"Point","coordinates":[121.50277,31.124817]},"properties":{"town":"浦东新区","published_address":"三舒路62弄","geocoded_address":"上海市浦东新区三舒路62弄","date":1653321600000}},{"type":"Feature","geometry":{"type":"Point","coordinates":[121.534966,31.163185]},"properties":{"town":"浦东新区","published_address":"世博家园大道站路94弄","geocoded_address":"上海市浦东新区世博家园","date":1653321600000}},{"type":"Feature","geometry":{"type":"Point","coordinates":[121.562322,31.174757]},"properties":{"town":"浦东新区","published_address":"五星路231弄","geocoded_address":"上海市浦东新区五星路231弄","date":1653321600000}},{"type":"Feature","geometry":{"type":"Point","coordinates":[121.485649,31.176132]},"properties":{"town":"浦东新区","published_address":"耀华路331弄","geocoded_address":"上海市浦东新区耀华路331弄","date":1653321600000}},{"type":"Feature","geometry":{"type":"Point","coordinates":[121.340118,31.354697]},"properties":{"town":"浦东新区","published_address":"张江镇劳动村吴家宅北","geocoded_address":"上海市宝山区吴家宅","date":1653321600000}},{"type":"Feature","geometry":{"type":"Point","coordinates":[121.592288,31.098451]},"properties":{"town":"浦东新区","published_address":"周东南路599弄","geocoded_address":"上海市浦东新区周东南路599弄","date":1653321600000}},{"type":"Feature","geometry":{"type":"Point","coordinates":[121.578937,31.117217]},"properties":{"town":"浦东新区","published_address":"周浦镇北油车弄","geocoded_address":"上海市浦东新区北油车弄","date":1653321600000}},{"type":"Feature","geometry":{"type":"Point","coordinates":[121.486354,31.21893]},"properties":{"town":"黄浦区","published_address":"曹家街45号","geocoded_address":"上海市黄浦区曹家街|45号","date":1653321600000}},{"type":"Feature","geometry":{"type":"Point","coordinates":[121.491089,31.222694]},"properties":{"town":"黄浦区","published_address":"复兴东路701弄","geocoded_address":"上海市黄浦区复兴东路701弄","date":1653321600000}},{"type":"Feature","geometry":{"type":"Point","coordinates":[121.485273,31.235666]},"properties":{"town":"黄浦区","published_address":"汉口路271号","geocoded_address":"上海市黄浦区汉口路271号","date":1653321600000}},{"type":"Feature","geometry":{"type":"Point","coordinates":[121.487313,31.215036]},"properties":{"town":"黄浦区","published_address":"黄家阙路68弄","geocoded_address":"上海市黄浦区黄家阙路68弄","date":1653321600000}},{"type":"Feature","geometry":{"type":"Point","coordinates":[121.488102,31.23263]},"properties":{"town":"黄浦区","published_address":"江西中路38号","geocoded_address":"上海市黄浦区江西中路38号","date":1653321600000}},{"type":"Feature","geometry":{"type":"Point","coordinates":[121.487189,31.220159]},"properties":{"town":"黄浦区","published_address":"静修路79弄","geocoded_address":"上海市黄浦区静修路79弄","date":1653321600000}},{"type":"Feature","geometry":{"type":"Point","coordinates":[121.480385,31.207567]},"properties":{"town":"黄浦区","published_address":"局门路699号","geocoded_address":"上海市黄浦区局门路","date":1653321600000}},{"type":"Feature","geometry":{"type":"Point","coordinates":[121.496233,31.223319]},"properties":{"town":"黄浦区","published_address":"聚奎新村","geocoded_address":"上海市黄浦区聚奎新村","date":1653321600000}},{"type":"Feature","geometry":{"type":"Point","coordinates":[121.476161,31.20583]},"properties":{"town":"黄浦区","published_address":"丽园路842弄","geocoded_address":"上海市黄浦区丽园路842弄","date":1653321600000}},{"type":"Feature","geometry":{"type":"Point","coordinates":[121.495522,31.22101]},"properties":{"town":"黄浦区","published_address":"灵济街61号","geocoded_address":"上海市黄浦区灵济街|61","date":1653321600000}},{"type":"Feature","geometry":{"type":"Point","coordinates":[121.471277,31.193068]},"properties":{"town":"黄浦区","published_address":"龙华东路888弄","geocoded_address":"上海市黄浦区龙华东路888弄","date":1653321600000}},{"type":"Feature","geometry":{"type":"Point","coordinates":[121.476349,31.207124]},"properties":{"town":"黄浦区","published_address":"蒙自西路28弄","geocoded_address":"上海市黄浦区蒙自西路28弄","date":1653321600000}},{"type":"Feature","geometry":{"type":"Point","coordinates":[121.48624,31.216266]},"properties":{"town":"黄浦区","published_address":"宁安路107弄","geocoded_address":"上海市黄浦区宁安路107弄","date":1653321600000}},{"type":"Feature","geometry":{"type":"Point","coordinates":[121.472642,31.197327]},"properties":{"town":"黄浦区","published_address":"瞿溪路1200弄","geocoded_address":"上海市黄浦区瞿溪路1200弄","date":1653321600000}},{"type":"Feature","geometry":{"type":"Point","coordinates":[121.490889,31.208089]},"properties":{"town":"黄浦区","published_address":"斜土东路68弄","geocoded_address":"上海市黄浦区斜土东路68弄","date":1653321600000}},{"type":"Feature","geometry":{"type":"Point","coordinates":[121.472899,31.202328]},"properties":{"town":"黄浦区","published_address":"斜土路688号","geocoded_address":"上海市黄浦区斜土路688号","date":1653321600000}},{"type":"Feature","geometry":{"type":"Point","coordinates":[121.498054,31.220368]},"properties":{"town":"黄浦区","published_address":"巡道街37弄","geocoded_address":"上海市黄浦区巡道街37弄","date":1653321600000}},{"type":"Feature","geometry":{"type":"Point","coordinates":[121.478807,31.211326]},"properties":{"town":"黄浦区","published_address":"永年路149弄","geocoded_address":"上海市黄浦区永年路149弄","date":1653321600000}},{"type":"Feature","geometry":{"type":"Point","coordinates":[121.479987,31.23193]},"properties":{"town":"黄浦区","published_address":"浙江中路118弄","geocoded_address":"上海市黄浦区浙江中路118弄","date":1653321600000}},{"type":"Feature","geometry":{"type":"Point","coordinates":[121.479658,31.233124]},"properties":{"town":"黄浦区","published_address":"浙江中路188弄","geocoded_address":"上海市黄浦区浙江中路188弄","date":1653321600000}},{"type":"Feature","geometry":{"type":"Point","coordinates":[121.490908,31.223135]},"properties":{"town":"黄浦区","published_address":"昼锦路180弄","geocoded_address":"上海市黄浦区昼锦路180弄","date":1653321600000}},{"type":"Feature","geometry":{"type":"Point","coordinates":[121.471006,31.263686]},"properties":{"town":"静安区","published_address":"宝昌路745号","geocoded_address":"上海市静安区宝昌路|745","date":1653321600000}},{"type":"Feature","geometry":{"type":"Point","coordinates":[121.429927,31.291772]},"properties":{"town":"静安区","published_address":"高平路860弄","geocoded_address":"上海市静安区高平路860弄","date":1653321600000}},{"type":"Feature","geometry":{"type":"Point","coordinates":[121.463569,31.258149]},"properties":{"town":"静安区","published_address":"共和新路875号","geocoded_address":"上海市静安区共和新路|875","date":1653321600000}},{"type":"Feature","geometry":{"type":"Point","coordinates":[121.451837,31.256563]},"properties":{"town":"静安区","published_address":"沪太路453弄","geocoded_address":"上海市静安区沪太路453弄","date":1653321600000}},{"type":"Feature","geometry":{"type":"Point","coordinates":[121.461048,31.240172]},"properties":{"town":"静安区","published_address":"南苏州路1455号","geocoded_address":"上海市静安区南苏州路1455号","date":1653321600000}},{"type":"Feature","geometry":{"type":"Point","coordinates":[121.45261,31.256317]},"properties":{"town":"静安区","published_address":"普善路铁路新村57号","geocoded_address":"上海市静安区铁路新村|57号楼","date":1653321600000}},{"type":"Feature","geometry":{"type":"Point","coordinates":[121.470581,31.248294]},"properties":{"town":"静安区","published_address":"虬江路1150弄","geocoded_address":"上海市静安区虬江路1150弄","date":1653321600000}},{"type":"Feature","geometry":{"type":"Point","coordinates":[121.466603,31.249329]},"properties":{"town":"静安区","published_address":"虬江路1376号","geocoded_address":"上海市静安区虬江路1376号","date":1653321600000}},{"type":"Feature","geometry":{"type":"Point","coordinates":[121.470686,31.261479]},"properties":{"town":"静安区","published_address":"通阁路200弄","geocoded_address":"上海市静安区通阁路200弄","date":1653321600000}},{"type":"Feature","geometry":{"type":"Point","coordinates":[121.467049,31.260022]},"properties":{"town":"静安区","published_address":"西藏北路1009号","geocoded_address":"上海市静安区西藏北路1009号","date":1653321600000}},{"type":"Feature","geometry":{"type":"Point","coordinates":[121.46744,31.256882]},"properties":{"town":"静安区","published_address":"西藏北路875号","geocoded_address":"上海市静安区西藏北路|875号","date":1653321600000}},{"type":"Feature","geometry":{"type":"Point","coordinates":[121.455814,31.230166]},"properties":{"town":"静安区","published_address":"西藏北路987弄","geocoded_address":"上海市静安区西藏北路987弄","date":1653321600000}},{"type":"Feature","geometry":{"type":"Point","coordinates":[121.462812,31.312752]},"properties":{"town":"静安区","published_address":"阳泉路345弄","geocoded_address":"上海市静安区阳泉路345弄","date":1653321600000}},{"type":"Feature","geometry":{"type":"Point","coordinates":[121.465413,31.258665]},"properties":{"town":"静安区","published_address":"芷江西路123弄","geocoded_address":"上海市静安区芷江西路123弄","date":1653321600000}},{"type":"Feature","geometry":{"type":"Point","coordinates":[121.463952,31.258355]},"properties":{"town":"静安区","published_address":"芷江西路165弄","geocoded_address":"上海市静安区芷江西路165弄","date":1653321600000}},{"type":"Feature","geometry":{"type":"Point","coordinates":[121.460769,31.258332]},"properties":{"town":"静安区","published_address":"芷江西路285弄","geocoded_address":"上海市静安区芷江西路285弄","date":1653321600000}},{"type":"Feature","geometry":{"type":"Point","coordinates":[121.458083,31.257427]},"properties":{"town":"静安区","published_address":"芷江西路393弄","geocoded_address":"上海市静安区芷江西路393弄","date":1653321600000}},{"type":"Feature","geometry":{"type":"Point","coordinates":[121.466308,31.25238]},"properties":{"town":"静安区","published_address":"中兴路1042号","geocoded_address":"上海市虹口区中兴路|1042","date":1653321600000}},{"type":"Feature","geometry":{"type":"Point","coordinates":[121.460772,31.252504]},"properties":{"town":"静安区","published_address":"中兴路1385弄","geocoded_address":"上海市静安区中兴路1385弄","date":1653321600000}},{"type":"Feature","geometry":{"type":"Point","coordinates":[121.462709,31.195504]},"properties":{"town":"徐汇区","published_address":"大木桥路454号","geocoded_address":"上海市徐汇区大木桥路454号","date":1653321600000}},{"type":"Feature","geometry":{"type":"Point","coordinates":[121.450514,31.156808]},"properties":{"town":"徐汇区","published_address":"黄石路8号","geocoded_address":"上海市徐汇区黄石路8号","date":1653321600000}},{"type":"Feature","geometry":{"type":"Point","coordinates":[121.432897,31.195919]},"properties":{"town":"徐汇区","published_address":"乐山路25弄","geocoded_address":"上海市徐汇区乐山路25弄","date":1653321600000}},{"type":"Feature","geometry":{"type":"Point","coordinates":[121.447867,31.132118]},"properties":{"town":"徐汇区","published_address":"罗秀二村","geocoded_address":"上海市徐汇区罗秀二村","date":1653321600000}},{"type":"Feature","geometry":{"type":"Point","coordinates":[121.457729,31.219116]},"properties":{"town":"徐汇区","published_address":"陕西南路186弄","geocoded_address":"上海市徐汇区陕西南路186弄","date":1653321600000}},{"type":"Feature","geometry":{"type":"Point","coordinates":[121.461593,31.197516]},"properties":{"town":"徐汇区","published_address":"斜土路1422弄","geocoded_address":"上海市徐汇区斜土路1422弄","date":1653321600000}},{"type":"Feature","geometry":{"type":"Point","coordinates":[121.454821,31.217911]},"properties":{"town":"徐汇区","published_address":"新乐路134弄","geocoded_address":"上海市徐汇区新乐路134弄","date":1653321600000}},{"type":"Feature","geometry":{"type":"Point","coordinates":[121.456899,31.198857]},"properties":{"town":"徐汇区","published_address":"医学院路72弄","geocoded_address":"上海市徐汇区医学院路72弄","date":1653321600000}},{"type":"Feature","geometry":{"type":"Point","coordinates":[121.419162,31.17266]},"properties":{"town":"徐汇区","published_address":"宜山路701弄","geocoded_address":"上海市徐汇区宜山路701弄","date":1653321600000}},{"type":"Feature","geometry":{"type":"Point","coordinates":[121.378275,31.196488]},"properties":{"town":"长宁区","published_address":"龙溪路189弄","geocoded_address":"上海市长宁区龙溪路189号","date":1653321600000}},{"type":"Feature","geometry":{"type":"Point","coordinates":[121.35215,31.230042]},"properties":{"town":"长宁区","published_address":"协和路1551号","geocoded_address":"上海市长宁区协和路1551号","date":1653321600000}},{"type":"Feature","geometry":{"type":"Point","coordinates":[121.382738,31.212463]},"properties":{"town":"长宁区","published_address":"新渔东路175号","geocoded_address":"上海市长宁区新渔东路","date":1653321600000}},{"type":"Feature","geometry":{"type":"Point","coordinates":[121.406222,31.197472]},"properties":{"town":"长宁区","published_address":"伊犁南路566号","geocoded_address":"上海市长宁区伊犁南路566号","date":1653321600000}},{"type":"Feature","geometry":{"type":"Point","coordinates":[121.414095,31.238676]},"properties":{"town":"普陀区","published_address":"曹杨六村","geocoded_address":"上海市普陀区曹杨六村","date":1653321600000}},{"type":"Feature","geometry":{"type":"Point","coordinates":[121.427361,31.252163]},"properties":{"town":"普陀区","published_address":"石泉一村","geocoded_address":"上海市普陀区石泉一村","date":1653321600000}},{"type":"Feature","geometry":{"type":"Point","coordinates":[121.44558,31.259554]},"properties":{"town":"普陀区","published_address":"泰山二村","geocoded_address":"上海市普陀区泰山二村","date":1653321600000}},{"type":"Feature","geometry":{"type":"Point","coordinates":[121.425693,31.243683]},"properties":{"town":"普陀区","published_address":"武宁四村","geocoded_address":"上海市普陀区武宁四村","date":1653321600000}},{"type":"Feature","geometry":{"type":"Point","coordinates":[121.362206,31.359091]},"properties":{"town":"普陀区","published_address":"新村路50弄","geocoded_address":"上海市宝山区50弄","date":1653321600000}},{"type":"Feature","geometry":{"type":"Point","coordinates":[121.442705,31.258085]},"properties":{"town":"普陀区","published_address":"宜川三村","geocoded_address":"上海市普陀区宜川三村","date":1653321600000}},{"type":"Feature","geometry":{"type":"Point","coordinates":[121.479824,31.260184]},"properties":{"town":"虹口区","published_address":"宝山路625号","geocoded_address":"上海市静安区宝山路|625号","date":1653321600000}},{"type":"Feature","geometry":{"type":"Point","coordinates":[121.505111,31.267443]},"properties":{"town":"虹口区","published_address":"大连路975弄","geocoded_address":"上海市虹口区大连路975弄","date":1653321600000}},{"type":"Feature","geometry":{"type":"Point","coordinates":[121.495336,31.276174]},"properties":{"town":"虹口区","published_address":"大连西路100号","geocoded_address":"上海市虹口区大连西路100号","date":1653321600000}},{"type":"Feature","geometry":{"type":"Point","coordinates":[121.493283,31.275723]},"properties":{"town":"虹口区","published_address":"大连西路201弄","geocoded_address":"上海市虹口区大连西路201弄","date":1653321600000}},{"type":"Feature","geometry":{"type":"Point","coordinates":[121.475298,31.262975]},"properties":{"town":"虹口区","published_address":"东宝兴路777号","geocoded_address":"上海市虹口区东宝兴路777号","date":1653321600000}},{"type":"Feature","geometry":{"type":"Point","coordinates":[121.474069,31.263765]},"properties":{"town":"虹口区","published_address":"东宝兴路835弄","geocoded_address":"上海市虹口区东宝兴路835弄","date":1653321600000}},{"type":"Feature","geometry":{"type":"Point","coordinates":[121.510408,31.252168]},"properties":{"town":"虹口区","published_address":"东大名路1191号","geocoded_address":"上海市虹口区东大名路1191号","date":1653321600000}},{"type":"Feature","geometry":{"type":"Point","coordinates":[121.481954,31.263237]},"properties":{"town":"虹口区","published_address":"多伦路176号","geocoded_address":"上海市虹口区多伦路|176号","date":1653321600000}},{"type":"Feature","geometry":{"type":"Point","coordinates":[121.481162,31.264558]},"properties":{"town":"虹口区","published_address":"多伦路257弄","geocoded_address":"上海市虹口区多伦路257弄","date":1653321600000}},{"type":"Feature","geometry":{"type":"Point","coordinates":[121.490553,31.251984]},"properties":{"town":"虹口区","published_address":"峨嵋路366弄","geocoded_address":"上海市虹口区峨嵋路366弄","date":1653321600000}},{"type":"Feature","geometry":{"type":"Point","coordinates":[121.502397,31.262272]},"properties":{"town":"虹口区","published_address":"飞虹路237弄","geocoded_address":"上海市虹口区飞虹路237弄","date":1653321600000}},{"type":"Feature","geometry":{"type":"Point","coordinates":[121.470133,31.278899]},"properties":{"town":"虹口区","published_address":"广中路548号","geocoded_address":"上海市虹口区广中路","date":1653321600000}},{"type":"Feature","geometry":{"type":"Point","coordinates":[121.507324,31.254787]},"properties":{"town":"虹口区","published_address":"海门路171弄","geocoded_address":"上海市虹口区海门路171弄","date":1653321600000}},{"type":"Feature","geometry":{"type":"Point","coordinates":[121.491698,31.253104]},"properties":{"town":"虹口区","published_address":"海宁路5号","geocoded_address":"上海市虹口区海宁路5号","date":1653321600000}},{"type":"Feature","geometry":{"type":"Point","coordinates":[121.473271,31.265433]},"properties":{"town":"虹口区","published_address":"恒业路388弄","geocoded_address":"上海市虹口区恒业路388弄","date":1653321600000}},{"type":"Feature","geometry":{"type":"Point","coordinates":[121.470701,31.312128]},"properties":{"town":"虹口区","published_address":"虹湾路313弄","geocoded_address":"上海市虹口区虹湾路313弄","date":1653321600000}},{"type":"Feature","geometry":{"type":"Point","coordinates":[121.503629,31.267525]},"properties":{"town":"虹口区","published_address":"虹镇老街267号","geocoded_address":"上海市虹口区虹镇老街|267号","date":1653321600000}},{"type":"Feature","geometry":{"type":"Point","coordinates":[121.488011,31.265366]},"properties":{"town":"虹口区","published_address":"吉祥路84弄","geocoded_address":"上海市虹口区吉祥路84弄","date":1653321600000}},{"type":"Feature","geometry":{"type":"Point","coordinates":[121.470609,31.30883]},"properties":{"town":"虹口区","published_address":"江杨南路55弄","geocoded_address":"上海市虹口区江杨南路55弄","date":1653321600000}},{"type":"Feature","geometry":{"type":"Point","coordinates":[121.483773,31.300681]},"properties":{"town":"虹口区","published_address":"奎照路33号","geocoded_address":"上海市虹口区奎照路33号","date":1653321600000}},{"type":"Feature","geometry":{"type":"Point","coordinates":[121.485698,31.263989]},"properties":{"town":"虹口区","published_address":"溧阳路1333弄","geocoded_address":"上海市虹口区溧阳路1333弄","date":1653321600000}},{"type":"Feature","geometry":{"type":"Point","coordinates":[121.499458,31.261155]},"properties":{"town":"虹口区","published_address":"临平路123号","geocoded_address":"上海市虹口区临平路123号","date":1653321600000}},{"type":"Feature","geometry":{"type":"Point","coordinates":[121.499135,31.260073]},"properties":{"town":"虹口区","published_address":"临平路20弄","geocoded_address":"上海市虹口区临平路20弄","date":1653321600000}},{"type":"Feature","geometry":{"type":"Point","coordinates":[121.495452,31.262382]},"properties":{"town":"虹口区","published_address":"临平路256弄","geocoded_address":"上海市虹口区临平路256弄","date":1653321600000}},{"type":"Feature","geometry":{"type":"Point","coordinates":[121.498562,31.260706]},"properties":{"town":"虹口区","published_address":"临平路40弄","geocoded_address":"上海市虹口区临平路40弄","date":1653321600000}},{"type":"Feature","geometry":{"type":"Point","coordinates":[121.469425,31.269843]},"properties":{"town":"虹口区","published_address":"民和路65弄","geocoded_address":"上海市虹口区民和路65弄","date":1653321600000}},{"type":"Feature","geometry":{"type":"Point","coordinates":[121.469008,31.269846]},"properties":{"town":"虹口区","published_address":"民和路89弄","geocoded_address":"上海市虹口区民和路89弄","date":1653321600000}},{"type":"Feature","geometry":{"type":"Point","coordinates":[121.49169,31.28148]},"properties":{"town":"虹口区","published_address":"曲阳路592号","geocoded_address":"上海市虹口区曲阳路|592号","date":1653321600000}},{"type":"Feature","geometry":{"type":"Point","coordinates":[121.500252,31.268332]},"properties":{"town":"虹口区","published_address":"瑞虹路438弄","geocoded_address":"上海市虹口区瑞虹路438弄","date":1653321600000}},{"type":"Feature","geometry":{"type":"Point","coordinates":[121.485647,31.264675]},"properties":{"town":"虹口区","published_address":"山阴路57弄","geocoded_address":"上海市虹口区山阴路57号","date":1653321600000}},{"type":"Feature","geometry":{"type":"Point","coordinates":[121.486409,31.265356]},"properties":{"town":"虹口区","published_address":"山阴路85弄","geocoded_address":"上海市虹口区山阴路85弄","date":1653321600000}},{"type":"Feature","geometry":{"type":"Point","coordinates":[121.474316,31.273561]},"properties":{"town":"虹口区","published_address":"水电路191弄","geocoded_address":"上海市虹口区水电路191弄","date":1653321600000}},{"type":"Feature","geometry":{"type":"Point","coordinates":[121.473833,31.273972]},"properties":{"town":"虹口区","published_address":"水电路199号","geocoded_address":"上海市虹口区水电路199-1号","date":1653321600000}},{"type":"Feature","geometry":{"type":"Point","coordinates":[121.482695,31.262991]},"properties":{"town":"虹口区","published_address":"四川北路1953弄","geocoded_address":"上海市虹口区四川北路1953弄","date":1653321600000}},{"type":"Feature","geometry":{"type":"Point","coordinates":[121.483162,31.263711]},"properties":{"town":"虹口区","published_address":"四川北路2023弄","geocoded_address":"上海市虹口区四川北路2023弄","date":1653321600000}},{"type":"Feature","geometry":{"type":"Point","coordinates":[121.49026,31.262107]},"properties":{"town":"虹口区","published_address":"四平路186号","geocoded_address":"上海市虹口区四平路186号","date":1653321600000}},{"type":"Feature","geometry":{"type":"Point","coordinates":[121.491755,31.265363]},"properties":{"town":"虹口区","published_address":"四平路288弄","geocoded_address":"上海市虹口区四平路288弄","date":1653321600000}},{"type":"Feature","geometry":{"type":"Point","coordinates":[121.488632,31.257437]},"properties":{"town":"虹口区","published_address":"四平路52弄","geocoded_address":"上海市虹口区四平路52弄","date":1653321600000}},{"type":"Feature","geometry":{"type":"Point","coordinates":[121.494263,31.274892]},"properties":{"town":"虹口区","published_address":"天宝西路241弄","geocoded_address":"上海市虹口区天宝西路241弄","date":1653321600000}},{"type":"Feature","geometry":{"type":"Point","coordinates":[121.492857,31.273937]},"properties":{"town":"虹口区","published_address":"天宝西路248弄","geocoded_address":"上海市虹口区天宝西路248弄","date":1653321600000}},{"type":"Feature","geometry":{"type":"Point","coordinates":[121.474337,31.268077]},"properties":{"town":"虹口区","published_address":"同心路338弄","geocoded_address":"上海市虹口区同心路338弄","date":1653321600000}},{"type":"Feature","geometry":{"type":"Point","coordinates":[121.472094,31.271443]},"properties":{"town":"虹口区","published_address":"同心路765弄","geocoded_address":"上海市虹口区同心路765弄","date":1653321600000}},{"type":"Feature","geometry":{"type":"Point","coordinates":[121.485369,31.29166]},"properties":{"town":"虹口区","published_address":"汶水东路181弄","geocoded_address":"上海市虹口区汶水东路181弄","date":1653321600000}},{"type":"Feature","geometry":{"type":"Point","coordinates":[121.488726,31.250065]},"properties":{"town":"虹口区","published_address":"吴淞路355弄","geocoded_address":"上海市虹口区吴淞路355弄","date":1653321600000}},{"type":"Feature","geometry":{"type":"Point","coordinates":[121.469694,31.270013]},"properties":{"town":"虹口区","published_address":"西宝兴路949弄","geocoded_address":"上海市虹口区西宝兴路949弄","date":1653321600000}},{"type":"Feature","geometry":{"type":"Point","coordinates":[121.504835,31.268721]},"properties":{"town":"虹口区","published_address":"新港路69号","geocoded_address":"上海市虹口区新港路|69号","date":1653321600000}},{"type":"Feature","geometry":{"type":"Point","coordinates":[121.486817,31.260027]},"properties":{"town":"虹口区","published_address":"邢家桥北路163弄","geocoded_address":"上海市虹口区邢家桥北路163弄","date":1653321600000}},{"type":"Feature","geometry":{"type":"Point","coordinates":[121.476523,31.272782]},"properties":{"town":"虹口区","published_address":"中山北一路131弄","geocoded_address":"上海市虹口区中山北一路131弄","date":1653321600000}},{"type":"Feature","geometry":{"type":"Point","coordinates":[121.478691,31.275985]},"properties":{"town":"虹口区","published_address":"中山北一路240号","geocoded_address":"上海市虹口区中山北一路240-244号","date":1653321600000}},{"type":"Feature","geometry":{"type":"Point","coordinates":[121.47939,31.276462]},"properties":{"town":"虹口区","published_address":"中山北一路250弄","geocoded_address":"上海市虹口区中山北一路250弄","date":1653321600000}},{"type":"Feature","geometry":{"type":"Point","coordinates":[121.526984,31.264361]},"properties":{"town":"杨浦区","published_address":"霍山路1191弄","geocoded_address":"上海市杨浦区霍山路1191弄","date":1653321600000}},{"type":"Feature","geometry":{"type":"Point","coordinates":[121.527682,31.264372]},"properties":{"town":"杨浦区","published_address":"霍山路1200弄","geocoded_address":"上海市杨浦区霍山路1200弄","date":1653321600000}},{"type":"Feature","geometry":{"type":"Point","coordinates":[121.527519,31.263318]},"properties":{"town":"杨浦区","published_address":"济宁路479弄","geocoded_address":"上海市杨浦区济宁路479弄","date":1653321600000}},{"type":"Feature","geometry":{"type":"Point","coordinates":[121.539778,31.29983]},"properties":{"town":"杨浦区","published_address":"佳木斯路154弄","geocoded_address":"上海市杨浦区佳木斯路154弄","date":1653321600000}},{"type":"Feature","geometry":{"type":"Point","coordinates":[121.557227,31.287613]},"properties":{"town":"杨浦区","published_address":"军工路334号","geocoded_address":"上海市宝山区军工路334号","date":1653321600000}},{"type":"Feature","geometry":{"type":"Point","coordinates":[121.53728,31.325237]},"properties":{"town":"杨浦区","published_address":"开鲁路286弄","geocoded_address":"上海市杨浦区开鲁路286弄","date":1653321600000}},{"type":"Feature","geometry":{"type":"Point","coordinates":[121.530451,31.325903]},"properties":{"town":"杨浦区","published_address":"开鲁四村","geocoded_address":"上海市杨浦区开鲁四村","date":1653321600000}},{"type":"Feature","geometry":{"type":"Point","coordinates":[121.543788,31.287661]},"properties":{"town":"杨浦区","published_address":"控江路128弄","geocoded_address":"上海市杨浦区控江路128弄","date":1653321600000}},{"type":"Feature","geometry":{"type":"Point","coordinates":[121.535369,31.282841]},"properties":{"town":"杨浦区","published_address":"控江路888弄","geocoded_address":"上海市杨浦区控江路888弄","date":1653321600000}},{"type":"Feature","geometry":{"type":"Point","coordinates":[121.530114,31.287576]},"properties":{"town":"杨浦区","published_address":"控江五村","geocoded_address":"上海市杨浦区控江五村","date":1653321600000}},{"type":"Feature","geometry":{"type":"Point","coordinates":[121.55432,31.273288]},"properties":{"town":"杨浦区","published_address":"内江路9号","geocoded_address":"上海市杨浦区内江路9号","date":1653321600000}},{"type":"Feature","geometry":{"type":"Point","coordinates":[121.527231,31.288036]},"properties":{"town":"杨浦区","published_address":"双阳路666弄","geocoded_address":"上海市杨浦区双阳路666弄","date":1653321600000}},{"type":"Feature","geometry":{"type":"Point","coordinates":[121.534701,31.291806]},"properties":{"town":"杨浦区","published_address":"松花江路287号","geocoded_address":"上海市杨浦区松花江路|287","date":1653321600000}},{"type":"Feature","geometry":{"type":"Point","coordinates":[121.491075,31.300334]},"properties":{"town":"杨浦区","published_address":"学府路88弄","geocoded_address":"上海市杨浦区学府街88弄","date":1653321600000}},{"type":"Feature","geometry":{"type":"Point","coordinates":[121.536468,31.290018]},"properties":{"town":"杨浦区","published_address":"延吉六村","geocoded_address":"上海市杨浦区延吉六村","date":1653321600000}},{"type":"Feature","geometry":{"type":"Point","coordinates":[121.533014,31.292851]},"properties":{"town":"杨浦区","published_address":"营口路625弄","geocoded_address":"上海市杨浦区营口路625弄","date":1653321600000}},{"type":"Feature","geometry":{"type":"Point","coordinates":[121.533748,31.283201]},"properties":{"town":"杨浦区","published_address":"永吉路151号","geocoded_address":"上海市杨浦区永吉路|151","date":1653321600000}},{"type":"Feature","geometry":{"type":"Point","coordinates":[121.533735,31.28304]},"properties":{"town":"杨浦区","published_address":"永吉路157号","geocoded_address":"上海市杨浦区永吉路157号","date":1653321600000}},{"type":"Feature","geometry":{"type":"Point","coordinates":[121.539405,31.298176]},"properties":{"town":"杨浦区","published_address":"远东一村","geocoded_address":"上海市杨浦区远东一村","date":1653321600000}},{"type":"Feature","geometry":{"type":"Point","coordinates":[121.523353,31.307378]},"properties":{"town":"杨浦区","published_address":"政立路6弄","geocoded_address":"上海市杨浦区政立路6弄","date":1653321600000}},{"type":"Feature","geometry":{"type":"Point","coordinates":[121.330415,31.467824]},"properties":{"town":"宝山区","published_address":"长虹路429号","geocoded_address":"上海市宝山区长虹路429号","date":1653321600000}},{"type":"Feature","geometry":{"type":"Point","coordinates":[121.485536,31.343385]},"properties":{"town":"宝山区","published_address":"长江路860弄","geocoded_address":"上海市宝山区长江路860弄","date":1653321600000}},{"type":"Feature","geometry":{"type":"Point","coordinates":[121.456219,31.337727]},"properties":{"town":"宝山区","published_address":"长江西路1301号","geocoded_address":"上海市宝山区长江西路|1301号","date":1653321600000}},{"type":"Feature","geometry":{"type":"Point","coordinates":[121.423996,31.33367]},"properties":{"town":"宝山区","published_address":"场北路669弄","geocoded_address":"上海市宝山区场北路669弄","date":1653321600000}},{"type":"Feature","geometry":{"type":"Point","coordinates":[121.432594,31.410105]},"properties":{"town":"宝山区","published_address":"春雷路332弄","geocoded_address":"上海市宝山区春雷路332弄","date":1653321600000}},{"type":"Feature","geometry":{"type":"Point","coordinates":[121.395248,31.347782]},"properties":{"town":"宝山区","published_address":"电台南路11号","geocoded_address":"上海市宝山区电台南路11号","date":1653321600000}},{"type":"Feature","geometry":{"type":"Point","coordinates":[121.432332,31.366799]},"properties":{"town":"宝山区","published_address":"红林路99弄","geocoded_address":"上海市宝山区红林路99弄","date":1653321600000}},{"type":"Feature","geometry":{"type":"Point","coordinates":[121.438414,31.325002]},"properties":{"town":"宝山区","published_address":"三泉路1495弄","geocoded_address":"上海市宝山区三泉路1495弄","date":1653321600000}},{"type":"Feature","geometry":{"type":"Point","coordinates":[121.43618,31.330029]},"properties":{"town":"宝山区","published_address":"三泉路1859弄","geocoded_address":"上海市宝山区三泉路1859弄","date":1653321600000}},{"type":"Feature","geometry":{"type":"Point","coordinates":[121.387126,31.355445]},"properties":{"town":"宝山区","published_address":"沙浦路311弄","geocoded_address":"上海市宝山区沙浦路311弄","date":1653321600000}},{"type":"Feature","geometry":{"type":"Point","coordinates":[121.352521,31.315024]},"properties":{"town":"宝山区","published_address":"市台路388号","geocoded_address":"上海市宝山区市台路388号","date":1653321600000}},{"type":"Feature","geometry":{"type":"Point","coordinates":[121.488138,31.369109]},"properties":{"town":"宝山区","published_address":"淞滨路860弄","geocoded_address":"上海市宝山区淞滨路860弄","date":1653321600000}},{"type":"Feature","geometry":{"type":"Point","coordinates":[121.474294,31.339608]},"properties":{"town":"宝山区","published_address":"通南路167弄","geocoded_address":"上海市宝山区通南路167弄","date":1653321600000}},{"type":"Feature","geometry":{"type":"Point","coordinates":[121.403772,31.328842]},"properties":{"town":"宝山区","published_address":"纬地路88弄","geocoded_address":"上海市宝山区纬地路88弄","date":1653321600000}},{"type":"Feature","geometry":{"type":"Point","coordinates":[121.490535,31.322307]},"properties":{"town":"宝山区","published_address":"殷高路21弄","geocoded_address":"上海市宝山区殷高路21弄","date":1653321600000}},{"type":"Feature","geometry":{"type":"Point","coordinates":[121.433183,31.350678]},"properties":{"town":"宝山区","published_address":"共富一村","geocoded_address":"上海市宝山区共富一村","date":1653321600000}},{"type":"Feature","geometry":{"type":"Point","coordinates":[121.399387,31.410499]},"properties":{"town":"宝山区","published_address":"茂盛村","geocoded_address":"上海市宝山区茂盛村","date":1653321600000}},{"type":"Feature","geometry":{"type":"Point","coordinates":[121.372586,31.330761]},"properties":{"town":"宝山区","published_address":"沈杨村","geocoded_address":"上海市宝山区沈杨村","date":1653321600000}},{"type":"Feature","geometry":{"type":"Point","coordinates":[121.494937,31.388344]},"properties":{"town":"宝山区","published_address":"永清二村","geocoded_address":"上海市宝山区永清二村","date":1653321600000}},{"type":"Feature","geometry":{"type":"Point","coordinates":[121.407364,31.449223]},"properties":{"town":"宝山区","published_address":"月狮村","geocoded_address":"上海市宝山区月狮村","date":1653321600000}},{"type":"Feature","geometry":{"type":"Point","coordinates":[121.411985,31.120541]},"properties":{"town":"闵行区","published_address":"罗阳二村","geocoded_address":"上海市闵行区罗阳二村","date":1653321600000}},{"type":"Feature","geometry":{"type":"Point","coordinates":[121.327768,31.227793]},"properties":{"town":"闵行区","published_address":"北华路230号","geocoded_address":"上海市闵行区北华路230号","date":1653321600000}},{"type":"Feature","geometry":{"type":"Point","coordinates":[121.250059,31.377874]},"properties":{"town":"嘉定区","published_address":"城中路20号","geocoded_address":"上海市嘉定区城中路|20号","date":1653321600000}},{"type":"Feature","geometry":{"type":"Point","coordinates":[121.198588,31.122492]},"properties":{"town":"松江区","published_address":"佘北路1815号","geocoded_address":"上海市松江区佘北路|1815号","date":1653321600000}},{"type":"Feature","geometry":{"type":"Point","coordinates":[121.329754,31.116183]},"properties":{"town":"松江区","published_address":"中心路503弄","geocoded_address":"上海市松江区中心路503弄","date":1653321600000}},{"type":"Feature","geometry":{"type":"Point","coordinates":[121.319875,31.13661]},"properties":{"town":"松江区","published_address":"沪松公路1399弄","geocoded_address":"上海市松江区沪松公路1399弄","date":1653321600000}},{"type":"Feature","geometry":{"type":"Point","coordinates":[121.334033,31.119523]},"properties":{"town":"松江区","published_address":"沪亭南路501弄","geocoded_address":"上海市松江区沪亭南路501弄","date":1653321600000}},{"type":"Feature","geometry":{"type":"Point","coordinates":[121.290203,31.194174]},"properties":{"town":"青浦区","published_address":"盈港东路蟠秀路","geocoded_address":"上海市青浦区盈港东路蟠秀路","date":1653321600000}},{"type":"Feature","geometry":{"type":"Point","coordinates":[121.302144,31.189984]},"properties":{"town":"青浦区","published_address":"崧泽大道333号","geocoded_address":"上海市青浦区崧泽大道333号","date":1653321600000}},{"type":"Feature","geometry":{"type":"Point","coordinates":[121.294667,31.196465]},"properties":{"town":"青浦区","published_address":"龙联路108弄","geocoded_address":"上海市青浦区龙联路108弄","date":1653321600000}}]},"2022-05-23":{"type":"FeatureCollection","features":[{"type":"Feature","geometry":{"type":"Point","coordinates":[121.578083,31.190258]},"properties":{"town":"浦东新区","published_address":"北蔡镇杨桥村西计队西计家宅","geocoded_address":"上海市浦东新区北蔡镇杨桥村西计队西计家宅","date":1653235200000}},{"type":"Feature","geometry":{"type":"Point","coordinates":[121.563344,31.25078]},"properties":{"town":"浦东新区","published_address":"博山东路111弄","geocoded_address":"上海市浦东新区博山东路111弄","date":1653235200000}},{"type":"Feature","geometry":{"type":"Point","coordinates":[121.67628,31.294747]},"properties":{"town":"浦东新区","published_address":"曹路镇建新村周家宅","geocoded_address":"上海市浦东新区建新村","date":1653235200000}},{"type":"Feature","geometry":{"type":"Point","coordinates":[121.730803,31.250502]},"properties":{"town":"浦东新区","published_address":"曹路镇新星村胡家宅","geocoded_address":"上海市浦东新区曹路镇新星村胡家宅","date":1653235200000}},{"type":"Feature","geometry":{"type":"Point","coordinates":[121.497553,31.175154]},"properties":{"town":"浦东新区","published_address":"昌里路167弄","geocoded_address":"上海市浦东新区昌里路167弄","date":1653235200000}},{"type":"Feature","geometry":{"type":"Point","coordinates":[121.482142,31.168419]},"properties":{"town":"浦东新区","published_address":"德州路421弄","geocoded_address":"上海市浦东新区德州路421弄","date":1653235200000}},{"type":"Feature","geometry":{"type":"Point","coordinates":[121.585843,31.107723]},"properties":{"town":"浦东新区","published_address":"繁荣东路159弄","geocoded_address":"上海市浦东新区繁荣东路159弄","date":1653235200000}},{"type":"Feature","geometry":{"type":"Point","coordinates":[121.688393,31.259123]},"properties":{"town":"浦东新区","published_address":"龚华路479弄","geocoded_address":"上海市浦东新区龚华路479弄","date":1653235200000}},{"type":"Feature","geometry":{"type":"Point","coordinates":[121.67424,31.289495]},"properties":{"town":"浦东新区","published_address":"海鹏路301弄","geocoded_address":"上海市浦东新区海鹏路301弄","date":1653235200000}},{"type":"Feature","geometry":{"type":"Point","coordinates":[121.679219,31.281937]},"properties":{"town":"浦东新区","published_address":"海容路399弄","geocoded_address":"上海市浦东新区海容路399弄","date":1653235200000}},{"type":"Feature","geometry":{"type":"Point","coordinates":[121.50178,31.120797]},"properties":{"town":"浦东新区","published_address":"和炯路77弄","geocoded_address":"上海市浦东新区和炯路77弄","date":1653235200000}},{"type":"Feature","geometry":{"type":"Point","coordinates":[121.501272,31.233479]},"properties":{"town":"浦东新区","published_address":"花园石桥路28弄","geocoded_address":"上海市浦东新区花园石桥路28弄","date":1653235200000}},{"type":"Feature","geometry":{"type":"Point","coordinates":[121.602397,31.021295]},"properties":{"town":"浦东新区","published_address":"环镇东路200弄","geocoded_address":"上海市浦东新区环镇东路200弄","date":1653235200000}},{"type":"Feature","geometry":{"type":"Point","coordinates":[121.779244,31.071006]},"properties":{"town":"浦东新区","published_address":"惠南镇陆楼村长路","geocoded_address":"上海市浦东新区惠南镇陆楼村长路","date":1653235200000}},{"type":"Feature","geometry":{"type":"Point","coordinates":[121.674647,31.28679]},"properties":{"town":"浦东新区","published_address":"金睦路353弄","geocoded_address":"上海市浦东新区金睦路353弄","date":1653235200000}},{"type":"Feature","geometry":{"type":"Point","coordinates":[121.612753,31.2556]},"properties":{"town":"浦东新区","published_address":"金湘路201弄","geocoded_address":"上海市浦东新区金湘路201弄","date":1653235200000}},{"type":"Feature","geometry":{"type":"Point","coordinates":[121.67474,31.27736]},"properties":{"town":"浦东新区","published_address":"金晓路96弄","geocoded_address":"上海市浦东新区金晓路96弄","date":1653235200000}},{"type":"Feature","geometry":{"type":"Point","coordinates":[121.670329,31.285602]},"properties":{"town":"浦东新区","published_address":"金钻路398弄","geocoded_address":"上海市浦东新区金钻路398弄","date":1653235200000}},{"type":"Feature","geometry":{"type":"Point","coordinates":[121.568078,31.239982]},"properties":{"town":"浦东新区","published_address":"灵山路1724弄","geocoded_address":"上海市浦东新区灵山路1724弄","date":1653235200000}},{"type":"Feature","geometry":{"type":"Point","coordinates":[121.51818,31.218163]},"properties":{"town":"浦东新区","published_address":"浦电路62弄","geocoded_address":"上海市浦东新区浦电路62弄","date":1653235200000}},{"type":"Feature","geometry":{"type":"Point","coordinates":[121.581109,31.276857]},"properties":{"town":"浦东新区","published_address":"浦东大道2970弄","geocoded_address":"上海市浦东新区浦东大道2970弄","date":1653235200000}},{"type":"Feature","geometry":{"type":"Point","coordinates":[121.518465,31.222214]},"properties":{"town":"浦东新区","published_address":"浦东南路1475弄","geocoded_address":"上海市浦东新区浦东南路1475弄","date":1653235200000}},{"type":"Feature","geometry":{"type":"Point","coordinates":[121.517603,31.215859]},"properties":{"town":"浦东新区","published_address":"浦东南路1862弄","geocoded_address":"上海市浦东新区浦东南路1862弄","date":1653235200000}},{"type":"Feature","geometry":{"type":"Point","coordinates":[121.574966,31.340923]},"properties":{"town":"浦东新区","published_address":"清溪路299弄","geocoded_address":"上海市浦东新区清溪路299弄","date":1653235200000}},{"type":"Feature","geometry":{"type":"Point","coordinates":[121.495888,31.135723]},"properties":{"town":"浦东新区","published_address":"三林路168号","geocoded_address":"上海市浦东新区三林路168号","date":1653235200000}},{"type":"Feature","geometry":{"type":"Point","coordinates":[121.534966,31.163185]},