{"2022-05-02":{"type":"FeatureCollection","features":[{"type":"Feature","geometry":{"type":"Point","coordinates":[121.510362,31.163538]},"properties":{"town":"浦东新区","published_address":"板泉路1555弄","geocoded_address":"上海市浦东新区板泉路1555弄","date":1651420800000}},{"type":"Feature","geometry":{"type":"Point","coordinates":[121.494624,31.157819]},"properties":{"town":"浦东新区","published_address":"板泉路50号","geocoded_address":"上海市浦东新区板泉路50号","date":1651420800000}},{"type":"Feature","geometry":{"type":"Point","coordinates":[121.523338,31.177993]},"properties":{"town":"浦东新区","published_address":"北艾路1765弄","geocoded_address":"上海市浦东新区北艾路1765弄","date":1651420800000}},{"type":"Feature","geometry":{"type":"Point","coordinates":[121.544933,31.185187]},"properties":{"town":"浦东新区","published_address":"北艾路73弄","geocoded_address":"上海市浦东新区北艾路73弄","date":1651420800000}},{"type":"Feature","geometry":{"type":"Point","coordinates":[121.55105,31.164892]},"properties":{"town":"浦东新区","published_address":"北蔡镇联勤村冯桥队冯家宅","geocoded_address":"上海市浦东新区北蔡镇联勤村冯桥队冯家宅","date":1651420800000}},{"type":"Feature","geometry":{"type":"Point","coordinates":[121.548341,31.166473]},"properties":{"town":"浦东新区","published_address":"北蔡镇联勤村冯桥队张家宅","geocoded_address":"上海市浦东新区张家宅","date":1651420800000}},{"type":"Feature","geometry":{"type":"Point","coordinates":[121.551071,31.161785]},"properties":{"town":"浦东新区","published_address":"北蔡镇联勤村李家队李家宅","geocoded_address":"上海市浦东新区北蔡镇联勤村李家队李家宅","date":1651420800000}},{"type":"Feature","geometry":{"type":"Point","coordinates":[121.547802,31.164159]},"properties":{"town":"浦东新区","published_address":"北蔡镇联勤村麦家宅","geocoded_address":"上海市浦东新区麦家宅","date":1651420800000}},{"type":"Feature","geometry":{"type":"Point","coordinates":[121.538312,31.170047]},"properties":{"town":"浦东新区","published_address":"北蔡镇南新村赵家厍","geocoded_address":"上海市浦东新区赵家厍","date":1651420800000}},{"type":"Feature","geometry":{"type":"Point","coordinates":[121.582222,31.165759]},"properties":{"town":"浦东新区","published_address":"北蔡镇卫行村张浜队曹家宅","geocoded_address":"上海市浦东新区队曹家宅","date":1651420800000}},{"type":"Feature","geometry":{"type":"Point","coordinates":[121.579944,31.165734]},"properties":{"town":"浦东新区","published_address":"北蔡镇卫行村张浜队杨家宅","geocoded_address":"上海市浦东新区队杨家宅","date":1651420800000}},{"type":"Feature","geometry":{"type":"Point","coordinates":[121.582983,31.16147]},"properties":{"town":"浦东新区","published_address":"北蔡镇卫行村朱家队朱家宅","geocoded_address":"上海市浦东新区北蔡镇卫行村朱家队朱家宅","date":1651420800000}},{"type":"Feature","geometry":{"type":"Point","coordinates":[121.620504,31.253679]},"properties":{"town":"浦东新区","published_address":"北蔡镇一六村金桥队南赵家宅","geocoded_address":"上海市浦东新区金桥","date":1651420800000}},{"type":"Feature","geometry":{"type":"Point","coordinates":[121.332537,31.342231]},"properties":{"town":"浦东新区","published_address":"北蔡镇一六村赵家队南赵家宅","geocoded_address":"上海市嘉定区南赵家宅","date":1651420800000}},{"type":"Feature","geometry":{"type":"Point","coordinates":[121.558533,31.167356]},"properties":{"town":"浦东新区","published_address":"北蔡镇御桥村印家队东印家圈","geocoded_address":"上海市浦东新区北蔡镇御桥村印家队东印家圈","date":1651420800000}},{"type":"Feature","geometry":{"type":"Point","coordinates":[121.566124,31.192456]},"properties":{"town":"浦东新区","published_address":"北蔡镇中界村陈家队陈家宅","geocoded_address":"上海市浦东新区北蔡镇中界村陈家队陈家宅","date":1651420800000}},{"type":"Feature","geometry":{"type":"Point","coordinates":[121.570671,31.184798]},"properties":{"town":"浦东新区","published_address":"北蔡镇中界村复兴队苏家宅","geocoded_address":"上海市浦东新区苏家宅","date":1651420800000}},{"type":"Feature","geometry":{"type":"Point","coordinates":[121.573025,31.185266]},"properties":{"town":"浦东新区","published_address":"北蔡镇中界村黄家队黄家宅","geocoded_address":"上海市浦东新区黄家队黄家宅","date":1651420800000}},{"type":"Feature","geometry":{"type":"Point","coordinates":[121.570876,31.189966]},"properties":{"town":"浦东新区","published_address":"北蔡镇中界村季家队季家宅","geocoded_address":"上海市浦东新区北蔡镇中界村季家队季家宅","date":1651420800000}},{"type":"Feature","geometry":{"type":"Point","coordinates":[121.571229,31.185001]},"properties":{"town":"浦东新区","published_address":"北蔡镇中界村林家队中界庙","geocoded_address":"上海市浦东新区中界庙","date":1651420800000}},{"type":"Feature","geometry":{"type":"Point","coordinates":[121.708388,31.209049]},"properties":{"town":"浦东新区","published_address":"北蔡镇中界村陆家队陆家宅","geocoded_address":"上海市浦东新区北蔡镇队陆家宅","date":1651420800000}},{"type":"Feature","geometry":{"type":"Point","coordinates":[121.521409,31.18907]},"properties":{"town":"浦东新区","published_address":"北蔡镇中界村沈家队沈家宅","geocoded_address":"上海市浦东新区北蔡镇中界村沈家宅","date":1651420800000}},{"type":"Feature","geometry":{"type":"Point","coordinates":[121.57062,31.185297]},"properties":{"town":"浦东新区","published_address":"北蔡镇中界村苏家队苏家宅","geocoded_address":"上海市浦东新区北蔡镇中界村苏家队苏家宅","date":1651420800000}},{"type":"Feature","geometry":{"type":"Point","coordinates":[121.624982,31.322061]},"properties":{"town":"浦东新区","published_address":"北新园路350弄","geocoded_address":"上海市浦东新区北新园路350弄","date":1651420800000}},{"type":"Feature","geometry":{"type":"Point","coordinates":[121.525861,31.216433]},"properties":{"town":"浦东新区","published_address":"北张家浜路172号","geocoded_address":"上海市浦东新区北张家浜路172号","date":1651420800000}},{"type":"Feature","geometry":{"type":"Point","coordinates":[121.520549,31.215817]},"properties":{"town":"浦东新区","published_address":"北张家浜路58号","geocoded_address":"上海市浦东新区北张家浜路58号","date":1651420800000}},{"type":"Feature","geometry":{"type":"Point","coordinates":[121.557148,31.184183]},"properties":{"town":"浦东新区","published_address":"北中路247弄","geocoded_address":"上海市浦东新区北中路247弄","date":1651420800000}},{"type":"Feature","geometry":{"type":"Point","coordinates":[121.556554,31.183189]},"properties":{"town":"浦东新区","published_address":"北中路278弄","geocoded_address":"上海市浦东新区北中路278弄","date":1651420800000}},{"type":"Feature","geometry":{"type":"Point","coordinates":[121.557638,31.183516]},"properties":{"town":"浦东新区","published_address":"北中路280弄","geocoded_address":"上海市浦东新区北中路280弄","date":1651420800000}},{"type":"Feature","geometry":{"type":"Point","coordinates":[121.550744,31.174158]},"properties":{"town":"浦东新区","published_address":"博华路930弄","geocoded_address":"上海市浦东新区博华路930弄","date":1651420800000}},{"type":"Feature","geometry":{"type":"Point","coordinates":[121.549868,31.170129]},"properties":{"town":"浦东新区","published_address":"博华路999弄","geocoded_address":"上海市浦东新区博华路999弄","date":1651420800000}},{"type":"Feature","geometry":{"type":"Point","coordinates":[121.563344,31.25078]},"properties":{"town":"浦东新区","published_address":"博山东路111弄","geocoded_address":"上海市浦东新区博山东路111弄","date":1651420800000}},{"type":"Feature","geometry":{"type":"Point","coordinates":[121.564274,31.25135]},"properties":{"town":"浦东新区","published_address":"博山东路173弄","geocoded_address":"上海市浦东新区博山东路173弄","date":1651420800000}},{"type":"Feature","geometry":{"type":"Point","coordinates":[121.568917,31.255232]},"properties":{"town":"浦东新区","published_address":"博山东路553弄","geocoded_address":"上海市浦东新区博山东路553弄","date":1651420800000}},{"type":"Feature","geometry":{"type":"Point","coordinates":[121.600759,31.274145]},"properties":{"town":"浦东新区","published_address":"博兴路1663弄","geocoded_address":"上海市浦东新区博兴路1663弄","date":1651420800000}},{"type":"Feature","geometry":{"type":"Point","coordinates":[121.58544,31.266009]},"properties":{"town":"浦东新区","published_address":"博兴路465弄","geocoded_address":"上海市浦东新区博兴路465弄","date":1651420800000}},{"type":"Feature","geometry":{"type":"Point","coordinates":[121.590493,31.265952]},"properties":{"town":"浦东新区","published_address":"博兴路799弄","geocoded_address":"上海市浦东新区博兴路799弄","date":1651420800000}},{"type":"Feature","geometry":{"type":"Point","coordinates":[121.59159,31.26464]},"properties":{"town":"浦东新区","published_address":"博兴路916弄","geocoded_address":"上海市浦东新区博兴路916弄","date":1651420800000}},{"type":"Feature","geometry":{"type":"Point","coordinates":[121.593422,31.265394]},"properties":{"town":"浦东新区","published_address":"博兴路986弄","geocoded_address":"上海市浦东新区博兴路986弄","date":1651420800000}},{"type":"Feature","geometry":{"type":"Point","coordinates":[121.671478,31.300645]},"properties":{"town":"浦东新区","published_address":"曹路镇东海村范家宅","geocoded_address":"上海市浦东新区东海村","date":1651420800000}},{"type":"Feature","geometry":{"type":"Point","coordinates":[121.661766,31.295576]},"properties":{"town":"浦东新区","published_address":"曹路镇顾东村船板桥","geocoded_address":"上海市浦东新区曹路镇顾东村船板桥","date":1651420800000}},{"type":"Feature","geometry":{"type":"Point","coordinates":[121.658854,31.289725]},"properties":{"town":"浦东新区","published_address":"曹路镇光明村凌家圈","geocoded_address":"上海市浦东新区凌家圈","date":1651420800000}},{"type":"Feature","geometry":{"type":"Point","coordinates":[121.651327,31.287401]},"properties":{"town":"浦东新区","published_address":"曹路镇光明村沙桥宅","geocoded_address":"上海市浦东新区光明村沙桥宅","date":1651420800000}},{"type":"Feature","geometry":{"type":"Point","coordinates":[121.667039,31.278414]},"properties":{"town":"浦东新区","published_address":"曹路镇联合村路北宅","geocoded_address":"上海市浦东新区曹路镇","date":1651420800000}},{"type":"Feature","geometry":{"type":"Point","coordinates":[121.667039,31.278414]},"properties":{"town":"浦东新区","published_address":"曹路镇联合村路南宅","geocoded_address":"上海市浦东新区曹路镇","date":1651420800000}},{"type":"Feature","geometry":{"type":"Point","coordinates":[121.672887,31.296697]},"properties":{"town":"浦东新区","published_address":"曹路镇联合村西柴场","geocoded_address":"上海市浦东新区西柴场","date":1651420800000}},{"type":"Feature","geometry":{"type":"Point","coordinates":[121.726044,31.251821]},"properties":{"town":"浦东新区","published_address":"曹路镇五四村沈家宅","geocoded_address":"上海市浦东新区沈家宅","date":1651420800000}},{"type":"Feature","geometry":{"type":"Point","coordinates":[121.730803,31.250502]},"properties":{"town":"浦东新区","published_address":"曹路镇新星村胡家宅","geocoded_address":"上海市浦东新区曹路镇新星村胡家宅","date":1651420800000}},{"type":"Feature","geometry":{"type":"Point","coordinates":[121.324161,31.39684]},"properties":{"town":"浦东新区","published_address":"曹路镇迅建村葛家宅","geocoded_address":"上海市宝山区葛家宅","date":1651420800000}},{"type":"Feature","geometry":{"type":"Point","coordinates":[121.689291,31.280139]},"properties":{"town":"浦东新区","published_address":"曹路镇迅建村黄家宅南","geocoded_address":"上海市浦东新区曹路镇迅建村黄家宅","date":1651420800000}},{"type":"Feature","geometry":{"type":"Point","coordinates":[121.580799,31.352346]},"properties":{"town":"浦东新区","published_address":"草高支路170弄","geocoded_address":"上海市浦东新区草高支路170弄","date":1651420800000}},{"type":"Feature","geometry":{"type":"Point","coordinates":[121.491163,31.159222]},"properties":{"town":"浦东新区","published_address":"长清路643弄","geocoded_address":"上海市浦东新区长清路643弄","date":1651420800000}},{"type":"Feature","geometry":{"type":"Point","coordinates":[121.492209,31.157323]},"properties":{"town":"浦东新区","published_address":"长清路693弄","geocoded_address":"上海市浦东新区长清路693弄","date":1651420800000}},{"type":"Feature","geometry":{"type":"Point","coordinates":[121.492144,31.156088]},"properties":{"town":"浦东新区","published_address":"长清路773弄","geocoded_address":"上海市浦东新区长清路773弄","date":1651420800000}},{"type":"Feature","geometry":{"type":"Point","coordinates":[121.512745,31.179802]},"properties":{"town":"浦东新区","published_address":"昌里东路411弄","geocoded_address":"上海市浦东新区昌里东路411弄","date":1651420800000}},{"type":"Feature","geometry":{"type":"Point","coordinates":[121.517838,31.179083]},"properties":{"town":"浦东新区","published_address":"昌里东路650弄","geocoded_address":"上海市浦东新区昌里东路650弄","date":1651420800000}},{"type":"Feature","geometry":{"type":"Point","coordinates":[121.497553,31.175154]},"properties":{"town":"浦东新区","published_address":"昌里路167弄","geocoded_address":"上海市浦东新区昌里路167弄","date":1651420800000}},{"type":"Feature","geometry":{"type":"Point","coordinates":[121.54571,31.172849]},"properties":{"town":"浦东新区","published_address":"陈春路620弄","geocoded_address":"上海市浦东新区陈春路620弄","date":1651420800000}},{"type":"Feature","geometry":{"type":"Point","coordinates":[121.52866,31.175248]},"properties":{"town":"浦东新区","published_address":"成山路1488弄","geocoded_address":"上海市浦东新区成山路1488弄","date":1651420800000}},{"type":"Feature","geometry":{"type":"Point","coordinates":[121.531776,31.176813]},"properties":{"town":"浦东新区","published_address":"成山路1728弄","geocoded_address":"上海市浦东新区成山路1728弄","date":1651420800000}},{"type":"Feature","geometry":{"type":"Point","coordinates":[121.538109,31.179229]},"properties":{"town":"浦东新区","published_address":"成山路2008弄","geocoded_address":"上海市浦东新区成山路2008弄","date":1651420800000}},{"type":"Feature","geometry":{"type":"Point","coordinates":[121.485722,31.168014]},"properties":{"town":"浦东新区","published_address":"成山路24弄","geocoded_address":"上海市浦东新区成山路24弄","date":1651420800000}},{"type":"Feature","geometry":{"type":"Point","coordinates":[121.502274,31.17158]},"properties":{"town":"浦东新区","published_address":"成山路300弄","geocoded_address":"上海市浦东新区成山路300弄","date":1651420800000}},{"type":"Feature","geometry":{"type":"Point","coordinates":[121.679216,31.253842]},"properties":{"town":"浦东新区","published_address":"川沙路1666弄","geocoded_address":"上海市浦东新区川沙路1666弄","date":1651420800000}},{"type":"Feature","geometry":{"type":"Point","coordinates":[121.691094,31.1446]},"properties":{"town":"浦东新区","published_address":"川沙新镇陈桥村","geocoded_address":"上海市浦东新区陈桥村","date":1651420800000}},{"type":"Feature","geometry":{"type":"Point","coordinates":[121.740711,31.187419]},"properties":{"town":"浦东新区","published_address":"川沙新镇高桥村钱家宅","geocoded_address":"上海市浦东新区川沙新镇高桥村钱家宅","date":1651420800000}},{"type":"Feature","geometry":{"type":"Point","coordinates":[121.68329,31.175879]},"properties":{"town":"浦东新区","published_address":"川沙新镇界龙村费家宅","geocoded_address":"上海市浦东新区界龙村","date":1651420800000}},{"type":"Feature","geometry":{"type":"Point","coordinates":[121.704604,31.087016]},"properties":{"town":"浦东新区","published_address":"川沙新镇连民村明华","geocoded_address":"上海市浦东新区连民村明华","date":1651420800000}},{"type":"Feature","geometry":{"type":"Point","coordinates":[121.711845,31.118689]},"properties":{"town":"浦东新区","published_address":"川沙新镇鹿溪村砖桥","geocoded_address":"上海市浦东新区砖桥","date":1651420800000}},{"type":"Feature","geometry":{"type":"Point","coordinates":[121.714592,31.105934]},"properties":{"town":"浦东新区","published_address":"川沙新镇新吉村新华","geocoded_address":"上海市浦东新区新吉村新华","date":1651420800000}},{"type":"Feature","geometry":{"type":"Point","coordinates":[121.68283,31.202649]},"properties":{"town":"浦东新区","published_address":"川沙新镇药师村","geocoded_address":"上海市浦东新区药师村","date":1651420800000}},{"type":"Feature","geometry":{"type":"Point","coordinates":[121.674519,31.182775]},"properties":{"town":"浦东新区","published_address":"川沙新镇长丰村陆家宅","geocoded_address":"上海市浦东新区长丰村","date":1651420800000}},{"type":"Feature","geometry":{"type":"Point","coordinates":[121.614117,31.142531]},"properties":{"town":"浦东新区","published_address":"川周公路2928弄","geocoded_address":"上海市浦东新区川周公路2928弄","date":1651420800000}},{"type":"Feature","geometry":{"type":"Point","coordinates":[121.611885,31.143838]},"properties":{"town":"浦东新区","published_address":"川周公路3010弄","geocoded_address":"上海市浦东新区川周公路3010弄","date":1651420800000}},{"type":"Feature","geometry":{"type":"Point","coordinates":[121.655168,31.200838]},"properties":{"town":"浦东新区","published_address":"创新西路199弄","geocoded_address":"上海市浦东新区创新西路199弄","date":1651420800000}},{"type":"Feature","geometry":{"type":"Point","coordinates":[121.665536,31.211453]},"properties":{"town":"浦东新区","published_address":"创新中路399弄","geocoded_address":"上海市浦东新区创新中路399弄","date":1651420800000}},{"type":"Feature","geometry":{"type":"Point","coordinates":[121.696454,31.21507]},"properties":{"town":"浦东新区","published_address":"创业路798号","geocoded_address":"上海市浦东新区创业路798号","date":1651420800000}},{"type":"Feature","geometry":{"type":"Point","coordinates":[121.582549,31.339415]},"properties":{"town":"浦东新区","published_address":"春晖路368弄","geocoded_address":"上海市浦东新区春晖路368弄","date":1651420800000}},{"type":"Feature","geometry":{"type":"Point","coordinates":[121.65266,31.237835]},"properties":{"town":"浦东新区","published_address":"达秀路151号","geocoded_address":"上海市浦东新区达秀路151号","date":1651420800000}},{"type":"Feature","geometry":{"type":"Point","coordinates":[121.561627,31.247979]},"properties":{"town":"浦东新区","published_address":"德平路100弄","geocoded_address":"上海市浦东新区德平路100弄","date":1651420800000}},{"type":"Feature","geometry":{"type":"Point","coordinates":[121.571492,31.240149]},"properties":{"town":"浦东新区","published_address":"德平路1189弄","geocoded_address":"上海市浦东新区德平路1189弄","date":1651420800000}},{"type":"Feature","geometry":{"type":"Point","coordinates":[121.561537,31.250198]},"properties":{"town":"浦东新区","published_address":"德平路155弄","geocoded_address":"上海市浦东新区德平路155弄","date":1651420800000}},{"type":"Feature","geometry":{"type":"Point","coordinates":[121.557767,31.254035]},"properties":{"town":"浦东新区","published_address":"德平路25弄","geocoded_address":"上海市浦东新区德平路25弄","date":1651420800000}},{"type":"Feature","geometry":{"type":"Point","coordinates":[121.564242,31.229547]},"properties":{"town":"浦东新区","published_address":"丁香路1399弄","geocoded_address":"上海市浦东新区丁香路1399弄","date":1651420800000}},{"type":"Feature","geometry":{"type":"Point","coordinates":[121.55333,31.227139]},"properties":{"town":"浦东新区","published_address":"丁香路901弄","geocoded_address":"上海市浦东新区丁香路901弄","date":1651420800000}},{"type":"Feature","geometry":{"type":"Point","coordinates":[121.362206,31.359091]},"properties":{"town":"浦东新区","published_address":"定水路50弄","geocoded_address":"上海市宝山区50弄","date":1651420800000}},{"type":"Feature","geometry":{"type":"Point","coordinates":[121.581686,31.115594]},"properties":{"town":"浦东新区","published_address":"东八灶63弄","geocoded_address":"上海市浦东新区东八灶","date":1651420800000}},{"type":"Feature","geometry":{"type":"Point","coordinates":[121.576592,31.28559]},"properties":{"town":"浦东新区","published_address":"东波路49弄","geocoded_address":"上海市浦东新区东波路49弄","date":1651420800000}},{"type":"Feature","geometry":{"type":"Point","coordinates":[121.522468,31.20268]},"properties":{"town":"浦东新区","published_address":"东方路1800弄","geocoded_address":"上海市浦东新区东方路1800弄","date":1651420800000}},{"type":"Feature","geometry":{"type":"Point","coordinates":[121.903233,30.954081]},"properties":{"town":"浦东新区","published_address":"东海二村","geocoded_address":"上海市浦东新区东海二村","date":1651420800000}},{"type":"Feature","geometry":{"type":"Point","coordinates":[121.527807,31.201332]},"properties":{"town":"浦东新区","published_address":"东环龙路181弄","geocoded_address":"上海市浦东新区东环龙路181弄","date":1651420800000}},{"type":"Feature","geometry":{"type":"Point","coordinates":[121.520299,31.216924]},"properties":{"town":"浦东新区","published_address":"东建新村","geocoded_address":"上海市浦东新区东建新村","date":1651420800000}},{"type":"Feature","geometry":{"type":"Point","coordinates":[121.595918,31.2707]},"properties":{"town":"浦东新区","published_address":"东陆路1182弄","geocoded_address":"上海市浦东新区东陆路1182弄","date":1651420800000}},{"type":"Feature","geometry":{"type":"Point","coordinates":[121.596251,31.268468]},"properties":{"town":"浦东新区","published_address":"东陆路1268弄","geocoded_address":"上海市浦东新区东陆路1268弄","date":1651420800000}},{"type":"Feature","geometry":{"type":"Point","coordinates":[121.586703,31.280783]},"properties":{"town":"浦东新区","published_address":"东陆路429弄","geocoded_address":"上海市浦东新区东陆路429弄","date":1651420800000}},{"type":"Feature","geometry":{"type":"Point","coordinates":[121.509851,31.201489]},"properties":{"town":"浦东新区","published_address":"东三街102弄","geocoded_address":"上海市浦东新区东三街102弄","date":1651420800000}},{"type":"Feature","geometry":{"type":"Point","coordinates":[121.513874,31.200284]},"properties":{"town":"浦东新区","published_address":"东三里桥路211弄","geocoded_address":"上海市浦东新区东三里桥路211弄","date":1651420800000}},{"type":"Feature","geometry":{"type":"Point","coordinates":[121.535201,31.165057]},"properties":{"town":"浦东新区","published_address":"东书房路390弄","geocoded_address":"上海市浦东新区东书房路390弄","date":1651420800000}},{"type":"Feature","geometry":{"type":"Point","coordinates":[121.546927,31.112387]},"properties":{"town":"浦东新区","published_address":"渡桥路288弄","geocoded_address":"上海市浦东新区渡桥路288弄","date":1651420800000}},{"type":"Feature","geometry":{"type":"Point","coordinates":[121.56067,31.225849]},"properties":{"town":"浦东新区","published_address":"芳甸路333弄","geocoded_address":"上海市浦东新区芳甸路333弄","date":1651420800000}},{"type":"Feature","geometry":{"type":"Point","coordinates":[121.55569,31.195988]},"properties":{"town":"浦东新区","published_address":"芳华路253弄","geocoded_address":"上海市浦东新区芳华路253弄","date":1651420800000}},{"type":"Feature","geometry":{"type":"Point","coordinates":[121.557653,31.194854]},"properties":{"town":"浦东新区","published_address":"芳华路310弄","geocoded_address":"上海市浦东新区芳华路310弄","date":1651420800000}},{"type":"Feature","geometry":{"type":"Point","coordinates":[121.55854,31.196151]},"properties":{"town":"浦东新区","published_address":"芳华路411弄","geocoded_address":"上海市浦东新区芳华路411弄","date":1651420800000}},{"type":"Feature","geometry":{"type":"Point","coordinates":[121.56003,31.194874]},"properties":{"town":"浦东新区","published_address":"芳华路478弄","geocoded_address":"上海市浦东新区芳华路478弄","date":1651420800000}},{"type":"Feature","geometry":{"type":"Point","coordinates":[121.561221,31.196263]},"properties":{"town":"浦东新区","published_address":"芳华路503弄","geocoded_address":"上海市浦东新区芳华路503弄","date":1651420800000}},{"type":"Feature","geometry":{"type":"Point","coordinates":[121.557351,31.191075]},"properties":{"town":"浦东新区","published_address":"芳芯路312弄","geocoded_address":"上海市浦东新区芳芯路312弄","date":1651420800000}},{"type":"Feature","geometry":{"type":"Point","coordinates":[121.624191,31.291739]},"properties":{"town":"浦东新区","published_address":"高宝路379弄","geocoded_address":"上海市浦东新区高宝路379弄","date":1651420800000}},{"type":"Feature","geometry":{"type":"Point","coordinates":[121.627115,31.323047]},"properties":{"town":"浦东新区","published_address":"高东二路118弄","geocoded_address":"上海市浦东新区高东二路118弄","date":1651420800000}},{"type":"Feature","geometry":{"type":"Point","coordinates":[121.643338,31.321326]},"properties":{"town":"浦东新区","published_address":"高东镇革新村周家桥","geocoded_address":"上海市浦东新区周家桥","date":1651420800000}},{"type":"Feature","geometry":{"type":"Point","coordinates":[121.393103,31.449032]},"properties":{"town":"浦东新区","published_address":"高东镇竞赛村沈家宅","geocoded_address":"上海市宝山区沈家宅","date":1651420800000}},{"type":"Feature","geometry":{"type":"Point","coordinates":[121.639973,31.330728]},"properties":{"town":"浦东新区","published_address":"高东镇珊黄村苍头宅","geocoded_address":"上海市浦东新区苍头宅","date":1651420800000}},{"type":"Feature","geometry":{"type":"Point","coordinates":[121.631559,31.308374]},"properties":{"town":"浦东新区","published_address":"高东镇先锋村卢家宅","geocoded_address":"上海市浦东新区高东镇先锋村卢家宅","date":1651420800000}},{"type":"Feature","geometry":{"type":"Point","coordinates":[121.563032,31.345629]},"properties":{"town":"浦东新区","published_address":"高桥镇陆凌村瞿家宅","geocoded_address":"上海市浦东新区高桥镇陆凌村","date":1651420800000}},{"type":"Feature","geometry":{"type":"Point","coordinates":[121.563032,31.345629]},"properties":{"town":"浦东新区","published_address":"高桥镇陆凌村西凌家宅","geocoded_address":"上海市浦东新区高桥镇陆凌村","date":1651420800000}},{"type":"Feature","geometry":{"type":"Point","coordinates":[121.568515,31.338025]},"properties":{"town":"浦东新区","published_address":"高桥镇南塘村龚家宅","geocoded_address":"上海市浦东新区高桥镇南塘村龚家宅","date":1651420800000}},{"type":"Feature","geometry":{"type":"Point","coordinates":[121.568585,31.342882]},"properties":{"town":"浦东新区","published_address":"高桥镇南塘村顾家宅","geocoded_address":"上海市浦东新区顾家宅","date":1651420800000}},{"type":"Feature","geometry":{"type":"Point","coordinates":[121.568292,31.339055]},"properties":{"town":"浦东新区","published_address":"高桥镇南塘村姚家宅","geocoded_address":"上海市浦东新区南塘村","date":1651420800000}},{"type":"Feature","geometry":{"type":"Point","coordinates":[121.414827,31.299609]},"properties":{"town":"浦东新区","published_address":"高桥镇西浜头","geocoded_address":"上海市宝山区西浜","date":1651420800000}},{"type":"Feature","geometry":{"type":"Point","coordinates":[121.558784,31.357064]},"properties":{"town":"浦东新区","published_address":"高桥镇新农村北凌家宅","geocoded_address":"上海市浦东新区新农村北凌家宅","date":1651420800000}},{"type":"Feature","geometry":{"type":"Point","coordinates":[121.558309,31.356756]},"properties":{"town":"浦东新区","published_address":"高桥镇新农村沈家宅","geocoded_address":"上海市浦东新区新农村","date":1651420800000}},{"type":"Feature","geometry":{"type":"Point","coordinates":[121.751177,31.072337]},"properties":{"town":"浦东新区","published_address":"拱海路755弄","geocoded_address":"上海市浦东新区拱海路755弄","date":1651420800000}},{"type":"Feature","geometry":{"type":"Point","coordinates":[121.6164,31.20097]},"properties":{"town":"浦东新区","published_address":"古桐南路117弄","geocoded_address":"上海市浦东新区古桐南路117弄","date":1651420800000}},{"type":"Feature","geometry":{"type":"Point","coordinates":[121.917508,30.879776]},"properties":{"town":"浦东新区","published_address":"古棕路555弄","geocoded_address":"上海市浦东新区古棕路555弄","date":1651420800000}},{"type":"Feature","geometry":{"type":"Point","coordinates":[121.552413,31.247007]},"properties":{"town":"浦东新区","published_address":"崮山路157号","geocoded_address":"上海市浦东新区崮山路157号","date":1651420800000}},{"type":"Feature","geometry":{"type":"Point","coordinates":[121.550751,31.247405]},"properties":{"town":"浦东新区","published_address":"崮山路95号","geocoded_address":"上海市浦东新区崮山路95号","date":1651420800000}},{"type":"Feature","geometry":{"type":"Point","coordinates":[121.61835,31.328056]},"properties":{"town":"浦东新区","published_address":"光泽路428弄","geocoded_address":"上海市浦东新区光泽路428弄","date":1651420800000}},{"type":"Feature","geometry":{"type":"Point","coordinates":[121.672473,31.28274]},"properties":{"town":"浦东新区","published_address":"海鸣路98弄","geocoded_address":"上海市浦东新区海鸣路98弄","date":1651420800000}},{"type":"Feature","geometry":{"type":"Point","coordinates":[121.67424,31.289495]},"properties":{"town":"浦东新区","published_address":"海鹏路301弄","geocoded_address":"上海市浦东新区海鹏路301弄","date":1651420800000}},{"type":"Feature","geometry":{"type":"Point","coordinates":[121.679219,31.281937]},"properties":{"town":"浦东新区","published_address":"海容路399弄","geocoded_address":"上海市浦东新区海容路399弄","date":1651420800000}},{"type":"Feature","geometry":{"type":"Point","coordinates":[121.675991,31.274775]},"properties":{"town":"浦东新区","published_address":"海松路52弄","geocoded_address":"上海市浦东新区海松路52弄","date":1651420800000}},{"type":"Feature","geometry":{"type":"Point","coordinates":[121.506616,31.157235]},"properties":{"town":"浦东新区","published_address":"海阳路1080弄","geocoded_address":"上海市浦东新区海阳路1080弄","date":1651420800000}},{"type":"Feature","geometry":{"type":"Point","coordinates":[121.4893,31.15374]},"properties":{"town":"浦东新区","published_address":"海阳路215弄","geocoded_address":"上海市浦东新区海阳路215弄","date":1651420800000}},{"type":"Feature","geometry":{"type":"Point","coordinates":[121.748008,31.144261]},"properties":{"town":"浦东新区","published_address":"航城五路151弄","geocoded_address":"上海市浦东新区航城五路151弄","date":1651420800000}},{"type":"Feature","geometry":{"type":"Point","coordinates":[121.592596,31.07109]},"properties":{"town":"浦东新区","published_address":"航瑞路175弄","geocoded_address":"上海市浦东新区航瑞路175弄","date":1651420800000}},{"type":"Feature","geometry":{"type":"Point","coordinates":[121.607539,31.042479]},"properties":{"town":"浦东新区","published_address":"航三路航吉路交界口工地生活区","geocoded_address":"上海市浦东新区航吉路","date":1651420800000}},{"type":"Feature","geometry":{"type":"Point","coordinates":[121.600664,31.037206]},"properties":{"town":"浦东新区","published_address":"航头路988弄","geocoded_address":"上海市浦东新区航头路988弄","date":1651420800000}},{"type":"Feature","geometry":{"type":"Point","coordinates":[121.599392,31.028466]},"properties":{"town":"浦东新区","published_address":"航头镇航东村","geocoded_address":"上海市浦东新区航东村","date":1651420800000}},{"type":"Feature","geometry":{"type":"Point","coordinates":[121.602193,31.054291]},"properties":{"town":"浦东新区","published_address":"航头镇鹤东村沿江","geocoded_address":"上海市浦东新区航头镇鹤东村沿江","date":1651420800000}},{"type":"Feature","geometry":{"type":"Point","coordinates":[121.586544,31.05959]},"properties":{"town":"浦东新区","published_address":"航头镇梅园村沙北","geocoded_address":"上海市浦东新区梅园村沙北","date":1651420800000}},{"type":"Feature","geometry":{"type":"Point","coordinates":[121.362206,31.359091]},"properties":{"town":"浦东新区","published_address":"航绣路50弄","geocoded_address":"上海市宝山区50弄","date":1651420800000}},{"type":"Feature","geometry":{"type":"Point","coordinates":[121.721603,31.26077]},"properties":{"town":"浦东新区","published_address":"合庆镇勤奋村卫家宅","geocoded_address":"上海市浦东新区勤奋村","date":1651420800000}},{"type":"Feature","geometry":{"type":"Point","coordinates":[121.743897,31.233344]},"properties":{"town":"浦东新区","published_address":"合庆镇向东村张家宅","geocoded_address":"上海市浦东新区向东村","date":1651420800000}},{"type":"Feature","geometry":{"type":"Point","coordinates":[121.736855,31.22581]},"properties":{"town":"浦东新区","published_address":"合庆镇友谊村西钱家宅","geocoded_address":"上海市浦东新区友谊村","date":1651420800000}},{"type":"Feature","geometry":{"type":"Point","coordinates":[121.73093,31.24937]},"properties":{"town":"浦东新区","published_address":"合庆镇跃丰村徐家宅","geocoded_address":"上海市浦东新区徐家宅","date":1651420800000}},{"type":"Feature","geometry":{"type":"Point","coordinates":[121.513014,31.128383]},"properties":{"town":"浦东新区","published_address":"和佳路105弄","geocoded_address":"上海市浦东新区和佳路105弄","date":1651420800000}},{"type":"Feature","geometry":{"type":"Point","coordinates":[121.50178,31.120797]},"properties":{"town":"浦东新区","published_address":"和炯路77弄","geocoded_address":"上海市浦东新区和炯路77弄","date":1651420800000}},{"type":"Feature","geometry":{"type":"Point","coordinates":[121.499935,31.125285]},"properties":{"town":"浦东新区","published_address":"和融路55弄","geocoded_address":"上海市浦东新区和融路55弄","date":1651420800000}},{"type":"Feature","geometry":{"type":"Point","coordinates":[121.595101,31.265325]},"properties":{"town":"浦东新区","published_address":"菏泽路567弄","geocoded_address":"上海市浦东新区菏泽路567弄","date":1651420800000}},{"type":"Feature","geometry":{"type":"Point","coordinates":[121.589478,31.272904]},"properties":{"town":"浦东新区","published_address":"菏泽路58弄","geocoded_address":"上海市浦东新区菏泽路58弄","date":1651420800000}},{"type":"Feature","geometry":{"type":"Point","coordinates":[121.60571,31.070116]},"properties":{"town":"浦东新区","published_address":"鹤洁路625弄","geocoded_address":"上海市浦东新区鹤洁路625弄","date":1651420800000}},{"type":"Feature","geometry":{"type":"Point","coordinates":[121.604598,31.074709]},"properties":{"town":"浦东新区","published_address":"鹤永路599弄","geocoded_address":"上海市浦东新区鹤永路599弄","date":1651420800000}},{"type":"Feature","geometry":{"type":"Point","coordinates":[121.511258,31.15132]},"properties":{"town":"浦东新区","published_address":"洪山路1889弄","geocoded_address":"上海市浦东新区洪山路1889弄","date":1651420800000}},{"type":"Feature","geometry":{"type":"Point","coordinates":[121.565648,31.121371]},"properties":{"town":"浦东新区","published_address":"沪南路3158弄","geocoded_address":"上海市浦东新区沪南路3158弄","date":1651420800000}},{"type":"Feature","geometry":{"type":"Point","coordinates":[121.568387,31.123555]},"properties":{"town":"浦东新区","published_address":"沪南路3219弄","geocoded_address":"上海市浦东新区沪南路3219弄","date":1651420800000}},{"type":"Feature","geometry":{"type":"Point","coordinates":[121.560908,31.21887]},"properties":{"town":"浦东新区","published_address":"花木路1883弄","geocoded_address":"上海市浦东新区花木路1883弄","date":1651420800000}},{"type":"Feature","geometry":{"type":"Point","coordinates":[121.574469,31.346608]},"properties":{"town":"浦东新区","published_address":"花山路300弄","geocoded_address":"上海市浦东新区花山路300弄","date":1651420800000}},{"type":"Feature","geometry":{"type":"Point","coordinates":[121.508092,31.190886]},"properties":{"town":"浦东新区","published_address":"华丰路50弄","geocoded_address":"上海市浦东新区华丰路50弄","date":1651420800000}},{"type":"Feature","geometry":{"type":"Point","coordinates":[121.690424,31.198943]},"properties":{"town":"浦东新区","published_address":"华夏东路2026弄","geocoded_address":"上海市浦东新区华夏东路2026弄","date":1651420800000}},{"type":"Feature","geometry":{"type":"Point","coordinates":[121.69384,31.199179]},"properties":{"town":"浦东新区","published_address":"华夏东路2170弄","geocoded_address":"上海市浦东新区华夏东路2170弄","date":1651420800000}},{"type":"Feature","geometry":{"type":"Point","coordinates":[121.697991,31.201149]},"properties":{"town":"浦东新区","published_address":"华夏东路2345弄","geocoded_address":"上海市浦东新区华夏东路2345弄","date":1651420800000}},{"type":"Feature","geometry":{"type":"Point","coordinates":[121.684029,31.194083]},"properties":{"town":"浦东新区","published_address":"华夏二路200弄","geocoded_address":"上海市浦东新区华夏二路200弄","date":1651420800000}},{"type":"Feature","geometry":{"type":"Point","coordinates":[121.530225,31.140498]},"properties":{"town":"浦东新区","published_address":"环林东路875弄","geocoded_address":"上海市浦东新区环林东路875弄","date":1651420800000}},{"type":"Feature","geometry":{"type":"Point","coordinates":[121.602303,31.135994]},"properties":{"town":"浦东新区","published_address":"环桥路1137弄","geocoded_address":"上海市浦东新区环桥路1137弄","date":1651420800000}},{"type":"Feature","geometry":{"type":"Point","coordinates":[121.724786,31.229014]},"properties":{"town":"浦东新区","published_address":"环庆南路239弄","geocoded_address":"上海市浦东新区环庆南路239弄","date":1651420800000}},{"type":"Feature","geometry":{"type":"Point","coordinates":[121.728073,31.227173]},"properties":{"town":"浦东新区","published_address":"环庆南路336弄","geocoded_address":"上海市浦东新区环庆南路336弄","date":1651420800000}},{"type":"Feature","geometry":{"type":"Point","coordinates":[121.735975,31.040516]},"properties":{"town":"浦东新区","published_address":"惠南镇汇南村","geocoded_address":"上海市浦东新区汇南村","date":1651420800000}},{"type":"Feature","geometry":{"type":"Point","coordinates":[121.779244,31.071006]},"properties":{"town":"浦东新区","published_address":"惠南镇陆楼村长路","geocoded_address":"上海市浦东新区惠南镇陆楼村长路","date":1651420800000}},{"type":"Feature","geometry":{"type":"Point","coordinates":[121.80435,31.041063]},"properties":{"town":"浦东新区","published_address":"惠南镇远东村东联","geocoded_address":"上海市浦东新区远东村东联","date":1651420800000}},{"type":"Feature","geometry":{"type":"Point","coordinates":[121.585852,31.342734]},"properties":{"town":"浦东新区","published_address":"季景北路185弄","geocoded_address":"上海市浦东新区季景北路185弄","date":1651420800000}},{"type":"Feature","geometry":{"type":"Point","coordinates":[121.482215,31.167224]},"properties":{"town":"浦东新区","published_address":"济阳路65弄","geocoded_address":"上海市浦东新区济阳路65弄","date":1651420800000}},{"type":"Feature","geometry":{"type":"Point","coordinates":[121.481616,31.16599]},"properties":{"town":"浦东新区","published_address":"济阳路95弄","geocoded_address":"上海市浦东新区济阳路95弄","date":1651420800000}},{"type":"Feature","geometry":{"type":"Point","coordinates":[121.61282,31.265102]},"properties":{"town":"浦东新区","published_address":"佳林路959号","geocoded_address":"上海市浦东新区佳林路959号","date":1651420800000}},{"type":"Feature","geometry":{"type":"Point","coordinates":[121.611623,31.264485]},"properties":{"town":"浦东新区","published_address":"佳林路962弄","geocoded_address":"上海市浦东新区佳林路962弄","date":1651420800000}},{"type":"Feature","geometry":{"type":"Point","coordinates":[121.615851,31.20608]},"properties":{"town":"浦东新区","published_address":"江东路25号","geocoded_address":"上海市浦东新区江东路|25号","date":1651420800000}},{"type":"Feature","geometry":{"type":"Point","coordinates":[121.614678,31.227134]},"properties":{"town":"浦东新区","published_address":"金港路2528弄","geocoded_address":"上海市浦东新区金港路2528弄","date":1651420800000}},{"type":"Feature","geometry":{"type":"Point","coordinates":[121.608917,31.283073]},"properties":{"town":"浦东新区","published_address":"金高路1058弄","geocoded_address":"上海市浦东新区金高路1058弄","date":1651420800000}},{"type":"Feature","geometry":{"type":"Point","coordinates":[121.608853,31.281263]},"properties":{"town":"浦东新区","published_address":"金高路1068弄","geocoded_address":"上海市浦东新区金高路1068弄","date":1651420800000}},{"type":"Feature","geometry":{"type":"Point","coordinates":[121.605255,31.259514]},"properties":{"town":"浦东新区","published_address":"金高路2388号","geocoded_address":"上海市浦东新区金高路2388号","date":1651420800000}},{"type":"Feature","geometry":{"type":"Point","coordinates":[121.422288,31.334558]},"properties":{"town":"浦东新区","published_address":"金槐路789号工地生活区","geocoded_address":"上海市宝山区工地生活区","date":1651420800000}},{"type":"Feature","geometry":{"type":"Point","coordinates":[121.578145,31.24875]},"properties":{"town":"浦东新区","published_address":"金口路155弄","geocoded_address":"上海市浦东新区金口路155弄","date":1651420800000}},{"type":"Feature","geometry":{"type":"Point","coordinates":[121.582188,31.246222]},"properties":{"town":"浦东新区","published_address":"金口路471弄","geocoded_address":"上海市浦东新区金口路471弄","date":1651420800000}},{"type":"Feature","geometry":{"type":"Point","coordinates":[121.62744,31.240301]},"properties":{"town":"浦东新区","published_address":"金葵路945弄","geocoded_address":"上海市浦东新区金葵路945弄","date":1651420800000}},{"type":"Feature","geometry":{"type":"Point","coordinates":[121.589517,31.249082]},"properties":{"town":"浦东新区","published_address":"金桥路1506弄","geocoded_address":"上海市浦东新区金桥路1506弄","date":1651420800000}},{"type":"Feature","geometry":{"type":"Point","coordinates":[121.67474,31.27736]},"properties":{"town":"浦东新区","published_address":"金晓路96弄","geocoded_address":"上海市浦东新区金晓路96弄","date":1651420800000}},{"type":"Feature","geometry":{"type":"Point","coordinates":[121.581982,31.251171]},"properties":{"town":"浦东新区","published_address":"金杨路660弄","geocoded_address":"上海市浦东新区金杨路660弄","date":1651420800000}},{"type":"Feature","geometry":{"type":"Point","coordinates":[121.582715,31.253974]},"properties":{"town":"浦东新区","published_address":"金杨路785弄","geocoded_address":"上海市浦东新区金杨路785弄","date":1651420800000}},{"type":"Feature","geometry":{"type":"Point","coordinates":[121.614403,31.255519]},"properties":{"town":"浦东新区","published_address":"金豫路100号","geocoded_address":"上海市浦东新区金豫路100号","date":1651420800000}},{"type":"Feature","geometry":{"type":"Point","coordinates":[121.53905,31.181208]},"properties":{"town":"浦东新区","published_address":"锦绣路3088弄","geocoded_address":"上海市浦东新区锦绣路3088弄","date":1651420800000}},{"type":"Feature","geometry":{"type":"Point","coordinates":[121.568052,31.153236]},"properties":{"town":"浦东新区","published_address":"京浦路160弄","geocoded_address":"上海市浦东新区京浦路160弄","date":1651420800000}},{"type":"Feature","geometry":{"type":"Point","coordinates":[121.565403,31.152818]},"properties":{"town":"浦东新区","published_address":"京浦路82弄","geocoded_address":"上海市浦东新区京浦路82弄","date":1651420800000}},{"type":"Feature","geometry":{"type":"Point","coordinates":[121.5621,31.260843]},"properties":{"town":"浦东新区","published_address":"居家桥路151弄","geocoded_address":"上海市浦东新区居家桥路151弄","date":1651420800000}},{"type":"Feature","geometry":{"type":"Point","coordinates":[121.571653,31.244978]},"properties":{"town":"浦东新区","published_address":"居家桥路911弄","geocoded_address":"上海市浦东新区居家桥路911弄","date":1651420800000}},{"type":"Feature","geometry":{"type":"Point","coordinates":[121.597196,31.2792]},"properties":{"town":"浦东新区","published_address":"巨峰路176弄","geocoded_address":"上海市浦东新区巨峰路176弄","date":1651420800000}},{"type":"Feature","geometry":{"type":"Point","coordinates":[121.594635,31.277899]},"properties":{"town":"浦东新区","published_address":"巨峰路90弄","geocoded_address":"上海市浦东新区巨峰路90弄","date":1651420800000}},{"type":"Feature","geometry":{"type":"Point","coordinates":[121.544845,31.244167]},"properties":{"town":"浦东新区","published_address":"巨野路61弄","geocoded_address":"上海市浦东新区巨野路61弄","date":1651420800000}},{"type":"Feature","geometry":{"type":"Point","coordinates":[121.546449,31.116329]},"properties":{"town":"浦东新区","published_address":"康涵路58弄","geocoded_address":"上海市浦东新区康涵路58弄","date":1651420800000}},{"type":"Feature","geometry":{"type":"Point","coordinates":[121.582189,31.150764]},"properties":{"town":"浦东新区","published_address":"康桥路90弄","geocoded_address":"上海市浦东新区康桥路","date":1651420800000}},{"type":"Feature","geometry":{"type":"Point","coordinates":[121.549112,31.148377]},"properties":{"town":"浦东新区","published_address":"康桥镇花墙村","geocoded_address":"上海市浦东新区花墙村","date":1651420800000}},{"type":"Feature","geometry":{"type":"Point","coordinates":[121.608582,31.139287]},"properties":{"town":"浦东新区","published_address":"康桥镇火箭村","geocoded_address":"上海市浦东新区康桥镇火箭村","date":1651420800000}},{"type":"Feature","geometry":{"type":"Point","coordinates":[121.603787,31.147221]},"properties":{"town":"浦东新区","published_address":"康桥镇汤巷村","geocoded_address":"上海市浦东新区汤巷村","date":1651420800000}},{"type":"Feature","geometry":{"type":"Point","coordinates":[121.558389,31.156606]},"properties":{"town":"浦东新区","published_address":"康杉路118号","geocoded_address":"上海市浦东新区康杉路118号","date":1651420800000}},{"type":"Feature","geometry":{"type":"Point","coordinates":[121.564215,31.145559]},"properties":{"town":"浦东新区","published_address":"康杉路608弄","geocoded_address":"上海市浦东新区康杉路608弄","date":1651420800000}},{"type":"Feature","geometry":{"type":"Point","coordinates":[121.480688,31.168655]},"properties":{"town":"浦东新区","published_address":"康泽路550弄","geocoded_address":"上海市浦东新区550弄","date":1651420800000}},{"type":"Feature","geometry":{"type":"Point","coordinates":[121.530216,31.2109]},"properties":{"town":"浦东新区","published_address":"蓝村路30弄","geocoded_address":"上海市浦东新区蓝村路30弄","date":1651420800000}},{"type":"Feature","geometry":{"type":"Point","coordinates":[121.520849,31.233841]},"properties":{"town":"浦东新区","published_address":"崂山路310弄","geocoded_address":"上海市浦东新区崂山路310弄","date":1651420800000}},{"type":"Feature","geometry":{"type":"Point","coordinates":[121.517237,31.23719]},"properties":{"town":"浦东新区","published_address":"崂山路502号","geocoded_address":"上海市浦东新区崂山路502号","date":1651420800000}},{"type":"Feature","geometry":{"type":"Point","coordinates":[121.522219,31.226595]},"properties":{"town":"浦东新区","published_address":"崂山路551弄","geocoded_address":"上海市浦东新区崂山路551弄","date":1651420800000}},{"type":"Feature","geometry":{"type":"Point","coordinates":[121.52303,31.226273]},"properties":{"town":"浦东新区","published_address":"崂山路571弄","geocoded_address":"上海市浦东新区崂山路571弄","date":1651420800000}},{"type":"Feature","geometry":{"type":"Point","coordinates":[121.518632,31.234973]},"properties":{"town":"浦东新区","published_address":"崂山三村","geocoded_address":"上海市浦东新区崂山三村","date":1651420800000}},{"type":"Feature","geometry":{"type":"Point","coordinates":[121.518257,31.235026]},"properties":{"town":"浦东新区","published_address":"崂山四村","geocoded_address":"上海市浦东新区崂山四村","date":1651420800000}},{"type":"Feature","geometry":{"type":"Point","coordinates":[121.492379,31.174652]},"properties":{"town":"浦东新区","published_address":"历城路100弄","geocoded_address":"上海市浦东新区历城路100弄","date":1651420800000}},{"type":"Feature","geometry":{"type":"Point","coordinates":[121.691831,31.20879]},"properties":{"town":"浦东新区","published_address":"利川路王桥路交界口工地生活区","geocoded_address":"上海市浦东新区利川路王桥路","date":1651420800000}},{"type":"Feature","geometry":{"type":"Point","coordinates":[121.59022,31.275223]},"properties":{"town":"浦东新区","published_address":"利津路729弄","geocoded_address":"上海市浦东新区利津路729弄","date":1651420800000}},{"type":"Feature","geometry":{"type":"Point","coordinates":[121.553648,31.179218]},"properties":{"town":"浦东新区","published_address":"莲安西路125弄","geocoded_address":"上海市浦东新区莲安西路125弄","date":1651420800000}},{"type":"Feature","geometry":{"type":"Point","coordinates":[121.565915,31.173237]},"properties":{"town":"浦东新区","published_address":"莲溪路1099弄","geocoded_address":"上海市浦东新区莲溪路1099弄","date":1651420800000}},{"type":"Feature","geometry":{"type":"Point","coordinates":[121.563369,31.182923]},"properties":{"town":"浦东新区","published_address":"莲溪路477弄","geocoded_address":"上海市浦东新区莲溪路477弄","date":1651420800000}},{"type":"Feature","geometry":{"type":"Point","coordinates":[121.54234,31.18449]},"properties":{"town":"浦东新区","published_address":"莲园路8弄","geocoded_address":"上海市浦东新区莲园路8弄","date":1651420800000}},{"type":"Feature","geometry":{"type":"Point","coordinates":[121.567856,31.16797]},"properties":{"town":"浦东新区","published_address":"莲振路269号","geocoded_address":"上海市浦东新区莲振路269号","date":1651420800000}},{"type":"Feature","geometry":{"type":"Point","coordinates":[121.55836,31.18151]},"properties":{"town":"浦东新区","published_address":"莲中路250弄","geocoded_address":"上海市浦东新区莲中路250弄","date":1651420800000}},{"type":"Feature","geometry":{"type":"Point","coordinates":[121.558296,31.179366]},"properties":{"town":"浦东新区","published_address":"莲中路356弄","geocoded_address":"上海市浦东新区莲中路356弄","date":1651420800000}},{"type":"Feature","geometry":{"type":"Point","coordinates":[121.526114,31.131983]},"properties":{"town":"浦东新区","published_address":"林鸣路326弄","geocoded_address":"上海市浦东新区林鸣路326弄","date":1651420800000}},{"type":"Feature","geometry":{"type":"Point","coordinates":[121.485226,31.117487]},"properties":{"town":"浦东新区","published_address":"林培路红临路交界口工地生活区","geocoded_address":"上海市浦东新区林培路红临路","date":1651420800000}},{"type":"Feature","geometry":{"type":"Point","coordinates":[121.507993,31.12787]},"properties":{"town":"浦东新区","published_address":"林展路267弄","geocoded_address":"上海市浦东新区林展路267弄","date":1651420800000}},{"type":"Feature","geometry":{"type":"Point","coordinates":[121.50587,31.12737]},"properties":{"town":"浦东新区","published_address":"林展路278弄","geocoded_address":"上海市浦东新区林展路278弄","date":1651420800000}},{"type":"Feature","geometry":{"type":"Point","coordinates":[121.510061,31.122854]},"properties":{"town":"浦东新区","published_address":"林展路411弄","geocoded_address":"上海市浦东新区林展路411弄","date":1651420800000}},{"type":"Feature","geometry":{"type":"Point","coordinates":[121.514092,31.195399]},"properties":{"town":"浦东新区","published_address":"临沂路101弄","geocoded_address":"上海市浦东新区临沂路101弄","date":1651420800000}},{"type":"Feature","geometry":{"type":"Point","coordinates":[121.512949,31.193274]},"properties":{"town":"浦东新区","published_address":"临沂路181弄","geocoded_address":"上海市浦东新区临沂路181弄","date":1651420800000}},{"type":"Feature","geometry":{"type":"Point","coordinates":[121.50877,31.192925]},"properties":{"town":"浦东新区","published_address":"临沂路280弄","geocoded_address":"上海市浦东新区临沂路280弄","date":1651420800000}},{"type":"Feature","geometry":{"type":"Point","coordinates":[121.510396,31.190861]},"properties":{"town":"浦东新区","published_address":"临沂路301弄","geocoded_address":"上海市浦东新区临沂路301弄","date":1651420800000}},{"type":"Feature","geometry":{"type":"Point","coordinates":[121.562475,31.238864]},"properties":{"town":"浦东新区","published_address":"灵山路1415弄","geocoded_address":"上海市浦东新区灵山路1415弄","date":1651420800000}},{"type":"Feature","geometry":{"type":"Point","coordinates":[121.566871,31.239802]},"properties":{"town":"浦东新区","published_address":"灵山路1671弄","geocoded_address":"上海市浦东新区灵山路1671弄","date":1651420800000}},{"type":"Feature","geometry":{"type":"Point","coordinates":[121.543968,31.227164]},"properties":{"town":"浦东新区","published_address":"灵山路600弄","geocoded_address":"上海市浦东新区灵山路600弄","date":1651420800000}},{"type":"Feature","geometry":{"type":"Point","coordinates":[121.494344,31.15926]},"properties":{"town":"浦东新区","published_address":"灵岩南路156弄","geocoded_address":"上海市浦东新区灵岩南路156弄","date":1651420800000}},{"type":"Feature","geometry":{"type":"Point","coordinates":[121.596721,31.274996]},"properties":{"town":"浦东新区","published_address":"凌河路188弄","geocoded_address":"上海市浦东新区凌河路188弄","date":1651420800000}},{"type":"Feature","geometry":{"type":"Point","coordinates":[121.602882,31.271728]},"properties":{"town":"浦东新区","published_address":"凌河路618弄","geocoded_address":"上海市浦东新区凌河路618弄","date":1651420800000}},{"type":"Feature","geometry":{"type":"Point","coordinates":[121.497312,31.143761]},"properties":{"town":"浦东新区","published_address":"凌兆路379弄","geocoded_address":"上海市浦东新区凌兆路379弄","date":1651420800000}},{"type":"Feature","geometry":{"type":"Point","coordinates":[121.499253,31.142463]},"properties":{"town":"浦东新区","published_address":"凌兆路396弄","geocoded_address":"上海市浦东新区凌兆路396弄","date":1651420800000}},{"type":"Feature","geometry":{"type":"Point","coordinates":[121.499112,31.14278]},"properties":{"town":"浦东新区","published_address":"凌兆路428弄","geocoded_address":"上海市浦东新区凌兆路428弄","date":1651420800000}},{"type":"Feature","geometry":{"type":"Point","coordinates":[121.499849,31.144527]},"properties":{"town":"浦东新区","published_address":"凌兆路521弄","geocoded_address":"上海市浦东新区凌兆路521弄","date":1651420800000}},{"type":"Feature","geometry":{"type":"Point","coordinates":[121.502212,31.143009]},"properties":{"town":"浦东新区","published_address":"凌兆路586弄","geocoded_address":"上海市浦东新区凌兆路586弄","date":1651420800000}},{"type":"Feature","geometry":{"type":"Point","coordinates":[121.492221,31.141575]},"properties":{"town":"浦东新区","published_address":"凌兆路99弄","geocoded_address":"上海市浦东新区凌兆路99弄","date":1651420800000}},{"type":"Feature","geometry":{"type":"Point","coordinates":[121.562566,31.251223]},"properties":{"town":"浦东新区","published_address":"龙居路180弄","geocoded_address":"上海市浦东新区龙居路180弄","date":1651420800000}},{"type":"Feature","geometry":{"type":"Point","coordinates":[121.552376,31.248465]},"properties":{"town":"浦东新区","published_address":"罗山路108弄","geocoded_address":"上海市浦东新区罗山路108弄","date":1651420800000}},{"type":"Feature","geometry":{"type":"Point","coordinates":[121.569265,31.228514]},"properties":{"town":"浦东新区","published_address":"罗山路1502弄","geocoded_address":"上海市浦东新区罗山路1502弄","date":1651420800000}},{"type":"Feature","geometry":{"type":"Point","coordinates":[121.549714,31.237539]},"properties":{"town":"浦东新区","published_address":"苗圃路415弄","geocoded_address":"上海市浦东新区苗圃路415弄","date":1651420800000}},{"type":"Feature","geometry":{"type":"Point","coordinates":[121.665504,31.261266]},"properties":{"town":"浦东新区","published_address":"民唐路秦家港路交界口工地生活区","geocoded_address":"上海市浦东新区民唐路秦家港路","date":1651420800000}},{"type":"Feature","geometry":{"type":"Point","coordinates":[121.595337,31.266578]},"properties":{"town":"浦东新区","published_address":"牟平路154弄","geocoded_address":"上海市浦东新区牟平路154弄","date":1651420800000}},{"type":"Feature","geometry":{"type":"Point","coordinates":[121.600215,31.261473]},"properties":{"town":"浦东新区","published_address":"牟平路384弄","geocoded_address":"上海市浦东新区牟平路384弄","date":1651420800000}},{"type":"Feature","geometry":{"type":"Point","coordinates":[121.552252,31.208716]},"properties":{"town":"浦东新区","published_address":"牡丹路399弄","geocoded_address":"上海市浦东新区牡丹路399弄","date":1651420800000}},{"type":"Feature","geometry":{"type":"Point","coordinates":[121.507586,31.199396]},"properties":{"town":"浦东新区","published_address":"南码头路144弄","geocoded_address":"上海市浦东新区南码头路144弄","date":1651420800000}},{"type":"Feature","geometry":{"type":"Point","coordinates":[121.514092,31.174931]},"properties":{"town":"浦东新区","published_address":"南码头路1675弄","geocoded_address":"上海市浦东新区南码头路1675弄","date":1651420800000}},{"type":"Feature","geometry":{"type":"Point","coordinates":[121.509263,31.193396]},"properties":{"town":"浦东新区","published_address":"南码头路450弄","geocoded_address":"上海市浦东新区南码头路450弄","date":1651420800000}},{"type":"Feature","geometry":{"type":"Point","coordinates":[121.708744,31.19165]},"properties":{"town":"浦东新区","published_address":"南桥路237弄","geocoded_address":"上海市浦东新区南桥路237弄","date":1651420800000}},{"type":"Feature","geometry":{"type":"Point","coordinates":[121.701731,31.187911]},"properties":{"town":"浦东新区","published_address":"南桥路459弄","geocoded_address":"上海市浦东新区南桥路459弄","date":1651420800000}},{"type":"Feature","geometry":{"type":"Point","coordinates":[121.710114,31.19256]},"properties":{"town":"浦东新区","published_address":"南桥路86弄","geocoded_address":"上海市浦东新区南桥路86弄","date":1651420800000}},{"type":"Feature","geometry":{"type":"Point","coordinates":[121.847521,30.910441]},"properties":{"town":"浦东新区","published_address":"泥城镇横港村","geocoded_address":"上海市浦东新区横港村","date":1651420800000}},{"type":"Feature","geometry":{"type":"Point","coordinates":[121.557363,31.171562]},"properties":{"town":"浦东新区","published_address":"鹏飞路333弄","geocoded_address":"上海市浦东新区鹏飞路333弄","date":1651420800000}},{"type":"Feature","geometry":{"type":"Point","coordinates":[121.553634,31.170616]},"properties":{"town":"浦东新区","published_address":"鹏岳路152弄","geocoded_address":"上海市浦东新区鹏岳路152弄","date":1651420800000}},{"type":"Feature","geometry":{"type":"Point","coordinates":[121.55499,31.170142]},"properties":{"town":"浦东新区","published_address":"鹏岳路233弄","geocoded_address":"上海市浦东新区鹏岳路","date":1651420800000}},{"type":"Feature","geometry":{"type":"Point","coordinates":[121.523775,31.218517]},"properties":{"town":"浦东新区","published_address":"浦电路221号","geocoded_address":"上海市浦东新区浦电路221号","date":1651420800000}},{"type":"Feature","geometry":{"type":"Point","coordinates":[121.514834,31.21645]},"properties":{"town":"浦东新区","published_address":"浦电路29弄","geocoded_address":"上海市浦东新区浦电路29弄","date":1651420800000}},{"type":"Feature","geometry":{"type":"Point","coordinates":[121.526399,31.218404]},"properties":{"town":"浦东新区","published_address":"浦电路305弄","geocoded_address":"上海市浦东新区浦电路305弄","date":1651420800000}},{"type":"Feature","geometry":{"type":"Point","coordinates":[121.526591,31.221031]},"properties":{"town":"浦东新区","published_address":"浦电路330弄","geocoded_address":"上海市浦东新区浦电路330弄","date":1651420800000}},{"type":"Feature","geometry":{"type":"Point","coordinates":[121.517186,31.218112]},"properties":{"town":"浦东新区","published_address":"浦电路48弄","geocoded_address":"上海市浦东新区浦电路48弄","date":1651420800000}},{"type":"Feature","geometry":{"type":"Point","coordinates":[121.513638,31.237805]},"properties":{"town":"浦东新区","published_address":"浦东大道136弄","geocoded_address":"上海市浦东新区浦东大道136弄","date":1651420800000}},{"type":"Feature","geometry":{"type":"Point","coordinates":[121.514647,31.238659]},"properties":{"town":"浦东新区","published_address":"浦东大道140弄","geocoded_address":"上海市浦东新区浦东大道140弄","date":1651420800000}},{"type":"Feature","geometry":{"type":"Point","coordinates":[121.536296,31.242161]},"properties":{"town":"浦东新区","published_address":"浦东大道1460弄","geocoded_address":"上海市浦东新区浦东大道1460弄","date":1651420800000}},{"type":"Feature","geometry":{"type":"Point","coordinates":[121.540905,31.244806]},"properties":{"town":"浦东新区","published_address":"浦东大道1585弄","geocoded_address":"上海市浦东新区浦东大道1585弄","date":1651420800000}},{"type":"Feature","geometry":{"type":"Point","coordinates":[121.541597,31.246032]},"properties":{"town":"浦东新区","published_address":"浦东大道1615弄","geocoded_address":"上海市浦东新区浦东大道1615弄","date":1651420800000}},{"type":"Feature","geometry":{"type":"Point","coordinates":[121.54479,31.24751]},"properties":{"town":"浦东新区","published_address":"浦东大道1851弄","geocoded_address":"上海市浦东新区浦东大道1851弄","date":1651420800000}},{"type":"Feature","geometry":{"type":"Point","coordinates":[121.567533,31.263746]},"properties":{"town":"浦东新区","published_address":"浦东大道2639弄","geocoded_address":"上海市浦东新区浦东大道2639弄","date":1651420800000}},{"type":"Feature","geometry":{"type":"Point","coordinates":[121.576474,31.272561]},"properties":{"town":"浦东新区","published_address":"浦东大道2894号","geocoded_address":"上海市浦东新区浦东大道|2894","date":1651420800000}},{"type":"Feature","geometry":{"type":"Point","coordinates":[121.517239,31.239219]},"properties":{"town":"浦东新区","published_address":"浦东大道290弄","geocoded_address":"上海市浦东新区浦东大道290弄","date":1651420800000}},{"type":"Feature","geometry":{"type":"Point","coordinates":[121.578246,31.273771]},"properties":{"town":"浦东新区","published_address":"浦东大道2920弄","geocoded_address":"上海市浦东新区浦东大道2920弄","date":1651420800000}},{"type":"Feature","geometry":{"type":"Point","coordinates":[121.581109,31.276857]},"properties":{"town":"浦东新区","published_address":"浦东大道2970弄","geocoded_address":"上海市浦东新区浦东大道2970弄","date":1651420800000}},{"type":"Feature","geometry":{"type":"Point","coordinates":[121.51656,31.22523]},"properties":{"town":"浦东新区","published_address":"浦东南路1288号","geocoded_address":"上海市浦东新区浦东南路1288号","date":1651420800000}},{"type":"Feature","geometry":{"type":"Point","coordinates":[121.518465,31.222214]},"properties":{"town":"浦东新区","published_address":"浦东南路1475弄","geocoded_address":"上海市浦东新区浦东南路1475弄","date":1651420800000}},{"type":"Feature","geometry":{"type":"Point","coordinates":[121.520808,31.220683]},"properties":{"town":"浦东新区","published_address":"浦东南路1533号","geocoded_address":"上海市浦东新区浦东南路1533号","date":1651420800000}},{"type":"Feature","geometry":{"type":"Point","coordinates":[121.518121,31.217659]},"properties":{"town":"浦东新区","published_address":"浦东南路1700弄","geocoded_address":"上海市浦东新区浦东南路1700弄","date":1651420800000}},{"type":"Feature","geometry":{"type":"Point","coordinates":[121.517603,31.215859]},"properties":{"town":"浦东新区","published_address":"浦东南路1862弄","geocoded_address":"上海市浦东新区浦东南路1862弄","date":1651420800000}},{"type":"Feature","geometry":{"type":"Point","coordinates":[121.515792,31.209335]},"properties":{"town":"浦东新区","published_address":"浦东南路2108号","geocoded_address":"上海市浦东新区浦东南路2108号","date":1651420800000}},{"type":"Feature","geometry":{"type":"Point","coordinates":[121.514358,31.20693]},"properties":{"town":"浦东新区","published_address":"浦东南路2178弄","geocoded_address":"上海市浦东新区浦东南路2178弄","date":1651420800000}},{"type":"Feature","geometry":{"type":"Point","coordinates":[121.513383,31.206643]},"properties":{"town":"浦东新区","published_address":"浦东南路2192弄","geocoded_address":"上海市浦东新区浦东南路2192弄","date":1651420800000}},{"type":"Feature","geometry":{"type":"Point","coordinates":[121.512258,31.197332]},"properties":{"town":"浦东新区","published_address":"浦东南路2351弄","geocoded_address":"上海市浦东新区浦东南路2351弄","date":1651420800000}},{"type":"Feature","geometry":{"type":"Point","coordinates":[121.510674,31.19975]},"properties":{"town":"浦东新区","published_address":"浦东南路2362号","geocoded_address":"上海市浦东新区浦东南路2362号","date":1651420800000}},{"type":"Feature","geometry":{"type":"Point","coordinates":[121.505684,31.189528]},"properties":{"town":"浦东新区","published_address":"浦东南路3643弄","geocoded_address":"上海市浦东新区浦东南路3643弄","date":1651420800000}},{"type":"Feature","geometry":{"type":"Point","coordinates":[121.502349,31.182954]},"properties":{"town":"浦东新区","published_address":"浦东南路3905弄","geocoded_address":"上海市浦东新区浦东南路3905弄","date":1651420800000}},{"type":"Feature","geometry":{"type":"Point","coordinates":[121.500908,31.183204]},"properties":{"town":"浦东新区","published_address":"浦东南路4200弄","geocoded_address":"上海市浦东新区浦东南路4200弄","date":1651420800000}},{"type":"Feature","geometry":{"type":"Point","coordinates":[121.497432,31.180744]},"properties":{"town":"浦东新区","published_address":"浦东南路4800弄","geocoded_address":"上海市浦东新区浦东南路4800弄","date":1651420800000}},{"type":"Feature","geometry":{"type":"Point","coordinates":[121.518298,31.207376]},"properties":{"town":"浦东新区","published_address":"浦建路60弄","geocoded_address":"上海市浦东新区浦建路60弄","date":1651420800000}},{"type":"Feature","geometry":{"type":"Point","coordinates":[121.520303,31.210666]},"properties":{"town":"浦东新区","published_address":"浦建路83弄","geocoded_address":"上海市浦东新区浦建路83弄","date":1651420800000}},{"type":"Feature","geometry":{"type":"Point","coordinates":[121.510993,31.222428]},"properties":{"town":"浦东新区","published_address":"浦明路688弄","geocoded_address":"上海市浦东新区浦明路688弄","date":1651420800000}},{"type":"Feature","geometry":{"type":"Point","coordinates":[121.510577,31.196693]},"properties":{"town":"浦东新区","published_address":"浦三路12弄","geocoded_address":"上海市浦东新区浦三路12弄","date":1651420800000}},{"type":"Feature","geometry":{"type":"Point","coordinates":[121.520596,31.186721]},"properties":{"town":"浦东新区","published_address":"浦三路741弄","geocoded_address":"上海市浦东新区浦三路741弄","date":1651420800000}},{"type":"Feature","geometry":{"type":"Point","coordinates":[121.518627,31.18323]},"properties":{"town":"浦东新区","published_address":"浦三路786弄","geocoded_address":"上海市浦东新区浦三路786弄","date":1651420800000}},{"type":"Feature","geometry":{"type":"Point","coordinates":[121.564501,31.257189]},"properties":{"town":"浦东新区","published_address":"栖山路1489弄","geocoded_address":"上海市浦东新区栖山路1489弄","date":1651420800000}},{"type":"Feature","geometry":{"type":"Point","coordinates":[121.572311,31.262014]},"properties":{"town":"浦东新区","published_address":"栖山路1899弄","geocoded_address":"上海市浦东新区栖山路1899弄","date":1651420800000}},{"type":"Feature","geometry":{"type":"Point","coordinates":[121.549599,31.246675]},"properties":{"town":"浦东新区","published_address":"栖山路401弄","geocoded_address":"上海市浦东新区栖山路401弄","date":1651420800000}},{"type":"Feature","geometry":{"type":"Point","coordinates":[121.551792,31.24754]},"properties":{"town":"浦东新区","published_address":"栖山路450弄","geocoded_address":"上海市浦东新区栖山路450弄","date":1651420800000}},{"type":"Feature","geometry":{"type":"Point","coordinates":[121.398941,31.300546]},"properties":{"town":"浦东新区","published_address":"栖霞路190弄","geocoded_address":"上海市宝山区190弄","date":1651420800000}},{"type":"Feature","geometry":{"type":"Point","coordinates":[121.517731,31.236289]},"properties":{"town":"浦东新区","published_address":"栖霞路86号","geocoded_address":"上海市浦东新区栖霞路86号","date":1651420800000}},{"type":"Feature","geometry":{"type":"Point","coordinates":[121.49959,31.177465]},"properties":{"town":"浦东新区","published_address":"齐河路10弄","geocoded_address":"上海市浦东新区齐河路10弄","date":1651420800000}},{"type":"Feature","geometry":{"type":"Point","coordinates":[121.57221,31.343836]},"properties":{"town":"浦东新区","published_address":"清溪路260弄","geocoded_address":"上海市浦东新区清溪路260弄","date":1651420800000}},{"type":"Feature","geometry":{"type":"Point","coordinates":[121.572328,31.33978]},"properties":{"town":"浦东新区","published_address":"清溪路365弄","geocoded_address":"上海市浦东新区清溪路365弄","date":1651420800000}},{"type":"Feature","geometry":{"type":"Point","coordinates":[121.571166,31.340954]},"properties":{"town":"浦东新区","published_address":"清溪路400弄","geocoded_address":"上海市浦东新区清溪路400弄","date":1651420800000}},{"type":"Feature","geometry":{"type":"Point","coordinates":[121.457167,31.318325]},"properties":{"town":"浦东新区","published_address":"晴阁路700弄","geocoded_address":"上海市静安区700弄","date":1651420800000}},{"type":"Feature","geometry":{"type":"Point","coordinates":[121.520981,31.236217]},"properties":{"town":"浦东新区","published_address":"乳山路161弄","geocoded_address":"上海市浦东新区乳山路161弄","date":1651420800000}},{"type":"Feature","geometry":{"type":"Point","coordinates":[121.60105,31.09598]},"properties":{"town":"浦东新区","published_address":"瑞福路52弄","geocoded_address":"上海市浦东新区瑞福路52弄","date":1651420800000}},{"type":"Feature","geometry":{"type":"Point","coordinates":[121.585403,31.098711]},"properties":{"town":"浦东新区","published_address":"瑞浦路8弄","geocoded_address":"上海市浦东新区瑞浦路8弄","date":1651420800000}},{"type":"Feature","geometry":{"type":"Point","coordinates":[121.587536,31.095878]},"properties":{"town":"浦东新区","published_address":"瑞意路399弄","geocoded_address":"上海市浦东新区瑞意路399弄","date":1651420800000}},{"type":"Feature","geometry":{"type":"Point","coordinates":[121.497686,31.123664]},"properties":{"town":"浦东新区","published_address":"三彩路166弄","geocoded_address":"上海市浦东新区三彩路166弄","date":1651420800000}},{"type":"Feature","geometry":{"type":"Point","coordinates":[121.4973,31.12623]},"properties":{"town":"浦东新区","published_address":"三彩路52弄","geocoded_address":"上海市浦东新区三彩路52弄","date":1651420800000}},{"type":"Feature","geometry":{"type":"Point","coordinates":[121.498895,31.12659]},"properties":{"town":"浦东新区","published_address":"三彩路59弄","geocoded_address":"上海市浦东新区三彩路59弄","date":1651420800000}},{"type":"Feature","geometry":{"type":"Point","coordinates":[121.495888,31.135723]},"properties":{"town":"浦东新区","published_address":"三林路168号","geocoded_address":"上海市浦东新区三林路168号","date":1651420800000}},{"type":"Feature","geometry":{"type":"Point","coordinates":[121.496149,31.136356]},"properties":{"town":"浦东新区","published_address":"三林路184号","geocoded_address":"上海市浦东新区三林路184号","date":1651420800000}},{"type":"Feature","geometry":{"type":"Point","coordinates":[121.496178,31.138008]},"properties":{"town":"浦东新区","published_address":"三林路235号","geocoded_address":"上海市浦东新区三林路235号","date":1651420800000}},{"type":"Feature","geometry":{"type":"Point","coordinates":[121.507833,31.141449]},"properties":{"town":"浦东新区","published_address":"三林路788弄","geocoded_address":"上海市浦东新区三林路788弄","date":1651420800000}},{"type":"Feature","geometry":{"type":"Point","coordinates":[121.494355,31.134851]},"properties":{"town":"浦东新区","published_address":"三林路88弄","geocoded_address":"上海市浦东新区三林路88弄","date":1651420800000}},{"type":"Feature","geometry":{"type":"Point","coordinates":[121.518334,31.153024]},"properties":{"town":"浦东新区","published_address":"三林镇胡巷村金家宅","geocoded_address":"上海市浦东新区胡巷村","date":1651420800000}},{"type":"Feature","geometry":{"type":"Point","coordinates":[121.474476,31.11635]},"properties":{"town":"浦东新区","published_address":"三林镇临江村丁家队丁家宅","geocoded_address":"上海市浦东新区临江村","date":1651420800000}},{"type":"Feature","geometry":{"type":"Point","coordinates":[121.476483,31.123687]},"properties":{"town":"浦东新区","published_address":"三林镇临江村王家渡队王家渡","geocoded_address":"上海市浦东新区王家渡","date":1651420800000}},{"type":"Feature","geometry":{"type":"Point","coordinates":[121.511306,31.142869]},"properties":{"town":"浦东新区","published_address":"三林镇南阜村东汤队东汤家宅","geocoded_address":"上海市浦东新区南阜村东汤队东汤家宅","date":1651420800000}},{"type":"Feature","geometry":{"type":"Point","coordinates":[121.516933,31.127629]},"properties":{"town":"浦东新区","published_address":"三林镇南阜村瞿弄队瞿家里","geocoded_address":"上海市浦东新区队瞿家里","date":1651420800000}},{"type":"Feature","geometry":{"type":"Point","coordinates":[121.500622,31.135511]},"properties":{"town":"浦东新区","published_address":"三林镇三林村镇前队金家宅","geocoded_address":"上海市浦东新区三林村","date":1651420800000}},{"type":"Feature","geometry":{"type":"Point","coordinates":[121.520535,31.124679]},"properties":{"town":"浦东新区","published_address":"三林镇天花庵村北陈队大陈家宅","geocoded_address":"上海市浦东新区三林镇天花庵村北陈队大陈家宅","date":1651420800000}},{"type":"Feature","geometry":{"type":"Point","coordinates":[121.534302,31.122769]},"properties":{"town":"浦东新区","published_address":"三林镇天花庵村东瞿队大瞿家宅","geocoded_address":"上海市浦东新区天花庵村","date":1651420800000}},{"type":"Feature","geometry":{"type":"Point","coordinates":[121.526629,31.124134]},"properties":{"town":"浦东新区","published_address":"三林镇天花庵村芦家队芦家油车","geocoded_address":"上海市浦东新区芦家油车","date":1651420800000}},{"type":"Feature","geometry":{"type":"Point","coordinates":[121.533069,31.122657]},"properties":{"town":"浦东新区","published_address":"三林镇天花庵村闵北队闵家宅","geocoded_address":"上海市浦东新区闵北队闵家宅","date":1651420800000}},{"type":"Feature","geometry":{"type":"Point","coordinates":[121.523764,31.122456]},"properties":{"town":"浦东新区","published_address":"三林镇天花庵村南陈队大陈家宅","geocoded_address":"上海市浦东新区南陈队","date":1651420800000}},{"type":"Feature","geometry":{"type":"Point","coordinates":[121.534302,31.122769]},"properties":{"town":"浦东新区","published_address":"三林镇天花庵村南周家队大周家宅","geocoded_address":"上海市浦东新区天花庵村","date":1651420800000}},{"type":"Feature","geometry":{"type":"Point","coordinates":[121.496858,31.134131]},"properties":{"town":"浦东新区","published_address":"三林镇西林村圈门队西林街","geocoded_address":"上海市浦东新区西林街","date":1651420800000}},{"type":"Feature","geometry":{"type":"Point","coordinates":[121.496858,31.134131]},"properties":{"town":"浦东新区","published_address":"三林镇西林村万家队西林街","geocoded_address":"上海市浦东新区西林街","date":1651420800000}},{"type":"Feature","geometry":{"type":"Point","coordinates":[121.498825,31.134605]},"properties":{"town":"浦东新区","published_address":"三林镇西林村西林队金家宅","geocoded_address":"上海市浦东新区西林村西林队","date":1651420800000}},{"type":"Feature","geometry":{"type":"Point","coordinates":[121.496519,31.156377]},"properties":{"town":"浦东新区","published_address":"三林镇新任村","geocoded_address":"上海市浦东新区新任村","date":1651420800000}},{"type":"Feature","geometry":{"type":"Point","coordinates":[121.516307,31.120637]},"properties":{"town":"浦东新区","published_address":"三林镇懿德村康家队康家宅","geocoded_address":"上海市浦东新区懿德村康家队","date":1651420800000}},{"type":"Feature","geometry":{"type":"Point","coordinates":[121.340118,31.354697]},"properties":{"town":"浦东新区","published_address":"三林镇懿德村吴家队吴家宅","geocoded_address":"上海市宝山区吴家宅","date":1651420800000}},{"type":"Feature","geometry":{"type":"Point","coordinates":[121.509307,31.14134]},"properties":{"town":"浦东新区","published_address":"三林镇中林村三林桥队天打桥","geocoded_address":"上海市浦东新区天打桥","date":1651420800000}},{"type":"Feature","geometry":{"type":"Point","coordinates":[121.504908,31.12057]},"properties":{"town":"浦东新区","published_address":"三舒路288弄","geocoded_address":"上海市浦东新区三舒路288弄","date":1651420800000}},{"type":"Feature","geometry":{"type":"Point","coordinates":[121.50277,31.124817]},"properties":{"town":"浦东新区","published_address":"三舒路62弄","geocoded_address":"上海市浦东新区三舒路62弄","date":1651420800000}},{"type":"Feature","geometry":{"type":"Point","coordinates":[121.524285,31.234553]},"properties":{"town":"浦东新区","published_address":"商城路991弄","geocoded_address":"上海市浦东新区商城路991弄","date":1651420800000}},{"type":"Feature","geometry":{"type":"Point","coordinates":[121.646336,31.272696]},"properties":{"town":"浦东新区","published_address":"上川路538号","geocoded_address":"上海市浦东新区上川路538号","date":1651420800000}},{"type":"Feature","geometry":{"type":"Point","coordinates":[121.494039,31.174694]},"properties":{"town":"浦东新区","published_address":"上南路1000弄","geocoded_address":"上海市浦东新区上南路1000弄","date":1651420800000}},{"type":"Feature","geometry":{"type":"Point","coordinates":[121.497008,31.173428]},"properties":{"town":"浦东新区","published_address":"上南路1251弄","geocoded_address":"上海市浦东新区上南路1251弄","date":1651420800000}},{"type":"Feature","geometry":{"type":"Point","coordinates":[121.507075,31.160346]},"properties":{"town":"浦东新区","published_address":"上南路3339弄","geocoded_address":"上海市浦东新区上南路3339弄","date":1651420800000}},{"type":"Feature","geometry":{"type":"Point","coordinates":[121.506022,31.154312]},"properties":{"town":"浦东新区","published_address":"上南路3651弄","geocoded_address":"上海市浦东新区上南路3651弄","date":1651420800000}},{"type":"Feature","geometry":{"type":"Point","coordinates":[121.506756,31.151746]},"properties":{"town":"浦东新区","published_address":"上南路3827弄","geocoded_address":"上海市浦东新区上南路3827弄","date":1651420800000}},{"type":"Feature","geometry":{"type":"Point","coordinates":[121.502411,31.150862]},"properties":{"town":"浦东新区","published_address":"上南路3848弄","geocoded_address":"上海市浦东新区上南路3848弄","date":1651420800000}},{"type":"Feature","geometry":{"type":"Point","coordinates":[121.5127,31.146196]},"properties":{"town":"浦东新区","published_address":"上南路4185弄","geocoded_address":"上海市浦东新区上南路4185弄","date":1651420800000}},{"type":"Feature","geometry":{"type":"Point","coordinates":[121.510069,31.144629]},"properties":{"town":"浦东新区","published_address":"上南路4265弄","geocoded_address":"上海市浦东新区上南路4265弄","date":1651420800000}},{"type":"Feature","geometry":{"type":"Point","coordinates":[121.562722,31.120148]},"properties":{"town":"浦东新区","published_address":"上南路6733弄","geocoded_address":"上海市浦东新区上南路6733弄","date":1651420800000}},{"type":"Feature","geometry":{"type":"Point","coordinates":[121.574944,31.117541]},"properties":{"town":"浦东新区","published_address":"上南路7992弄","geocoded_address":"上海市浦东新区上南路7992弄","date":1651420800000}},{"type":"Feature","geometry":{"type":"Point","coordinates":[121.495932,31.176684]},"properties":{"town":"浦东新区","published_address":"上南路929弄","geocoded_address":"上海市浦东新区上南路929弄","date":1651420800000}},{"type":"Feature","geometry":{"type":"Point","coordinates":[121.49961,31.146004]},"properties":{"town":"浦东新区","published_address":"上浦路510弄","geocoded_address":"上海市浦东新区上浦路510弄","date":1651420800000}},{"type":"Feature","geometry":{"type":"Point","coordinates":[121.605796,31.169961]},"properties":{"town":"浦东新区","published_address":"盛荣路288弄","geocoded_address":"上海市浦东新区盛荣路288弄","date":1651420800000}},{"type":"Feature","geometry":{"type":"Point","coordinates":[121.534966,31.163185]},"properties":{"town":"浦东新区","published_address":"世博家园大道站路94弄","geocoded_address":"上海市浦东新区世博家园","date":1651420800000}},{"type":"Feature","geometry":{"type":"Point","coordinates":[121.583951,31.274435]},"properties":{"town":"浦东新区","published_address":"寿光路161弄","geocoded_address":"上海市浦东新区寿光路161弄","date":1651420800000}},{"type":"Feature","geometry":{"type":"Point","coordinates":[121.493161,31.159464]},"properties":{"town":"浦东新区","published_address":"思浦路13弄","geocoded_address":"上海市浦东新区思浦路13弄","date":1651420800000}},{"type":"Feature","geometry":{"type":"Point","coordinates":[121.493321,31.158339]},"properties":{"town":"浦东新区","published_address":"思浦路15弄","geocoded_address":"上海市浦东新区思浦路15弄","date":1651420800000}},{"type":"Feature","geometry":{"type":"Point","coordinates":[121.493238,31.158391]},"properties":{"town":"浦东新区","published_address":"思浦路17弄","geocoded_address":"上海市浦东新区思浦路17弄","date":1651420800000}},{"type":"Feature","geometry":{"type":"Point","coordinates":[121.53389,31.227189]},"properties":{"town":"浦东新区","published_address":"松林路283号","geocoded_address":"上海市浦东新区松林路283号","date":1651420800000}},{"type":"Feature","geometry":{"type":"Point","coordinates":[121.534167,31.226795]},"properties":{"town":"浦东新区","published_address":"松林路333弄","geocoded_address":"上海市浦东新区松林路333弄","date":1651420800000}},{"type":"Feature","geometry":{"type":"Point","coordinates":[121.653443,31.240686]},"properties":{"town":"浦东新区","published_address":"唐镇虹四村吴张家宅","geocoded_address":"上海市浦东新区虹四村吴张家宅","date":1651420800000}},{"type":"Feature","geometry":{"type":"Point","coordinates":[121.676163,31.218192]},"properties":{"town":"浦东新区","published_address":"唐镇暮二村小丁家宅","geocoded_address":"上海市浦东新区暮二村","date":1651420800000}},{"type":"Feature","geometry":{"type":"Point","coordinates":[121.639736,31.202485]},"properties":{"town":"浦东新区","published_address":"唐镇前进村顾家宅","geocoded_address":"上海市浦东新区前进村","date":1651420800000}},{"type":"Feature","geometry":{"type":"Point","coordinates":[121.639736,31.202485]},"properties":{"town":"浦东新区","published_address":"唐镇前进村西李家宅","geocoded_address":"上海市浦东新区前进村","date":1651420800000}},{"type":"Feature","geometry":{"type":"Point","coordinates":[121.646935,31.205135]},"properties":{"town":"浦东新区","published_address":"唐镇唐四村龚家宅","geocoded_address":"上海市浦东新区龚家宅","date":1651420800000}},{"type":"Feature","geometry":{"type":"Point","coordinates":[121.690746,31.23039]},"properties":{"town":"浦东新区","published_address":"唐镇小湾村小湾新村","geocoded_address":"上海市浦东新区小湾新村","date":1651420800000}},{"type":"Feature","geometry":{"type":"Point","coordinates":[121.690183,31.233793]},"properties":{"town":"浦东新区","published_address":"唐镇小湾村张家老宅","geocoded_address":"上海市浦东新区张家老宅","date":1651420800000}},{"type":"Feature","geometry":{"type":"Point","coordinates":[121.647724,31.244296]},"properties":{"town":"浦东新区","published_address":"唐镇新虹村刘家宅","geocoded_address":"上海市浦东新区唐镇新虹村刘家宅","date":1651420800000}},{"type":"Feature","geometry":{"type":"Point","coordinates":[121.657374,31.257982]},"properties":{"town":"浦东新区","published_address":"唐镇新虹村陆家宅","geocoded_address":"上海市浦东新区唐镇新虹村陆家宅","date":1651420800000}},{"type":"Feature","geometry":{"type":"Point","coordinates":[121.640767,31.235085]},"properties":{"town":"浦东新区","published_address":"唐镇新镇村谢家宅","geocoded_address":"上海市浦东新区新镇村","date":1651420800000}},{"type":"Feature","geometry":{"type":"Point","coordinates":[121.682249,31.243624]},"properties":{"town":"浦东新区","published_address":"唐镇一心村袁家宅","geocoded_address":"上海市浦东新区一心村","date":1651420800000}},{"type":"Feature","geometry":{"type":"Point","coordinates":[121.509563,31.202543]},"properties":{"town":"浦东新区","published_address":"塘南路159弄","geocoded_address":"上海市浦东新区塘南路159弄","date":1651420800000}},{"type":"Feature","geometry":{"type":"Point","coordinates":[121.537927,31.239501]},"properties":{"town":"浦东新区","published_address":"桃林路299弄","geocoded_address":"上海市浦东新区桃林路299弄","date":1651420800000}},{"type":"Feature","geometry":{"type":"Point","coordinates":[121.613833,31.297864]},"properties":{"town":"浦东新区","published_address":"万安街333弄","geocoded_address":"上海市浦东新区万安街333弄","date":1651420800000}},{"type":"Feature","geometry":{"type":"Point","coordinates":[121.557247,31.251172]},"properties":{"town":"浦东新区","published_address":"万德路45弄","geocoded_address":"上海市浦东新区万德路45弄","date":1651420800000}},{"type":"Feature","geometry":{"type":"Point","coordinates":[121.557254,31.248574]},"properties":{"town":"浦东新区","published_address":"万德路52弄","geocoded_address":"上海市浦东新区万德路52弄","date":1651420800000}},{"type":"Feature","geometry":{"type":"Point","coordinates":[121.816316,30.966153]},"properties":{"town":"浦东新区","published_address":"万和路118弄","geocoded_address":"上海市浦东新区万和路118弄","date":1651420800000}},{"type":"Feature","geometry":{"type":"Point","coordinates":[121.534792,31.228317]},"properties":{"town":"浦东新区","published_address":"潍坊路282号","geocoded_address":"上海市浦东新区潍坊路|282号楼","date":1651420800000}},{"type":"Feature","geometry":{"type":"Point","coordinates":[121.532051,31.22975]},"properties":{"town":"浦东新区","published_address":"潍坊路335弄","geocoded_address":"上海市浦东新区潍坊路335弄","date":1651420800000}},{"type":"Feature","geometry":{"type":"Point","coordinates":[121.532719,31.230197]},"properties":{"town":"浦东新区","published_address":"潍坊路355弄","geocoded_address":"上海市浦东新区潍坊路355弄","date":1651420800000}},{"type":"Feature","geometry":{"type":"Point","coordinates":[121.531411,31.228451]},"properties":{"town":"浦东新区","published_address":"潍坊路375弄","geocoded_address":"上海市浦东新区潍坊路375弄","date":1651420800000}},{"type":"Feature","geometry":{"type":"Point","coordinates":[121.524122,31.222867]},"properties":{"town":"浦东新区","published_address":"潍坊新村","geocoded_address":"上海市浦东新区潍坊新村","date":1651420800000}},{"type":"Feature","geometry":{"type":"Point","coordinates":[121.579356,31.275677]},"properties":{"town":"浦东新区","published_address":"五莲路100弄","geocoded_address":"上海市浦东新区五莲路100弄","date":1651420800000}},{"type":"Feature","geometry":{"type":"Point","coordinates":[121.594135,31.272572]},"properties":{"town":"浦东新区","published_address":"五莲路1047弄","geocoded_address":"上海市浦东新区五莲路1047弄","date":1651420800000}},{"type":"Feature","geometry":{"type":"Point","coordinates":[121.599772,31.281952]},"properties":{"town":"浦东新区","published_address":"五莲路108弄","geocoded_address":"上海市浦东新区五莲路","date":1651420800000}},{"type":"Feature","geometry":{"type":"Point","coordinates":[121.599881,31.282385]},"properties":{"town":"浦东新区","published_address":"五莲路1728弄","geocoded_address":"上海市浦东新区五莲路1728弄","date":1651420800000}},{"type":"Feature","geometry":{"type":"Point","coordinates":[121.595979,31.283189]},"properties":{"town":"浦东新区","published_address":"五莲路1769弄","geocoded_address":"上海市浦东新区五莲路1769弄","date":1651420800000}},{"type":"Feature","geometry":{"type":"Point","coordinates":[121.581744,31.274622]},"properties":{"town":"浦东新区","published_address":"五莲路201弄","geocoded_address":"上海市浦东新区五莲路201弄","date":1651420800000}},{"type":"Feature","geometry":{"type":"Point","coordinates":[121.577721,31.275463]},"properties":{"town":"浦东新区","published_address":"五莲路30弄","geocoded_address":"上海市浦东新区五莲路30弄","date":1651420800000}},{"type":"Feature","geometry":{"type":"Point","coordinates":[121.590356,31.270819]},"properties":{"town":"浦东新区","published_address":"五莲路759弄","geocoded_address":"上海市浦东新区五莲路759弄","date":1651420800000}},{"type":"Feature","geometry":{"type":"Point","coordinates":[121.562462,31.173931]},"properties":{"town":"浦东新区","published_address":"五星路151弄","geocoded_address":"上海市浦东新区五星路151弄","date":1651420800000}},{"type":"Feature","geometry":{"type":"Point","coordinates":[121.562322,31.174757]},"properties":{"town":"浦东新区","published_address":"五星路231弄","geocoded_address":"上海市浦东新区五星路231弄","date":1651420800000}},{"type":"Feature","geometry":{"type":"Point","coordinates":[121.56445,31.175563]},"properties":{"town":"浦东新区","published_address":"五星路239弄","geocoded_address":"上海市浦东新区五星路239弄","date":1651420800000}},{"type":"Feature","geometry":{"type":"Point","coordinates":[121.506384,31.199787]},"properties":{"town":"浦东新区","published_address":"西三里桥路9弄","geocoded_address":"上海市浦东新区西三里桥路9弄","date":1651420800000}},{"type":"Feature","geometry":{"type":"Point","coordinates":[121.698709,31.195552]},"properties":{"town":"浦东新区","published_address":"西市街175弄","geocoded_address":"上海市浦东新区西市街175弄","date":1651420800000}},{"type":"Feature","geometry":{"type":"Point","coordinates":[121.540061,31.142234]},"properties":{"town":"浦东新区","published_address":"西泰林路850弄","geocoded_address":"上海市浦东新区西泰林路850弄","date":1651420800000}},{"type":"Feature","geometry":{"type":"Point","coordinates":[121.539264,31.144254]},"properties":{"town":"浦东新区","published_address":"西泰林路901弄","geocoded_address":"上海市浦东新区西泰林路901弄","date":1651420800000}},{"type":"Feature","geometry":{"type":"Point","coordinates":[121.487789,31.16025]},"properties":{"town":"浦东新区","published_address":"西营南路18弄","geocoded_address":"上海市浦东新区西营南路18弄","date":1651420800000}},{"type":"Feature","geometry":{"type":"Point","coordinates":[121.487783,31.15899]},"properties":{"town":"浦东新区","published_address":"西营南路68弄","geocoded_address":"上海市浦东新区西营南路68弄","date":1651420800000}},{"type":"Feature","geometry":{"type":"Point","coordinates":[121.542803,31.168181]},"properties":{"town":"浦东新区","published_address":"下南路225弄","geocoded_address":"上海市浦东新区下南路225弄","date":1651420800000}},{"type":"Feature","geometry":{"type":"Point","coordinates":[121.54198,31.168428]},"properties":{"town":"浦东新区","published_address":"下南路276弄","geocoded_address":"上海市浦东新区下南路276弄","date":1651420800000}},{"type":"Feature","geometry":{"type":"Point","coordinates":[121.543241,31.169203]},"properties":{"town":"浦东新区","published_address":"下南路309弄","geocoded_address":"上海市浦东新区下南路309弄","date":1651420800000}},{"type":"Feature","geometry":{"type":"Point","coordinates":[121.540558,31.1687]},"properties":{"town":"浦东新区","published_address":"下南路320弄","geocoded_address":"上海市浦东新区下南路320弄","date":1651420800000}},{"type":"Feature","geometry":{"type":"Point","coordinates":[121.54262,31.169586]},"properties":{"town":"浦东新区","published_address":"下南路339弄","geocoded_address":"上海市浦东新区下南路339弄","date":1651420800000}},{"type":"Feature","geometry":{"type":"Point","coordinates":[121.540076,31.171781]},"properties":{"town":"浦东新区","published_address":"下南路474号","geocoded_address":"上海市浦东新区下南路474号","date":1651420800000}},{"type":"Feature","geometry":{"type":"Point","coordinates":[121.539027,31.172119]},"properties":{"town":"浦东新区","published_address":"下南路500弄","geocoded_address":"上海市浦东新区下南路500弄","date":1651420800000}},{"type":"Feature","geometry":{"type":"Point","coordinates":[121.541064,31.172333]},"properties":{"town":"浦东新区","published_address":"下南路501弄","geocoded_address":"上海市浦东新区下南路501弄","date":1651420800000}},{"type":"Feature","geometry":{"type":"Point","coordinates":[121.539605,31.172433]},"properties":{"town":"浦东新区","published_address":"下南路518弄","geocoded_address":"上海市浦东新区下南路518弄","date":1651420800000}},{"type":"Feature","geometry":{"type":"Point","coordinates":[121.538418,31.171248]},"properties":{"town":"浦东新区","published_address":"下南路526弄","geocoded_address":"上海市浦东新区下南路526弄","date":1651420800000}},{"type":"Feature","geometry":{"type":"Point","coordinates":[121.542023,31.173295]},"properties":{"town":"浦东新区","published_address":"下南路551弄","geocoded_address":"上海市浦东新区下南路551弄","date":1651420800000}},{"type":"Feature","geometry":{"type":"Point","coordinates":[121.695744,31.183477]},"properties":{"town":"浦东新区","published_address":"翔川路458弄","geocoded_address":"上海市浦东新区翔川路458弄","date":1651420800000}},{"type":"Feature","geometry":{"type":"Point","coordinates":[121.697792,31.197147]},"properties":{"town":"浦东新区","published_address":"新德路365弄","geocoded_address":"上海市浦东新区新德路365弄","date":1651420800000}},{"type":"Feature","geometry":{"type":"Point","coordinates":[121.685322,31.196018]},"properties":{"town":"浦东新区","published_address":"新德路908弄","geocoded_address":"上海市浦东新区新德路908弄","date":1651420800000}},{"type":"Feature","geometry":{"type":"Point","coordinates":[121.66763,31.190754]},"properties":{"town":"浦东新区","published_address":"新德西路508弄","geocoded_address":"上海市浦东新区新德西路508弄","date":1651420800000}},{"type":"Feature","geometry":{"type":"Point","coordinates":[121.598419,31.249619]},"properties":{"town":"浦东新区","published_address":"新金桥路230号","geocoded_address":"上海市浦东新区新金桥路|230","date":1651420800000}},{"type":"Feature","geometry":{"type":"Point","coordinates":[121.530726,31.169812]},"properties":{"town":"浦东新区","published_address":"新浦路629弄","geocoded_address":"上海市浦东新区新浦路629弄","date":1651420800000}},{"type":"Feature","geometry":{"type":"Point","coordinates":[121.815749,30.885558]},"properties":{"town":"浦东新区","published_address":"新元南路正茂路交界口工地生活区","geocoded_address":"上海市浦东新区新元南路正茂路","date":1651420800000}},{"type":"Feature","geometry":{"type":"Point","coordinates":[121.630162,31.317936]},"properties":{"town":"浦东新区","published_address":"新园路32弄","geocoded_address":"上海市浦东新区新园路32弄","date":1651420800000}},{"type":"Feature","geometry":{"type":"Point","coordinates":[121.582379,31.327875]},"properties":{"town":"浦东新区","published_address":"行南路1150弄","geocoded_address":"上海市浦东新区行南路1150弄","date":1651420800000}},{"type":"Feature","geometry":{"type":"Point","coordinates":[121.570764,31.142136]},"properties":{"town":"浦东新区","published_address":"秀康路958弄","geocoded_address":"上海市浦东新区秀康路958弄","date":1651420800000}},{"type":"Feature","geometry":{"type":"Point","coordinates":[121.58097,31.131121]},"properties":{"town":"浦东新区","published_address":"秀沿路1168弄","geocoded_address":"上海市浦东新区秀沿路1168弄","date":1651420800000}},{"type":"Feature","geometry":{"type":"Point","coordinates":[121.543577,31.132966]},"properties":{"town":"浦东新区","published_address":"秀沿路1弄","geocoded_address":"上海市浦东新区秀沿路1弄","date":1651420800000}},{"type":"Feature","geometry":{"type":"Point","coordinates":[121.605544,31.138634]},"properties":{"town":"浦东新区","published_address":"秀沿路2585弄","geocoded_address":"上海市浦东新区秀沿路2585弄","date":1651420800000}},{"type":"Feature","geometry":{"type":"Point","coordinates":[121.612972,31.13811]},"properties":{"town":"浦东新区","published_address":"秀沿路2875弄","geocoded_address":"上海市浦东新区秀沿路2875弄","date":1651420800000}},{"type":"Feature","geometry":{"type":"Point","coordinates":[121.53501,31.129753]},"properties":{"town":"浦东新区","published_address":"秀沿西路218弄","geocoded_address":"上海市浦东新区秀沿西路218弄","date":1651420800000}},{"type":"Feature","geometry":{"type":"Point","coordinates":[121.71221,31.063823]},"properties":{"town":"浦东新区","published_address":"宣桥镇光辉村","geocoded_address":"上海市浦东新区光辉村","date":1651420800000}},{"type":"Feature","geometry":{"type":"Point","coordinates":[121.724252,31.071137]},"properties":{"town":"浦东新区","published_address":"宣桥镇光明村金光","geocoded_address":"上海市浦东新区光明村金光","date":1651420800000}},{"type":"Feature","geometry":{"type":"Point","coordinates":[121.699339,31.061256]},"properties":{"town":"浦东新区","published_address":"宣桥镇季桥村蔡圈","geocoded_address":"上海市浦东新区季桥村","date":1651420800000}},{"type":"Feature","geometry":{"type":"Point","coordinates":[121.699643,31.01856]},"properties":{"town":"浦东新区","published_address":"宣桥镇宣桥村","geocoded_address":"上海市浦东新区宣桥村","date":1651420800000}},{"type":"Feature","geometry":{"type":"Point","coordinates":[121.703915,31.071786]},"properties":{"town":"浦东新区","published_address":"宣桥镇腰路村","geocoded_address":"上海市浦东新区腰路村","date":1651420800000}},{"type":"Feature","geometry":{"type":"Point","coordinates":[121.690956,31.038069]},"properties":{"town":"浦东新区","published_address":"宣桥镇张家桥村胡桥","geocoded_address":"上海市浦东新区张家桥村胡桥","date":1651420800000}},{"type":"Feature","geometry":{"type":"Point","coordinates":[121.584003,31.346464]},"properties":{"town":"浦东新区","published_address":"学前二村","geocoded_address":"上海市浦东新区学前二村","date":1651420800000}},{"type":"Feature","geometry":{"type":"Point","coordinates":[121.496995,31.182586]},"properties":{"town":"浦东新区","published_address":"雪野路34弄","geocoded_address":"上海市浦东新区雪野路34弄","date":1651420800000}},{"type":"Feature","geometry":{"type":"Point","coordinates":[121.526912,31.192854]},"properties":{"town":"浦东新区","published_address":"严杨路30弄","geocoded_address":"上海市浦东新区严杨路30弄","date":1651420800000}},{"type":"Feature","geometry":{"type":"Point","coordinates":[121.530758,31.193408]},"properties":{"town":"浦东新区","published_address":"严中路140弄","geocoded_address":"上海市浦东新区严中路140弄","date":1651420800000}},{"type":"Feature","geometry":{"type":"Point","coordinates":[121.530852,31.194902]},"properties":{"town":"浦东新区","published_address":"严中路47弄","geocoded_address":"上海市浦东新区严中路47弄","date":1651420800000}},{"type":"Feature","geometry":{"type":"Point","coordinates":[121.529611,31.204656]},"properties":{"town":"浦东新区","published_address":"杨高南路1218弄","geocoded_address":"上海市浦东新区杨高南路1218弄","date":1651420800000}},{"type":"Feature","geometry":{"type":"Point","coordinates":[121.521437,31.191683]},"properties":{"town":"浦东新区","published_address":"杨高南路2030弄","geocoded_address":"上海市浦东新区杨高南路2030弄","date":1651420800000}},{"type":"Feature","geometry":{"type":"Point","coordinates":[121.522747,31.189816]},"properties":{"town":"浦东新区","published_address":"杨高南路2140弄","geocoded_address":"上海市浦东新区杨高南路2140弄","date":1651420800000}},{"type":"Feature","geometry":{"type":"Point","coordinates":[121.54994,31.16502]},"properties":{"town":"浦东新区","published_address":"杨莲路310弄","geocoded_address":"上海市浦东新区杨莲路","date":1651420800000}},{"type":"Feature","geometry":{"type":"Point","coordinates":[121.517847,31.15766]},"properties":{"town":"浦东新区","published_address":"杨南路1899弄","geocoded_address":"上海市浦东新区杨南路1899弄","date":1651420800000}},{"type":"Feature","geometry":{"type":"Point","coordinates":[121.500393,31.150715]},"properties":{"town":"浦东新区","published_address":"杨南路694弄","geocoded_address":"上海市浦东新区杨南路694弄","date":1651420800000}},{"type":"Feature","geometry":{"type":"Point","coordinates":[121.492813,31.163857]},"properties":{"town":"浦东新区","published_address":"杨思北街118弄","geocoded_address":"上海市浦东新区杨思北街","date":1651420800000}},{"type":"Feature","geometry":{"type":"Point","coordinates":[121.494358,31.159647]},"properties":{"town":"浦东新区","published_address":"杨思路430弄","geocoded_address":"上海市浦东新区杨思路430弄","date":1651420800000}},{"type":"Feature","geometry":{"type":"Point","coordinates":[121.493686,31.160121]},"properties":{"town":"浦东新区","published_address":"杨思路436弄","geocoded_address":"上海市浦东新区杨思路436弄","date":1651420800000}},{"type":"Feature","geometry":{"type":"Point","coordinates":[121.498516,31.164818]},"properties":{"town":"浦东新区","published_address":"杨思路855弄","geocoded_address":"上海市浦东新区杨思路855弄","date":1651420800000}},{"type":"Feature","geometry":{"type":"Point","coordinates":[121.495364,31.163509]},"properties":{"town":"浦东新区","published_address":"杨思新村","geocoded_address":"上海市浦东新区杨思新村","date":1651420800000}},{"type":"Feature","geometry":{"type":"Point","coordinates":[121.492209,31.162979]},"properties":{"town":"浦东新区","published_address":"杨新路197弄","geocoded_address":"上海市浦东新区杨新路197弄","date":1651420800000}},{"type":"Feature","geometry":{"type":"Point","coordinates":[121.492194,31.163562]},"properties":{"town":"浦东新区","published_address":"杨新路198弄","geocoded_address":"上海市浦东新区杨新路198弄","date":1651420800000}},{"type":"Feature","geometry":{"type":"Point","coordinates":[121.496305,31.164845]},"properties":{"town":"浦东新区","published_address":"杨新路20弄","geocoded_address":"上海市浦东新区杨新路20弄","date":1651420800000}},{"type":"Feature","geometry":{"type":"Point","coordinates":[121.487514,31.162058]},"properties":{"town":"浦东新区","published_address":"杨新路282弄","geocoded_address":"上海市浦东新区杨新路282弄","date":1651420800000}},{"type":"Feature","geometry":{"type":"Point","coordinates":[121.550338,31.241762]},"properties":{"town":"浦东新区","published_address":"洋泾镇路89弄","geocoded_address":"上海市浦东新区洋泾镇路89弄","date":1651420800000}},{"type":"Feature","geometry":{"type":"Point","coordinates":[121.485649,31.176132]},"properties":{"town":"浦东新区","published_address":"耀华路331弄","geocoded_address":"上海市浦东新区耀华路331弄","date":1651420800000}},{"type":"Feature","geometry":{"type":"Point","coordinates":[121.485732,31.173158]},"properties":{"town":"浦东新区","published_address":"耀华路414弄","geocoded_address":"上海市浦东新区耀华路414弄","date":1651420800000}},{"type":"Feature","geometry":{"type":"Point","coordinates":[121.481458,31.17104]},"properties":{"town":"浦东新区","published_address":"耀华路550弄","geocoded_address":"上海市浦东新区耀华路550弄","date":1651420800000}},{"type":"Feature","geometry":{"type":"Point","coordinates":[121.48087,31.171399]},"properties":{"town":"浦东新区","published_address":"耀华路560号","geocoded_address":"上海市浦东新区耀华路560-580号","date":1651420800000}},{"type":"Feature","geometry":{"type":"Point","coordinates":[121.474542,31.171456]},"properties":{"town":"浦东新区","published_address":"耀元路228弄","geocoded_address":"上海市浦东新区耀元路","date":1651420800000}},{"type":"Feature","geometry":{"type":"Point","coordinates":[121.622906,31.200952]},"properties":{"town":"浦东新区","published_address":"益丰路55弄","geocoded_address":"上海市浦东新区益丰路55弄","date":1651420800000}},{"type":"Feature","geometry":{"type":"Point","coordinates":[121.635976,31.205075]},"properties":{"town":"浦东新区","published_address":"银冬路568号生活区","geocoded_address":"上海市浦东新区银冬路568号","date":1651420800000}},{"type":"Feature","geometry":{"type":"Point","coordinates":[121.558883,31.206094]},"properties":{"town":"浦东新区","published_address":"樱花路802弄","geocoded_address":"上海市浦东新区樱花路802弄","date":1651420800000}},{"type":"Feature","geometry":{"type":"Point","coordinates":[121.527719,31.144104]},"properties":{"town":"浦东新区","published_address":"永泰路1299弄","geocoded_address":"上海市浦东新区永泰路1299弄","date":1651420800000}},{"type":"Feature","geometry":{"type":"Point","coordinates":[121.504261,31.134527]},"properties":{"town":"浦东新区","published_address":"永泰路136弄","geocoded_address":"上海市浦东新区永泰路136弄","date":1651420800000}},{"type":"Feature","geometry":{"type":"Point","coordinates":[121.507481,31.135875]},"properties":{"town":"浦东新区","published_address":"永泰路182号","geocoded_address":"上海市浦东新区永泰路182号","date":1651420800000}},{"type":"Feature","geometry":{"type":"Point","coordinates":[121.543245,31.144813]},"properties":{"town":"浦东新区","published_address":"永泰路1960弄","geocoded_address":"上海市浦东新区永泰路1960弄","date":1651420800000}},{"type":"Feature","geometry":{"type":"Point","coordinates":[121.512378,31.13631]},"properties":{"town":"浦东新区","published_address":"永泰路468弄","geocoded_address":"上海市浦东新区永泰路468弄","date":1651420800000}},{"type":"Feature","geometry":{"type":"Point","coordinates":[121.501827,31.135647]},"properties":{"town":"浦东新区","published_address":"永泰路59弄","geocoded_address":"上海市浦东新区永泰路59弄","date":1651420800000}},{"type":"Feature","geometry":{"type":"Point","coordinates":[121.517714,31.137685]},"properties":{"town":"浦东新区","published_address":"永泰路630弄","geocoded_address":"上海市浦东新区永泰路630弄","date":1651420800000}},{"type":"Feature","geometry":{"type":"Point","coordinates":[121.49509,31.1627]},"properties":{"town":"浦东新区","published_address":"玉泉街77弄","geocoded_address":"上海市浦东新区玉泉街77弄","date":1651420800000}},{"type":"Feature","geometry":{"type":"Point","coordinates":[121.58188,31.154037]},"properties":{"town":"浦东新区","published_address":"御衡路68弄","geocoded_address":"上海市浦东新区御衡路68弄","date":1651420800000}},{"type":"Feature","geometry":{"type":"Point","coordinates":[121.57124,31.157807]},"properties":{"town":"浦东新区","published_address":"御青路260弄","geocoded_address":"上海市浦东新区御青路260弄","date":1651420800000}},{"type":"Feature","geometry":{"type":"Point","coordinates":[121.634392,31.317354]},"properties":{"town":"浦东新区","published_address":"园二路299弄","geocoded_address":"上海市浦东新区园二路299弄","date":1651420800000}},{"type":"Feature","geometry":{"type":"Point","coordinates":[121.534438,31.231155]},"properties":{"town":"浦东新区","published_address":"源深路600弄","geocoded_address":"上海市浦东新区源深路600弄","date":1651420800000}},{"type":"Feature","geometry":{"type":"Point","coordinates":[121.572141,31.24893]},"properties":{"town":"浦东新区","published_address":"云山路1050弄","geocoded_address":"上海市浦东新区云山路1050弄","date":1651420800000}},{"type":"Feature","geometry":{"type":"Point","coordinates":[121.572749,31.251187]},"properties":{"town":"浦东新区","published_address":"云山路999弄","geocoded_address":"上海市浦东新区云山路999弄","date":1651420800000}},{"type":"Feature","geometry":{"type":"Point","coordinates":[121.50452,31.179508]},"properties":{"town":"浦东新区","published_address":"云台路183弄","geocoded_address":"上海市浦东新区云台路183弄","date":1651420800000}},{"type":"Feature","geometry":{"type":"Point","coordinates":[121.717499,31.181877]},"properties":{"town":"浦东新区","published_address":"运盐河路1255弄","geocoded_address":"上海市浦东新区运盐河路1255弄","date":1651420800000}},{"type":"Feature","geometry":{"type":"Point","coordinates":[121.587729,31.102623]},"properties":{"town":"浦东新区","published_address":"韵涛路36弄","geocoded_address":"上海市浦东新区韵涛路36弄","date":1651420800000}},{"type":"Feature","geometry":{"type":"Point","coordinates":[121.57084,31.25807]},"properties":{"town":"浦东新区","published_address":"枣庄路210弄","geocoded_address":"上海市浦东新区枣庄路210弄","date":1651420800000}},{"type":"Feature","geometry":{"type":"Point","coordinates":[121.578853,31.251229]},"properties":{"town":"浦东新区","published_address":"枣庄路552弄","geocoded_address":"上海市浦东新区枣庄路552弄","date":1651420800000}},{"type":"Feature","geometry":{"type":"Point","coordinates":[121.578163,31.25059]},"properties":{"town":"浦东新区","published_address":"枣庄路658弄","geocoded_address":"上海市浦东新区枣庄路658弄","date":1651420800000}},{"type":"Feature","geometry":{"type":"Point","coordinates":[121.608024,31.157539]},"properties":{"town":"浦东新区","published_address":"张江镇韩荡村汤家宅","geocoded_address":"上海市浦东新区韩荡村","date":1651420800000}},{"type":"Feature","geometry":{"type":"Point","coordinates":[121.643296,31.174374]},"properties":{"town":"浦东新区","published_address":"张江镇环东中心村桥弄严家宅","geocoded_address":"上海市浦东新区张江镇环东村中心村","date":1651420800000}},{"type":"Feature","geometry":{"type":"Point","coordinates":[121.627918,31.174069]},"properties":{"town":"浦东新区","published_address":"张江镇劳动村孙家宅西","geocoded_address":"上海市浦东新区张江镇劳动村孙家宅西","date":1651420800000}},{"type":"Feature","geometry":{"type":"Point","coordinates":[121.631428,31.16961]},"properties":{"town":"浦东新区","published_address":"张江镇沔北村诸家宅南","geocoded_address":"上海市浦东新区沔北村","date":1651420800000}},{"type":"Feature","geometry":{"type":"Point","coordinates":[121.601318,31.155597]},"properties":{"town":"浦东新区","published_address":"张江镇钱堂村立达宅","geocoded_address":"上海市浦东新区立达宅","date":1651420800000}},{"type":"Feature","geometry":{"type":"Point","coordinates":[121.630499,31.183664]},"properties":{"town":"浦东新区","published_address":"张江镇中心村安乐宅","geocoded_address":"上海市浦东新区安乐宅","date":1651420800000}},{"type":"Feature","geometry":{"type":"Point","coordinates":[121.64013,31.171756]},"properties":{"town":"浦东新区","published_address":"张江镇中心村蔡家圈宅","geocoded_address":"上海市浦东新区中心村蔡家圈","date":1651420800000}},{"type":"Feature","geometry":{"type":"Point","coordinates":[121.631647,31.179955]},"properties":{"town":"浦东新区","published_address":"张江镇中心村吴家宅","geocoded_address":"上海市浦东新区吴家宅","date":1651420800000}},{"type":"Feature","geometry":{"type":"Point","coordinates":[121.588029,31.308144]},"properties":{"town":"浦东新区","published_address":"张杨北路2899弄","geocoded_address":"上海市浦东新区张杨北路2899弄","date":1651420800000}},{"type":"Feature","geometry":{"type":"Point","coordinates":[121.587183,31.267079]},"properties":{"town":"浦东新区","published_address":"张杨北路555弄","geocoded_address":"上海市浦东新区张杨北路555弄","date":1651420800000}},{"type":"Feature","geometry":{"type":"Point","coordinates":[121.590564,31.267341]},"properties":{"town":"浦东新区","published_address":"张杨北路588弄","geocoded_address":"上海市浦东新区张杨北路588弄","date":1651420800000}},{"type":"Feature","geometry":{"type":"Point","coordinates":[121.535722,31.23549]},"properties":{"town":"浦东新区","published_address":"张杨路1515弄","geocoded_address":"上海市浦东新区张杨路1515弄","date":1651420800000}},{"type":"Feature","geometry":{"type":"Point","coordinates":[121.542981,31.236932]},"properties":{"town":"浦东新区","published_address":"张杨路1673弄","geocoded_address":"上海市浦东新区张杨路1673弄","date":1651420800000}},{"type":"Feature","geometry":{"type":"Point","coordinates":[121.554673,31.239726]},"properties":{"town":"浦东新区","published_address":"张杨路2100弄","geocoded_address":"上海市浦东新区张杨路2100弄","date":1651420800000}},{"type":"Feature","geometry":{"type":"Point","coordinates":[121.513359,31.224876]},"properties":{"town":"浦东新区","published_address":"张杨路310弄","geocoded_address":"上海市浦东新区张杨路310弄","date":1651420800000}},{"type":"Feature","geometry":{"type":"Point","coordinates":[121.629965,31.311933]},"properties":{"town":"浦东新区","published_address":"赵高公路958号","geocoded_address":"上海市浦东新区赵高公路958号","date":1651420800000}},{"type":"Feature","geometry":{"type":"Point","coordinates":[121.577611,31.117698]},"properties":{"town":"浦东新区","published_address":"中大街134弄","geocoded_address":"上海市浦东新区中大街134弄","date":1651420800000}},{"type":"Feature","geometry":{"type":"Point","coordinates":[121.584184,31.118876]},"properties":{"town":"浦东新区","published_address":"周东路599弄","geocoded_address":"上海市浦东新区周东路599弄","date":1651420800000}},