{"2022-06-14":{"type":"FeatureCollection","features":[{"type":"Feature","geometry":{"type":"Point","coordinates":[121.760184,31.047909]},"properties":{"town":"浦东新区","published_address":"惠南镇三八新村","geocoded_address":"上海市浦东新区三八新村","date":1655136000000}},{"type":"Feature","geometry":{"type":"Point","coordinates":[121.518298,31.207376]},"properties":{"town":"浦东新区","published_address":"塘桥街道浦建路60弄","geocoded_address":"上海市浦东新区塘桥街道浦建路60弄","date":1655136000000}},{"type":"Feature","geometry":{"type":"Point","coordinates":[121.452199,31.261045]},"properties":{"town":"静安区","published_address":"谈家桥路80弄","geocoded_address":"上海市静安区谈家桥路80弄","date":1655136000000}},{"type":"Feature","geometry":{"type":"Point","coordinates":[121.456371,31.219767]},"properties":{"town":"徐汇区","published_address":"长乐路335号","geocoded_address":"上海市黄浦区长乐路|335","date":1655136000000}},{"type":"Feature","geometry":{"type":"Point","coordinates":[121.43015,31.131027]},"properties":{"town":"徐汇区","published_address":"罗秀路930弄","geocoded_address":"上海市徐汇区罗秀路930弄","date":1655136000000}},{"type":"Feature","geometry":{"type":"Point","coordinates":[121.443233,31.193019]},"properties":{"town":"徐汇区","published_address":"辛耕路100弄","geocoded_address":"上海市徐汇区辛耕路100弄","date":1655136000000}},{"type":"Feature","geometry":{"type":"Point","coordinates":[121.46262,31.197792]},"properties":{"town":"徐汇区","published_address":"斜土路1358弄","geocoded_address":"上海市徐汇区斜土路1358弄","date":1655136000000}},{"type":"Feature","geometry":{"type":"Point","coordinates":[121.456013,31.217993]},"properties":{"town":"徐汇区","published_address":"新乐路68号","geocoded_address":"上海市徐汇区新乐路|68","date":1655136000000}},{"type":"Feature","geometry":{"type":"Point","coordinates":[121.473635,31.288799]},"properties":{"town":"虹口区","published_address":"汶水东路690弄","geocoded_address":"上海市虹口区汶水东路690弄","date":1655136000000}},{"type":"Feature","geometry":{"type":"Point","coordinates":[121.489644,31.291622]},"properties":{"town":"虹口区","published_address":"中山北一路1250号","geocoded_address":"上海市虹口区中山北一路1250号","date":1655136000000}},{"type":"Feature","geometry":{"type":"Point","coordinates":[121.41811,31.240259]},"properties":{"town":"普陀区","published_address":"中山北路2900号","geocoded_address":"上海市普陀区中山北路2900号","date":1655136000000}},{"type":"Feature","geometry":{"type":"Point","coordinates":[121.509315,31.276859]},"properties":{"town":"杨浦区","published_address":"抚顺路393弄","geocoded_address":"上海市杨浦区抚顺路393弄","date":1655136000000}},{"type":"Feature","geometry":{"type":"Point","coordinates":[121.51196,31.261349]},"properties":{"town":"杨浦区","published_address":"唐山路1018号","geocoded_address":"上海市杨浦区唐山路1018号","date":1655136000000}},{"type":"Feature","geometry":{"type":"Point","coordinates":[121.51983,31.27262]},"properties":{"town":"杨浦区","published_address":"江浦路1380号","geocoded_address":"上海市杨浦区江浦路1380号","date":1655136000000}},{"type":"Feature","geometry":{"type":"Point","coordinates":[121.51562,31.271591]},"properties":{"town":"杨浦区","published_address":"双辽支路70弄双辽新村","geocoded_address":"上海市杨浦区双辽新村","date":1655136000000}},{"type":"Feature","geometry":{"type":"Point","coordinates":[121.437568,31.371166]},"properties":{"town":"宝山区","published_address":"宝杨路3288弄","geocoded_address":"上海市宝山区宝杨路3288弄","date":1655136000000}},{"type":"Feature","geometry":{"type":"Point","coordinates":[121.493176,31.31708]},"properties":{"town":"宝山区","published_address":"吉浦路615弄","geocoded_address":"上海市宝山区吉浦路615弄","date":1655136000000}},{"type":"Feature","geometry":{"type":"Point","coordinates":[121.36836,31.353247]},"properties":{"town":"宝山区","published_address":"陆翔路678弄","geocoded_address":"上海市宝山区陆翔路678弄","date":1655136000000}},{"type":"Feature","geometry":{"type":"Point","coordinates":[121.473821,31.320973]},"properties":{"town":"宝山区","published_address":"殷高西路319","geocoded_address":"上海市宝山区殷高西路319号","date":1655136000000}},{"type":"Feature","geometry":{"type":"Point","coordinates":[121.45396,31.336364]},"properties":{"town":"宝山区","published_address":"淞南镇长江西路855号","geocoded_address":"上海市宝山区长江西路","date":1655136000000}},{"type":"Feature","geometry":{"type":"Point","coordinates":[121.495268,31.37249]},"properties":{"town":"宝山区","published_address":"淞滨路318号","geocoded_address":"上海市宝山区淞滨路318号","date":1655136000000}},{"type":"Feature","geometry":{"type":"Point","coordinates":[121.458171,31.348583]},"properties":{"town":"宝山区","published_address":"江杨南路2500弄智慧大厦","geocoded_address":"上海市宝山区智慧大厦","date":1655136000000}},{"type":"Feature","geometry":{"type":"Point","coordinates":[121.480265,31.337869]},"properties":{"town":"宝山区","published_address":"长江南路651号","geocoded_address":"上海市宝山区长江南路651w1号","date":1655136000000}},{"type":"Feature","geometry":{"type":"Point","coordinates":[121.25749,31.063207]},"properties":{"town":"松江区","published_address":"茸惠路1199弄36号楼7-8号联鸣生鲜超市","geocoded_address":"上海市松江区茸惠路1199弄|36栋","date":1655136000000}},{"type":"Feature","geometry":{"type":"Point","coordinates":[121.257333,31.064177]},"properties":{"town":"松江区","published_address":"茸惠路1199弄1078号","geocoded_address":"上海市松江区茸惠路1199弄","date":1655136000000}}]},"2022-06-13":{"type":"FeatureCollection","features":[{"type":"Feature","geometry":{"type":"Point","coordinates":[121.568515,31.338025]},"properties":{"town":"浦东新区","published_address":"高桥镇南塘村龚家宅","geocoded_address":"上海市浦东新区高桥镇南塘村龚家宅","date":1655049600000}},{"type":"Feature","geometry":{"type":"Point","coordinates":[121.760184,31.047909]},"properties":{"town":"浦东新区","published_address":"惠南镇三八新村","geocoded_address":"上海市浦东新区三八新村","date":1655049600000}},{"type":"Feature","geometry":{"type":"Point","coordinates":[121.460996,31.257098]},"properties":{"town":"静安区","published_address":"芷江西路270弄","geocoded_address":"上海市静安区芷江西路270弄","date":1655049600000}},{"type":"Feature","geometry":{"type":"Point","coordinates":[121.456441,31.247036]},"properties":{"town":"静安区","published_address":"梅园路360号","geocoded_address":"上海市静安区梅园路360号","date":1655049600000}},{"type":"Feature","geometry":{"type":"Point","coordinates":[121.456371,31.219767]},"properties":{"town":"徐汇区","published_address":"长乐路335号","geocoded_address":"上海市黄浦区长乐路|335","date":1655049600000}},{"type":"Feature","geometry":{"type":"Point","coordinates":[121.456073,31.219723]},"properties":{"town":"徐汇区","published_address":"长乐路337号","geocoded_address":"上海市黄浦区长乐路|337","date":1655049600000}},{"type":"Feature","geometry":{"type":"Point","coordinates":[121.455921,31.219072]},"properties":{"town":"徐汇区","published_address":"长乐路339弄","geocoded_address":"上海市徐汇区长乐路339弄","date":1655049600000}},{"type":"Feature","geometry":{"type":"Point","coordinates":[121.415068,31.179343]},"properties":{"town":"徐汇区","published_address":"桂林路585号","geocoded_address":"上海市徐汇区桂林路|585","date":1655049600000}},{"type":"Feature","geometry":{"type":"Point","coordinates":[121.434441,31.149614]},"properties":{"town":"徐汇区","published_address":"罗城路700弄","geocoded_address":"上海市徐汇区罗城路700弄","date":1655049600000}},{"type":"Feature","geometry":{"type":"Point","coordinates":[121.432289,31.196931]},"properties":{"town":"徐汇区","published_address":"乐山路10弄","geocoded_address":"上海市徐汇区乐山路10弄","date":1655049600000}},{"type":"Feature","geometry":{"type":"Point","coordinates":[121.41758,31.13574]},"properties":{"town":"徐汇区","published_address":"梅陇三村","geocoded_address":"上海市徐汇区梅陇三村","date":1655049600000}},{"type":"Feature","geometry":{"type":"Point","coordinates":[121.421361,31.136436]},"properties":{"town":"徐汇区","published_address":"梅陇四村","geocoded_address":"上海市徐汇区梅陇四村","date":1655049600000}},{"type":"Feature","geometry":{"type":"Point","coordinates":[121.457729,31.219116]},"properties":{"town":"徐汇区","published_address":"陕西南路186弄","geocoded_address":"上海市徐汇区陕西南路186弄","date":1655049600000}},{"type":"Feature","geometry":{"type":"Point","coordinates":[121.457922,31.219094]},"properties":{"town":"徐汇区","published_address":"陕西南路188弄","geocoded_address":"上海市徐汇区陕西南路188弄","date":1655049600000}},{"type":"Feature","geometry":{"type":"Point","coordinates":[121.473635,31.288799]},"properties":{"town":"虹口区","published_address":"汶水东路690弄","geocoded_address":"上海市虹口区汶水东路690弄","date":1655049600000}},{"type":"Feature","geometry":{"type":"Point","coordinates":[121.482766,31.296881]},"properties":{"town":"虹口区","published_address":"车站北路24弄","geocoded_address":"上海市虹口区车站北路24弄","date":1655049600000}},{"type":"Feature","geometry":{"type":"Point","coordinates":[121.49582,31.27623]},"properties":{"town":"虹口区","published_address":"大连西路165弄","geocoded_address":"上海市虹口区大连西路165弄","date":1655049600000}},{"type":"Feature","geometry":{"type":"Point","coordinates":[121.521731,31.318687]},"properties":{"town":"杨浦区","published_address":"国和路888弄","geocoded_address":"上海市杨浦区国和路888弄","date":1655049600000}},{"type":"Feature","geometry":{"type":"Point","coordinates":[121.536468,31.290018]},"properties":{"town":"杨浦区","published_address":"延吉六村","geocoded_address":"上海市杨浦区延吉六村","date":1655049600000}},{"type":"Feature","geometry":{"type":"Point","coordinates":[121.478852,31.342852]},"properties":{"town":"宝山区","published_address":"郁江巷路129弄","geocoded_address":"上海市宝山区郁江巷路129弄","date":1655049600000}},{"type":"Feature","geometry":{"type":"Point","coordinates":[121.352612,31.343344]},"properties":{"town":"宝山区","published_address":"菊联路262弄","geocoded_address":"上海市宝山区菊联路262弄","date":1655049600000}},{"type":"Feature","geometry":{"type":"Point","coordinates":[121.434278,31.404287]},"properties":{"town":"宝山区","published_address":"绥化路52弄","geocoded_address":"上海市宝山区绥化路52弄","date":1655049600000}},{"type":"Feature","geometry":{"type":"Point","coordinates":[121.423239,31.416791]},"properties":{"town":"宝山区","published_address":"月浦七村","geocoded_address":"上海市宝山区月浦七村","date":1655049600000}},{"type":"Feature","geometry":{"type":"Point","coordinates":[121.368617,31.349034]},"properties":{"town":"宝山区","published_address":"菊联路54号","geocoded_address":"上海市宝山区菊联路54号","date":1655049600000}},{"type":"Feature","geometry":{"type":"Point","coordinates":[121.367981,31.34871]},"properties":{"town":"宝山区","published_address":"菊联路74号","geocoded_address":"上海市宝山区菊联路74号","date":1655049600000}},{"type":"Feature","geometry":{"type":"Point","coordinates":[121.365942,31.347369]},"properties":{"town":"宝山区","published_address":"菊联路163号","geocoded_address":"上海市宝山区菊联路|163","date":1655049600000}},{"type":"Feature","geometry":{"type":"Point","coordinates":[121.365786,31.34716]},"properties":{"town":"宝山区","published_address":"菊联路169号","geocoded_address":"上海市宝山区菊联路169号","date":1655049600000}},{"type":"Feature","geometry":{"type":"Point","coordinates":[121.364025,31.346535]},"properties":{"town":"宝山区","published_address":"菊联路225号","geocoded_address":"上海市宝山区菊联路225号","date":1655049600000}},{"type":"Feature","geometry":{"type":"Point","coordinates":[121.375612,31.119024]},"properties":{"town":"闵行区","published_address":"报春路863弄","geocoded_address":"上海市闵行区报春路863弄","date":1655049600000}},{"type":"Feature","geometry":{"type":"Point","coordinates":[121.40885,31.141462]},"properties":{"town":"闵行区","published_address":"平阳路59弄","geocoded_address":"上海市闵行区平阳路59弄","date":1655049600000}},{"type":"Feature","geometry":{"type":"Point","coordinates":[121.42122,31.11816]},"properties":{"town":"闵行区","published_address":"普乐路665弄","geocoded_address":"上海市闵行区普乐路665弄","date":1655049600000}},{"type":"Feature","geometry":{"type":"Point","coordinates":[121.549573,31.038985]},"properties":{"town":"闵行区","published_address":"新风村","geocoded_address":"上海市闵行区新风村","date":1655049600000}},{"type":"Feature","geometry":{"type":"Point","coordinates":[121.088689,30.989699]},"properties":{"town":"青浦区","published_address":"芦潼村芦花自然村","geocoded_address":"上海市青浦区芦潼村","date":1655049600000}},{"type":"Feature","geometry":{"type":"Point","coordinates":[121.225806,31.812106]},"properties":{"town":"崇明区","published_address":"跃进新村","geocoded_address":"上海市崇明区跃进新村","date":1655049600000}}]},"2022-06-12":{"type":"FeatureCollection","features":[{"type":"Feature","geometry":{"type":"Point","coordinates":[121.518298,31.207376]},"properties":{"town":"浦东新区","published_address":"浦建路60弄","geocoded_address":"上海市浦东新区浦建路60弄","date":1654963200000}},{"type":"Feature","geometry":{"type":"Point","coordinates":[121.536828,31.364996]},"properties":{"town":"浦东新区","published_address":"顺凌路49弄","geocoded_address":"上海市浦东新区顺凌路49弄","date":1654963200000}},{"type":"Feature","geometry":{"type":"Point","coordinates":[121.818892,31.081979]},"properties":{"town":"浦东新区","published_address":"东港公路和祝悦路交叉口蔬菜基地","geocoded_address":"上海市浦东新区东港公路/祝悦路","date":1654963200000}},{"type":"Feature","geometry":{"type":"Point","coordinates":[121.520242,31.241827]},"properties":{"town":"浦东新区","published_address":"陆家嘴昌邑路531号","geocoded_address":"上海市浦东新区陆家嘴昌邑路531号","date":1654963200000}},{"type":"Feature","geometry":{"type":"Point","coordinates":[121.475307,31.20855]},"properties":{"town":"黄浦区","published_address":"徐家汇路515弄","geocoded_address":"上海市黄浦区徐家汇路515弄","date":1654963200000}},{"type":"Feature","geometry":{"type":"Point","coordinates":[121.431457,31.303418]},"properties":{"town":"静安区","published_address":"场中路3332弄","geocoded_address":"上海市静安区场中路3332弄","date":1654963200000}},{"type":"Feature","geometry":{"type":"Point","coordinates":[121.452199,31.261045]},"properties":{"town":"静安区","published_address":"谈家桥路80弄","geocoded_address":"上海市静安区谈家桥路80弄","date":1654963200000}},{"type":"Feature","geometry":{"type":"Point","coordinates":[121.461847,31.308215]},"properties":{"town":"静安区","published_address":"闻喜路251弄","geocoded_address":"上海市静安区闻喜路251弄","date":1654963200000}},{"type":"Feature","geometry":{"type":"Point","coordinates":[121.470744,31.259851]},"properties":{"town":"静安区","published_address":"芷江中路413弄","geocoded_address":"上海市静安区芷江中路413弄","date":1654963200000}},{"type":"Feature","geometry":{"type":"Point","coordinates":[121.445947,31.217109]},"properties":{"town":"静安区","published_address":"常熟路100弄10号宝立大厦","geocoded_address":"上海市静安区宝立大厦","date":1654963200000}},{"type":"Feature","geometry":{"type":"Point","coordinates":[121.46262,31.197792]},"properties":{"town":"徐汇区","published_address":"斜土路1358弄","geocoded_address":"上海市徐汇区斜土路1358弄","date":1654963200000}},{"type":"Feature","geometry":{"type":"Point","coordinates":[121.43523,31.183837]},"properties":{"town":"徐汇区","published_address":"中漕路24号","geocoded_address":"上海市徐汇区中漕路|24号","date":1654963200000}},{"type":"Feature","geometry":{"type":"Point","coordinates":[121.437866,31.19919]},"properties":{"town":"徐汇区","published_address":"曲靖路10号","geocoded_address":"上海市徐汇区","date":1654963200000}},{"type":"Feature","geometry":{"type":"Point","coordinates":[121.456371,31.219767]},"properties":{"town":"徐汇区","published_address":"长乐路335号","geocoded_address":"上海市黄浦区长乐路|335","date":1654963200000}},{"type":"Feature","geometry":{"type":"Point","coordinates":[121.418598,31.134477]},"properties":{"town":"徐汇区","published_address":"凌云路283号","geocoded_address":"上海市徐汇区凌云路283号","date":1654963200000}},{"type":"Feature","geometry":{"type":"Point","coordinates":[121.419499,31.13632]},"properties":{"town":"徐汇区","published_address":"凌云路363号","geocoded_address":"上海市徐汇区凌云路|363号","date":1654963200000}},{"type":"Feature","geometry":{"type":"Point","coordinates":[121.49582,31.27623]},"properties":{"town":"虹口区","published_address":"大连西路165弄","geocoded_address":"上海市虹口区大连西路165弄","date":1654963200000}},{"type":"Feature","geometry":{"type":"Point","coordinates":[121.496386,31.273383]},"properties":{"town":"虹口区","published_address":"密云路250弄","geocoded_address":"上海市虹口区密云路250弄","date":1654963200000}},{"type":"Feature","geometry":{"type":"Point","coordinates":[121.475636,31.27698]},"properties":{"town":"虹口区","published_address":"广中路208号","geocoded_address":"上海市虹口区广中路208号","date":1654963200000}},{"type":"Feature","geometry":{"type":"Point","coordinates":[121.426621,31.409068]},"properties":{"town":"宝山区","published_address":"德都路165弄","geocoded_address":"上海市宝山区德都路165弄","date":1654963200000}},{"type":"Feature","geometry":{"type":"Point","coordinates":[121.478852,31.342852]},"properties":{"town":"宝山区","published_address":"郁江巷路129弄","geocoded_address":"上海市宝山区郁江巷路129弄","date":1654963200000}},{"type":"Feature","geometry":{"type":"Point","coordinates":[121.434278,31.404287]},"properties":{"town":"宝山区","published_address":"绥化路52弄","geocoded_address":"上海市宝山区绥化路52弄","date":1654963200000}},{"type":"Feature","geometry":{"type":"Point","coordinates":[121.423239,31.416791]},"properties":{"town":"宝山区","published_address":"月浦七村","geocoded_address":"上海市宝山区月浦七村","date":1654963200000}},{"type":"Feature","geometry":{"type":"Point","coordinates":[121.47272,31.333893]},"properties":{"town":"宝山区","published_address":"淞南十村","geocoded_address":"上海市宝山区淞南十村","date":1654963200000}},{"type":"Feature","geometry":{"type":"Point","coordinates":[121.42122,31.11816]},"properties":{"town":"闵行区","published_address":"普乐路665弄","geocoded_address":"上海市闵行区普乐路665弄","date":1654963200000}},{"type":"Feature","geometry":{"type":"Point","coordinates":[121.413266,31.136681]},"properties":{"town":"闵行区","published_address":"梅陇西路22号","geocoded_address":"上海市闵行区梅陇西路22号","date":1654963200000}},{"type":"Feature","geometry":{"type":"Point","coordinates":[121.395009,31.151813]},"properties":{"town":"闵行区","published_address":"莲花路平南路路口古美人口文化公园","geocoded_address":"上海市闵行区莲花路平南路古美人口文化公园(平南路)","date":1654963200000}},{"type":"Feature","geometry":{"type":"Point","coordinates":[121.307948,31.172236]},"properties":{"town":"青浦区","published_address":"沪青平公路1489弄","geocoded_address":"上海市青浦区沪青平公路1489弄","date":1654963200000}},{"type":"Feature","geometry":{"type":"Point","coordinates":[121.07906,30.9854]},"properties":{"town":"青浦区","published_address":"松蒸公路4405号","geocoded_address":"上海市青浦区松蒸公路4405号","date":1654963200000}},{"type":"Feature","geometry":{"type":"Point","coordinates":[121.083142,30.984374]},"properties":{"town":"青浦区","published_address":"蒸南路54号","geocoded_address":"上海市青浦区蒸南路54号","date":1654963200000}},{"type":"Feature","geometry":{"type":"Point","coordinates":[121.240164,31.2238]},"properties":{"town":"青浦区","published_address":"华隆路200号","geocoded_address":"上海市青浦区华隆路200号","date":1654963200000}},{"type":"Feature","geometry":{"type":"Point","coordinates":[121.227486,31.811752]},"properties":{"town":"崇明区","published_address":"跃进菜场","geocoded_address":"上海市崇明区跃进菜场","date":1654963200000}}]},"2022-06-11":{"type":"FeatureCollection","features":[{"type":"Feature","geometry":{"type":"Point","coordinates":[121.459235,31.263687]},"properties":{"town":"静安区","published_address":"共和新路1302号","geocoded_address":"上海市宝山区共和新路1302号","date":1654876800000}},{"type":"Feature","geometry":{"type":"Point","coordinates":[121.461847,31.308215]},"properties":{"town":"静安区","published_address":"闻喜路251弄","geocoded_address":"上海市静安区闻喜路251弄","date":1654876800000}},{"type":"Feature","geometry":{"type":"Point","coordinates":[121.46262,31.197792]},"properties":{"town":"徐汇区","published_address":"斜土路1358弄","geocoded_address":"上海市徐汇区斜土路1358弄","date":1654876800000}},{"type":"Feature","geometry":{"type":"Point","coordinates":[121.418598,31.134477]},"properties":{"town":"徐汇区","published_address":"凌云路283号","geocoded_address":"上海市徐汇区凌云路283号","date":1654876800000}},{"type":"Feature","geometry":{"type":"Point","coordinates":[121.432219,31.180551]},"properties":{"town":"徐汇区","published_address":"中山西路2368号","geocoded_address":"上海市徐汇区中山西路2368号","date":1654876800000}},{"type":"Feature","geometry":{"type":"Point","coordinates":[121.412307,31.213897]},"properties":{"town":"长宁区","published_address":"中山西路515号","geocoded_address":"上海市长宁区中山西路515号","date":1654876800000}},{"type":"Feature","geometry":{"type":"Point","coordinates":[121.401488,31.247734]},"properties":{"town":"普陀区","published_address":"真如西村","geocoded_address":"上海市普陀区真如西村","date":1654876800000}},{"type":"Feature","geometry":{"type":"Point","coordinates":[121.49582,31.27623]},"properties":{"town":"虹口区","published_address":"大连西路165弄","geocoded_address":"上海市虹口区大连西路165弄","date":1654876800000}},{"type":"Feature","geometry":{"type":"Point","coordinates":[121.484845,31.264706]},"properties":{"town":"虹口区","published_address":"山阴路55号","geocoded_address":"上海市虹口区山阴路|55","date":1654876800000}},{"type":"Feature","geometry":{"type":"Point","coordinates":[121.499354,31.263206]},"properties":{"town":"虹口区","published_address":"瑞虹路181号","geocoded_address":"上海市虹口区瑞虹路181号","date":1654876800000}},{"type":"Feature","geometry":{"type":"Point","coordinates":[121.493176,31.31708]},"properties":{"town":"宝山区","published_address":"吉浦路615弄","geocoded_address":"上海市宝山区吉浦路615弄","date":1654876800000}},{"type":"Feature","geometry":{"type":"Point","coordinates":[121.451776,31.337927]},"properties":{"town":"宝山区","published_address":"泗塘一村","geocoded_address":"上海市宝山区泗塘一村(西南门)","date":1654876800000}},{"type":"Feature","geometry":{"type":"Point","coordinates":[121.407596,31.309332]},"properties":{"town":"宝山区","published_address":"环镇北路417弄","geocoded_address":"上海市宝山区环镇北路417弄","date":1654876800000}},{"type":"Feature","geometry":{"type":"Point","coordinates":[121.394664,31.093565]},"properties":{"town":"闵行区","published_address":"银都路3118弄","geocoded_address":"上海市闵行区银都路3118弄","date":1654876800000}},{"type":"Feature","geometry":{"type":"Point","coordinates":[121.540132,31.056621]},"properties":{"town":"闵行区","published_address":"召楼路2056弄","geocoded_address":"上海市闵行区召楼路2056弄","date":1654876800000}},{"type":"Feature","geometry":{"type":"Point","coordinates":[121.354971,31.150256]},"properties":{"town":"闵行区","published_address":"七宝老街","geocoded_address":"上海市闵行区七宝老街","date":1654876800000}},{"type":"Feature","geometry":{"type":"Point","coordinates":[121.454436,31.221242]},"properties":{"town":"闵行区","published_address":"巨鹿路604号","geocoded_address":"上海市黄浦区巨鹿路|604","date":1654876800000}},{"type":"Feature","geometry":{"type":"Point","coordinates":[121.462119,30.918242]},"properties":{"town":"奉贤区","published_address":"新建中路394号","geocoded_address":"上海市奉贤区新建中路394号","date":1654876800000}}]}}