{"2022-03-28":{"type":"FeatureCollection","features":[{"type":"Feature","geometry":{"type":"Point","coordinates":[121.50782,31.20021]},"properties":{"town":"浦东新区","published_address":"南码头路119弄","geocoded_address":"上海市浦东新区南码头路119弄","date":1648396800000}},{"type":"Feature","geometry":{"type":"Point","coordinates":[121.60117,31.123002]},"properties":{"town":"浦东新区","published_address":"康弘路508弄","geocoded_address":"上海市浦东新区康弘路508弄","date":1648396800000}},{"type":"Feature","geometry":{"type":"Point","coordinates":[121.513359,31.224876]},"properties":{"town":"浦东新区","published_address":"张杨路310弄","geocoded_address":"上海市浦东新区张杨路310弄","date":1648396800000}},{"type":"Feature","geometry":{"type":"Point","coordinates":[121.550744,31.174158]},"properties":{"town":"浦东新区","published_address":"博华路930弄","geocoded_address":"上海市浦东新区博华路930弄","date":1648396800000}},{"type":"Feature","geometry":{"type":"Point","coordinates":[121.548341,31.166473]},"properties":{"town":"浦东新区","published_address":"联勤村冯桥队张家宅","geocoded_address":"上海市浦东新区张家宅","date":1648396800000}},{"type":"Feature","geometry":{"type":"Point","coordinates":[121.562475,31.238864]},"properties":{"town":"浦东新区","published_address":"灵山路1415弄","geocoded_address":"上海市浦东新区灵山路1415弄","date":1648396800000}},{"type":"Feature","geometry":{"type":"Point","coordinates":[121.594833,31.079089]},"properties":{"town":"浦东新区","published_address":"鹤驰路99弄","geocoded_address":"上海市浦东新区鹤驰路99弄","date":1648396800000}},{"type":"Feature","geometry":{"type":"Point","coordinates":[121.617876,31.068368]},"properties":{"town":"浦东新区","published_address":"王楼村","geocoded_address":"上海市浦东新区王楼村","date":1648396800000}},{"type":"Feature","geometry":{"type":"Point","coordinates":[121.592596,31.07109]},"properties":{"town":"浦东新区","published_address":"航瑞路175弄","geocoded_address":"上海市浦东新区航瑞路175弄","date":1648396800000}},{"type":"Feature","geometry":{"type":"Point","coordinates":[121.520981,31.236217]},"properties":{"town":"浦东新区","published_address":"乳山路161弄","geocoded_address":"上海市浦东新区乳山路161弄","date":1648396800000}},{"type":"Feature","geometry":{"type":"Point","coordinates":[121.552038,31.194537]},"properties":{"town":"浦东新区","published_address":"连波路66弄","geocoded_address":"上海市浦东新区连波路66弄","date":1648396800000}},{"type":"Feature","geometry":{"type":"Point","coordinates":[121.509531,31.139268]},"properties":{"town":"浦东新区","published_address":"金光村","geocoded_address":"上海市浦东新区金光村","date":1648396800000}},{"type":"Feature","geometry":{"type":"Point","coordinates":[121.747201,31.084518]},"properties":{"town":"浦东新区","published_address":"立新村","geocoded_address":"上海市浦东新区立新村委","date":1648396800000}},{"type":"Feature","geometry":{"type":"Point","coordinates":[121.712905,31.061283]},"properties":{"town":"浦东新区","published_address":"南六公路399弄","geocoded_address":"上海市浦东新区南六公路399弄","date":1648396800000}},{"type":"Feature","geometry":{"type":"Point","coordinates":[121.527808,31.180154]},"properties":{"town":"浦东新区","published_address":"国展路1756号工地生活区","geocoded_address":"上海市浦东新区工地生活区","date":1648396800000}},{"type":"Feature","geometry":{"type":"Point","coordinates":[121.560994,31.164559]},"properties":{"town":"浦东新区","published_address":"沪南路2000号","geocoded_address":"上海市浦东新区沪南路2000号","date":1648396800000}},{"type":"Feature","geometry":{"type":"Point","coordinates":[121.495932,31.176684]},"properties":{"town":"浦东新区","published_address":"上南路929弄","geocoded_address":"上海市浦东新区上南路929弄","date":1648396800000}},{"type":"Feature","geometry":{"type":"Point","coordinates":[121.741775,31.054821]},"properties":{"town":"浦东新区","published_address":"西门村","geocoded_address":"上海市浦东新区西门村","date":1648396800000}},{"type":"Feature","geometry":{"type":"Point","coordinates":[121.747661,31.179277]},"properties":{"town":"浦东新区","published_address":"江明路36弄","geocoded_address":"上海市浦东新区江明路36弄","date":1648396800000}},{"type":"Feature","geometry":{"type":"Point","coordinates":[121.526618,31.231097]},"properties":{"town":"浦东新区","published_address":"福山路102弄","geocoded_address":"上海市浦东新区福山路102弄","date":1648396800000}},{"type":"Feature","geometry":{"type":"Point","coordinates":[121.498633,31.162083]},"properties":{"town":"浦东新区","published_address":"杨思路860弄","geocoded_address":"上海市浦东新区杨思路860弄","date":1648396800000}},{"type":"Feature","geometry":{"type":"Point","coordinates":[121.54501,31.242336]},"properties":{"town":"浦东新区","published_address":"巨野路109弄","geocoded_address":"上海市浦东新区巨野路109弄","date":1648396800000}},{"type":"Feature","geometry":{"type":"Point","coordinates":[121.554843,31.244461]},"properties":{"town":"浦东新区","published_address":"崮山路322弄","geocoded_address":"上海市浦东新区崮山路322弄","date":1648396800000}},{"type":"Feature","geometry":{"type":"Point","coordinates":[121.504655,31.136881]},"properties":{"town":"浦东新区","published_address":"永泰路133弄","geocoded_address":"上海市浦东新区永泰路133弄","date":1648396800000}},{"type":"Feature","geometry":{"type":"Point","coordinates":[121.495364,31.163509]},"properties":{"town":"浦东新区","published_address":"杨思新村","geocoded_address":"上海市浦东新区杨思新村","date":1648396800000}},{"type":"Feature","geometry":{"type":"Point","coordinates":[121.523599,31.213556]},"properties":{"town":"浦东新区","published_address":"南泉路1211弄","geocoded_address":"上海市浦东新区南泉路1211弄","date":1648396800000}},{"type":"Feature","geometry":{"type":"Point","coordinates":[121.527281,31.212312]},"properties":{"town":"浦东新区","published_address":"蓝村路471弄","geocoded_address":"上海市浦东新区蓝村路471弄","date":1648396800000}},{"type":"Feature","geometry":{"type":"Point","coordinates":[121.56719,31.241991]},"properties":{"town":"浦东新区","published_address":"德平路1066弄","geocoded_address":"上海市浦东新区德平路1066弄","date":1648396800000}},{"type":"Feature","geometry":{"type":"Point","coordinates":[121.504745,31.158836]},"properties":{"town":"浦东新区","published_address":"海阳路1001弄","geocoded_address":"上海市浦东新区海阳路1001弄","date":1648396800000}},{"type":"Feature","geometry":{"type":"Point","coordinates":[121.547698,31.117239]},"properties":{"town":"浦东新区","published_address":"上南路6500弄","geocoded_address":"上海市浦东新区上南路6500弄","date":1648396800000}},{"type":"Feature","geometry":{"type":"Point","coordinates":[121.52979,31.129512]},"properties":{"town":"浦东新区","published_address":"秀沿西路258弄","geocoded_address":"上海市浦东新区秀沿西路258弄","date":1648396800000}},{"type":"Feature","geometry":{"type":"Point","coordinates":[121.531855,31.168215]},"properties":{"town":"浦东新区","published_address":"板泉路2101弄","geocoded_address":"上海市浦东新区板泉路2101弄","date":1648396800000}},{"type":"Feature","geometry":{"type":"Point","coordinates":[121.510061,31.122854]},"properties":{"town":"浦东新区","published_address":"林展路411弄","geocoded_address":"上海市浦东新区林展路411弄","date":1648396800000}},{"type":"Feature","geometry":{"type":"Point","coordinates":[121.602198,31.240838]},"properties":{"town":"浦东新区","published_address":"金沪路1218弄","geocoded_address":"上海市浦东新区金沪路1218弄","date":1648396800000}},{"type":"Feature","geometry":{"type":"Point","coordinates":[121.588456,31.098891]},"properties":{"town":"浦东新区","published_address":"瑞阳路81弄","geocoded_address":"上海市浦东新区瑞阳路81弄","date":1648396800000}},{"type":"Feature","geometry":{"type":"Point","coordinates":[121.534966,31.163185]},"properties":{"town":"浦东新区","published_address":"世博家园大道站路94弄","geocoded_address":"上海市浦东新区世博家园","date":1648396800000}},{"type":"Feature","geometry":{"type":"Point","coordinates":[121.49192,31.172901]},"properties":{"town":"浦东新区","published_address":"上钢四村","geocoded_address":"上海市浦东新区上钢四村","date":1648396800000}},{"type":"Feature","geometry":{"type":"Point","coordinates":[121.502621,31.119449]},"properties":{"town":"浦东新区","published_address":"三旋路506弄","geocoded_address":"上海市浦东新区三旋路506弄","date":1648396800000}},{"type":"Feature","geometry":{"type":"Point","coordinates":[121.519514,31.195763]},"properties":{"town":"浦东新区","published_address":"东方路2851弄","geocoded_address":"上海市浦东新区东方路2851弄","date":1648396800000}},{"type":"Feature","geometry":{"type":"Point","coordinates":[121.761589,31.099727]},"properties":{"town":"浦东新区","published_address":"航亭环路399弄","geocoded_address":"上海市浦东新区航亭环路399弄","date":1648396800000}},{"type":"Feature","geometry":{"type":"Point","coordinates":[121.568261,31.225587]},"properties":{"town":"浦东新区","published_address":"罗山路1700弄","geocoded_address":"上海市浦东新区罗山路1700弄","date":1648396800000}},{"type":"Feature","geometry":{"type":"Point","coordinates":[121.582551,31.275762]},"properties":{"town":"浦东新区","published_address":"莱阳路451弄","geocoded_address":"上海市浦东新区莱阳路451弄","date":1648396800000}},{"type":"Feature","geometry":{"type":"Point","coordinates":[121.614403,31.255519]},"properties":{"town":"浦东新区","published_address":"金豫路100号","geocoded_address":"上海市浦东新区金豫路100号","date":1648396800000}},{"type":"Feature","geometry":{"type":"Point","coordinates":[121.552376,31.248465]},"properties":{"town":"浦东新区","published_address":"罗山路108弄","geocoded_address":"上海市浦东新区罗山路108弄","date":1648396800000}},{"type":"Feature","geometry":{"type":"Point","coordinates":[121.577471,31.245897]},"properties":{"town":"浦东新区","published_address":"金杨路308弄","geocoded_address":"上海市浦东新区金杨路308弄","date":1648396800000}},{"type":"Feature","geometry":{"type":"Point","coordinates":[121.550343,31.237505]},"properties":{"town":"浦东新区","published_address":"张杨路1776弄","geocoded_address":"上海市浦东新区张杨路1776弄","date":1648396800000}},{"type":"Feature","geometry":{"type":"Point","coordinates":[121.5893,31.258079]},"properties":{"town":"浦东新区","published_address":"金杨路1155弄","geocoded_address":"上海市浦东新区金杨路1155弄","date":1648396800000}},{"type":"Feature","geometry":{"type":"Point","coordinates":[121.556631,31.237118]},"properties":{"town":"浦东新区","published_address":"羽山路998弄","geocoded_address":"上海市浦东新区羽山路998弄","date":1648396800000}},{"type":"Feature","geometry":{"type":"Point","coordinates":[121.53463,31.147894]},"properties":{"town":"浦东新区","published_address":"西泰林路480弄","geocoded_address":"上海市浦东新区西泰林路480弄","date":1648396800000}},{"type":"Feature","geometry":{"type":"Point","coordinates":[121.565959,31.180729]},"properties":{"town":"浦东新区","published_address":"新陈路303弄","geocoded_address":"上海市浦东新区新陈路303弄","date":1648396800000}},{"type":"Feature","geometry":{"type":"Point","coordinates":[121.680159,31.166252]},"properties":{"town":"浦东新区","published_address":"中心村王家宅","geocoded_address":"上海市浦东新区王家宅","date":1648396800000}},{"type":"Feature","geometry":{"type":"Point","coordinates":[121.573512,31.127075]},"properties":{"town":"浦东新区","published_address":"秀浦路886号","geocoded_address":"上海市浦东新区秀浦路886号","date":1648396800000}},{"type":"Feature","geometry":{"type":"Point","coordinates":[121.609684,31.18105]},"properties":{"town":"浦东新区","published_address":"临江村丁家宅","geocoded_address":"上海市浦东新区丁家宅","date":1648396800000}},{"type":"Feature","geometry":{"type":"Point","coordinates":[121.513843,31.153487]},"properties":{"town":"浦东新区","published_address":"联丰村奚家队奚家湾","geocoded_address":"上海市浦东新区奚家湾","date":1648396800000}},{"type":"Feature","geometry":{"type":"Point","coordinates":[121.494454,31.166365]},"properties":{"town":"浦东新区","published_address":"灵岩路79弄","geocoded_address":"上海市浦东新区灵岩路79弄","date":1648396800000}},{"type":"Feature","geometry":{"type":"Point","coordinates":[121.495389,31.16841]},"properties":{"town":"浦东新区","published_address":"德州路223弄","geocoded_address":"上海市浦东新区德州路223弄","date":1648396800000}},{"type":"Feature","geometry":{"type":"Point","coordinates":[121.517714,31.137685]},"properties":{"town":"浦东新区","published_address":"永泰路630弄","geocoded_address":"上海市浦东新区永泰路630弄","date":1648396800000}},{"type":"Feature","geometry":{"type":"Point","coordinates":[121.48361,31.165032]},"properties":{"town":"浦东新区","published_address":"德州路420弄","geocoded_address":"上海市浦东新区德州路420弄","date":1648396800000}},{"type":"Feature","geometry":{"type":"Point","coordinates":[121.510931,31.17107]},"properties":{"town":"浦东新区","published_address":"成山路648弄","geocoded_address":"上海市浦东新区成山路648弄","date":1648396800000}},{"type":"Feature","geometry":{"type":"Point","coordinates":[121.496519,31.156377]},"properties":{"town":"浦东新区","published_address":"新任村","geocoded_address":"上海市浦东新区新任村","date":1648396800000}},{"type":"Feature","geometry":{"type":"Point","coordinates":[121.492316,31.168652]},"properties":{"town":"浦东新区","published_address":"德州路255弄","geocoded_address":"上海市浦东新区德州路255弄","date":1648396800000}},{"type":"Feature","geometry":{"type":"Point","coordinates":[121.589035,31.070101]},"properties":{"town":"浦东新区","published_address":"沪南路4851弄","geocoded_address":"上海市浦东新区沪南路4851弄","date":1648396800000}},{"type":"Feature","geometry":{"type":"Point","coordinates":[121.489551,31.169302]},"properties":{"town":"浦东新区","published_address":"长清路119弄","geocoded_address":"上海市浦东新区长清路119弄","date":1648396800000}},{"type":"Feature","geometry":{"type":"Point","coordinates":[121.493621,31.166803]},"properties":{"town":"浦东新区","published_address":"灵岩路56弄","geocoded_address":"上海市浦东新区灵岩路56弄","date":1648396800000}},{"type":"Feature","geometry":{"type":"Point","coordinates":[121.506944,31.153003]},"properties":{"town":"浦东新区","published_address":"杨南路1015弄","geocoded_address":"上海市浦东新区杨南路1015弄","date":1648396800000}},{"type":"Feature","geometry":{"type":"Point","coordinates":[121.549868,31.170129]},"properties":{"town":"浦东新区","published_address":"博华路999弄","geocoded_address":"上海市浦东新区博华路999弄","date":1648396800000}},{"type":"Feature","geometry":{"type":"Point","coordinates":[121.495112,31.168168]},"properties":{"town":"浦东新区","published_address":"德州路230弄","geocoded_address":"上海市浦东新区德州路230弄","date":1648396800000}},{"type":"Feature","geometry":{"type":"Point","coordinates":[121.499889,31.158493]},"properties":{"town":"浦东新区","published_address":"上南路3323弄","geocoded_address":"上海市浦东新区上南路3323弄","date":1648396800000}},{"type":"Feature","geometry":{"type":"Point","coordinates":[121.490927,31.174997]},"properties":{"town":"浦东新区","published_address":"上钢三村","geocoded_address":"上海市浦东新区上钢三村","date":1648396800000}},{"type":"Feature","geometry":{"type":"Point","coordinates":[121.507993,31.12787]},"properties":{"town":"浦东新区","published_address":"林展路267弄","geocoded_address":"上海市浦东新区林展路267弄","date":1648396800000}},{"type":"Feature","geometry":{"type":"Point","coordinates":[121.494216,31.170947]},"properties":{"town":"浦东新区","published_address":"成山路210号","geocoded_address":"上海市浦东新区成山路210号","date":1648396800000}},{"type":"Feature","geometry":{"type":"Point","coordinates":[121.501947,31.157122]},"properties":{"town":"浦东新区","published_address":"海阳路860弄","geocoded_address":"上海市浦东新区海阳路860弄","date":1648396800000}},{"type":"Feature","geometry":{"type":"Point","coordinates":[121.494585,31.174127]},"properties":{"town":"浦东新区","published_address":"上钢六村","geocoded_address":"上海市浦东新区上钢六村","date":1648396800000}},{"type":"Feature","geometry":{"type":"Point","coordinates":[121.492813,31.163857]},"properties":{"town":"浦东新区","published_address":"杨思北街","geocoded_address":"上海市浦东新区杨思北街","date":1648396800000}},{"type":"Feature","geometry":{"type":"Point","coordinates":[121.543534,31.143168]},"properties":{"town":"浦东新区","published_address":"东泰林路799弄","geocoded_address":"上海市浦东新区东泰林路799弄","date":1648396800000}},{"type":"Feature","geometry":{"type":"Point","coordinates":[121.495563,31.168337]},"properties":{"town":"浦东新区","published_address":"德州路220弄","geocoded_address":"上海市浦东新区德州路220弄","date":1648396800000}},{"type":"Feature","geometry":{"type":"Point","coordinates":[121.494039,31.174694]},"properties":{"town":"浦东新区","published_address":"上南路1000弄","geocoded_address":"上海市浦东新区上南路1000弄","date":1648396800000}},{"type":"Feature","geometry":{"type":"Point","coordinates":[121.497008,31.173428]},"properties":{"town":"浦东新区","published_address":"上南路1251弄","geocoded_address":"上海市浦东新区上南路1251弄","date":1648396800000}},{"type":"Feature","geometry":{"type":"Point","coordinates":[121.536689,31.149809]},"properties":{"town":"浦东新区","published_address":"御桥路306弄","geocoded_address":"上海市浦东新区御桥路306弄","date":1648396800000}},{"type":"Feature","geometry":{"type":"Point","coordinates":[121.507944,31.157806]},"properties":{"town":"浦东新区","published_address":"联丰村顾家队","geocoded_address":"上海市浦东新区联丰村顾家队","date":1648396800000}},{"type":"Feature","geometry":{"type":"Point","coordinates":[121.504159,31.155069]},"properties":{"town":"浦东新区","published_address":"上南路3521号","geocoded_address":"上海市浦东新区上南路3521号","date":1648396800000}},{"type":"Feature","geometry":{"type":"Point","coordinates":[121.50533,31.162651]},"properties":{"town":"浦东新区","published_address":"板泉路1201弄","geocoded_address":"上海市浦东新区板泉路1201弄","date":1648396800000}},{"type":"Feature","geometry":{"type":"Point","coordinates":[121.326506,31.487458]},"properties":{"town":"浦东新区","published_address":"红旗村东乔队毛家塘","geocoded_address":"上海市宝山区毛家塘","date":1648396800000}},{"type":"Feature","geometry":{"type":"Point","coordinates":[121.492546,31.169742]},"properties":{"town":"浦东新区","published_address":"徳州路255弄","geocoded_address":"上海市浦东新区255弄","date":1648396800000}},{"type":"Feature","geometry":{"type":"Point","coordinates":[121.514093,31.181956]},"properties":{"town":"浦东新区","published_address":"南码头路1288弄","geocoded_address":"上海市浦东新区南码头路1288弄","date":1648396800000}},{"type":"Feature","geometry":{"type":"Point","coordinates":[121.499113,31.168032]},"properties":{"town":"浦东新区","published_address":"德州路150弄","geocoded_address":"上海市浦东新区德州路150弄","date":1648396800000}},{"type":"Feature","geometry":{"type":"Point","coordinates":[121.493057,31.172497]},"properties":{"town":"浦东新区","published_address":"上钢一村","geocoded_address":"上海市浦东新区上钢一村","date":1648396800000}},{"type":"Feature","geometry":{"type":"Point","coordinates":[121.498612,31.146496]},"properties":{"town":"浦东新区","published_address":"上浦路480弄","geocoded_address":"上海市浦东新区上浦路480弄","date":1648396800000}},{"type":"Feature","geometry":{"type":"Point","coordinates":[121.547147,31.163883]},"properties":{"town":"浦东新区","published_address":"联勤村麦家队麦家宅","geocoded_address":"上海市浦东新区联勤村麦家队麦家宅","date":1648396800000}},{"type":"Feature","geometry":{"type":"Point","coordinates":[121.7409,31.113277]},"properties":{"town":"浦东新区","published_address":"星光村","geocoded_address":"上海市浦东新区星光村","date":1648396800000}},{"type":"Feature","geometry":{"type":"Point","coordinates":[121.60908,31.143247]},"properties":{"town":"浦东新区","published_address":"汤巷中心村","geocoded_address":"上海市浦东新区汤巷中心村","date":1648396800000}},{"type":"Feature","geometry":{"type":"Point","coordinates":[121.572956,31.150475]},"properties":{"town":"浦东新区","published_address":"康桥路1558弄","geocoded_address":"上海市浦东新区康桥路1558弄","date":1648396800000}},{"type":"Feature","geometry":{"type":"Point","coordinates":[121.571366,31.139676]},"properties":{"town":"浦东新区","published_address":"康沈路465弄","geocoded_address":"上海市浦东新区康沈路465弄","date":1648396800000}},{"type":"Feature","geometry":{"type":"Point","coordinates":[121.569836,31.139035]},"properties":{"town":"浦东新区","published_address":"周康二村","geocoded_address":"上海市浦东新区周康二村","date":1648396800000}},{"type":"Feature","geometry":{"type":"Point","coordinates":[121.572064,31.140347]},"properties":{"town":"浦东新区","published_address":"周康四村","geocoded_address":"上海市浦东新区周康四村","date":1648396800000}},{"type":"Feature","geometry":{"type":"Point","coordinates":[121.565915,31.173237]},"properties":{"town":"浦东新区","published_address":"莲溪路1099弄","geocoded_address":"上海市浦东新区莲溪路1099弄","date":1648396800000}},{"type":"Feature","geometry":{"type":"Point","coordinates":[121.724786,31.229014]},"properties":{"town":"浦东新区","published_address":"环庆南路239弄","geocoded_address":"上海市浦东新区环庆南路239弄","date":1648396800000}},{"type":"Feature","geometry":{"type":"Point","coordinates":[121.757186,31.116672]},"properties":{"town":"浦东新区","published_address":"祝桥东大街","geocoded_address":"上海市浦东新区祝桥东大街","date":1648396800000}},{"type":"Feature","geometry":{"type":"Point","coordinates":[121.67592,31.244844]},"properties":{"town":"浦东新区","published_address":"云雅路400弄","geocoded_address":"上海市浦东新区云雅路400弄","date":1648396800000}},{"type":"Feature","geometry":{"type":"Point","coordinates":[121.703455,31.177782]},"properties":{"town":"浦东新区","published_address":"妙川路800弄","geocoded_address":"上海市浦东新区妙川路800弄","date":1648396800000}},{"type":"Feature","geometry":{"type":"Point","coordinates":[121.691134,31.17602]},"properties":{"town":"浦东新区","published_address":"华夏二路1255弄","geocoded_address":"上海市浦东新区华夏二路1255弄","date":1648396800000}},{"type":"Feature","geometry":{"type":"Point","coordinates":[121.776723,31.040169]},"properties":{"town":"浦东新区","published_address":"惠东村","geocoded_address":"上海市浦东新区惠东村","date":1648396800000}},{"type":"Feature","geometry":{"type":"Point","coordinates":[121.594462,31.080475]},"properties":{"town":"浦东新区","published_address":"鹤驰路88弄","geocoded_address":"上海市浦东新区鹤驰路88弄","date":1648396800000}},{"type":"Feature","geometry":{"type":"Point","coordinates":[121.683476,31.191977]},"properties":{"town":"浦东新区","published_address":"华夏二路350弄","geocoded_address":"上海市浦东新区华夏二路350弄","date":1648396800000}},{"type":"Feature","geometry":{"type":"Point","coordinates":[121.577165,31.111987]},"properties":{"town":"浦东新区","published_address":"韵浦路167弄","geocoded_address":"上海市浦东新区韵浦路167弄","date":1648396800000}},{"type":"Feature","geometry":{"type":"Point","coordinates":[121.587598,31.097959]},"properties":{"town":"浦东新区","published_address":"瑞浦路77弄","geocoded_address":"上海市浦东新区瑞浦路77弄","date":1648396800000}},{"type":"Feature","geometry":{"type":"Point","coordinates":[121.697706,31.107638]},"properties":{"town":"浦东新区","published_address":"鹿达路28号","geocoded_address":"上海市浦东新区鹿达路28号","date":1648396800000}},{"type":"Feature","geometry":{"type":"Point","coordinates":[121.602303,31.135994]},"properties":{"town":"浦东新区","published_address":"环桥路1137弄","geocoded_address":"上海市浦东新区环桥路1137弄","date":1648396800000}},{"type":"Feature","geometry":{"type":"Point","coordinates":[121.613833,31.297864]},"properties":{"town":"浦东新区","published_address":"万安街333弄","geocoded_address":"上海市浦东新区万安街333弄","date":1648396800000}},{"type":"Feature","geometry":{"type":"Point","coordinates":[121.538312,31.170047]},"properties":{"town":"浦东新区","published_address":"赵家厍","geocoded_address":"上海市浦东新区赵家厍","date":1648396800000}},{"type":"Feature","geometry":{"type":"Point","coordinates":[121.585538,31.110746]},"properties":{"town":"浦东新区","published_address":"百花新村","geocoded_address":"上海市浦东新区百花新村","date":1648396800000}},{"type":"Feature","geometry":{"type":"Point","coordinates":[121.75584,31.107157]},"properties":{"town":"浦东新区","published_address":"祝西村","geocoded_address":"上海市浦东新区祝西村","date":1648396800000}},{"type":"Feature","geometry":{"type":"Point","coordinates":[121.570898,31.268687]},"properties":{"town":"浦东新区","published_address":"金桥路59号","geocoded_address":"上海市浦东新区金桥路59号","date":1648396800000}},{"type":"Feature","geometry":{"type":"Point","coordinates":[121.520513,31.21197]},"properties":{"town":"浦东新区","published_address":"塘桥路551号","geocoded_address":"上海市浦东新区塘桥路551号","date":1648396800000}},{"type":"Feature","geometry":{"type":"Point","coordinates":[121.528897,31.202334]},"properties":{"town":"浦东新区","published_address":"环龙路181弄","geocoded_address":"上海市浦东新区181弄","date":1648396800000}},{"type":"Feature","geometry":{"type":"Point","coordinates":[121.511001,31.207253]},"properties":{"town":"浦东新区","published_address":"微山三村","geocoded_address":"上海市浦东新区微山三村","date":1648396800000}},{"type":"Feature","geometry":{"type":"Point","coordinates":[121.520997,31.209271]},"properties":{"town":"浦东新区","published_address":"南泉路1350弄","geocoded_address":"上海市浦东新区南泉路1350弄","date":1648396800000}},{"type":"Feature","geometry":{"type":"Point","coordinates":[121.520457,31.210375]},"properties":{"town":"浦东新区","published_address":"南泉路1320弄","geocoded_address":"上海市浦东新区南泉路1320弄","date":1648396800000}},{"type":"Feature","geometry":{"type":"Point","coordinates":[121.553246,31.117419]},"properties":{"town":"浦东新区","published_address":"上南路6620弄","geocoded_address":"上海市浦东新区上南路6620弄","date":1648396800000}},{"type":"Feature","geometry":{"type":"Point","coordinates":[121.525445,31.206302]},"properties":{"town":"浦东新区","published_address":"东方路1663弄","geocoded_address":"上海市浦东新区东方路1663弄","date":1648396800000}},{"type":"Feature","geometry":{"type":"Point","coordinates":[121.54479,31.24751]},"properties":{"town":"浦东新区","published_address":"浦东大道1851弄","geocoded_address":"上海市浦东新区浦东大道1851弄","date":1648396800000}},{"type":"Feature","geometry":{"type":"Point","coordinates":[121.517608,31.241985]},"properties":{"town":"浦东新区","published_address":"广益路9弄","geocoded_address":"上海市浦东新区9弄","date":1648396800000}},{"type":"Feature","geometry":{"type":"Point","coordinates":[121.756,31.117665]},"properties":{"town":"浦东新区","published_address":"南祝路258弄","geocoded_address":"上海市浦东新区南祝路258弄","date":1648396800000}},{"type":"Feature","geometry":{"type":"Point","coordinates":[121.75879,31.077639]},"properties":{"town":"浦东新区","published_address":"永乐村","geocoded_address":"上海市浦东新区永乐村","date":1648396800000}},{"type":"Feature","geometry":{"type":"Point","coordinates":[121.764284,31.0303]},"properties":{"town":"浦东新区","published_address":"黄路村","geocoded_address":"上海市浦东新区黄路村","date":1648396800000}},{"type":"Feature","geometry":{"type":"Point","coordinates":[121.764024,31.038329]},"properties":{"town":"浦东新区","published_address":"南团公路105号","geocoded_address":"上海市浦东新区南团公路105号","date":1648396800000}},{"type":"Feature","geometry":{"type":"Point","coordinates":[121.737035,31.054915]},"properties":{"town":"浦东新区","published_address":"听悦路685弄","geocoded_address":"上海市浦东新区听悦路685弄","date":1648396800000}},{"type":"Feature","geometry":{"type":"Point","coordinates":[121.764987,31.074573]},"properties":{"town":"浦东新区","published_address":"陆楼村","geocoded_address":"上海市浦东新区陆楼村","date":1648396800000}},{"type":"Feature","geometry":{"type":"Point","coordinates":[121.50622,31.174304]},"properties":{"town":"浦东新区","published_address":"昌里东路80弄","geocoded_address":"上海市浦东新区昌里东路80弄","date":1648396800000}},{"type":"Feature","geometry":{"type":"Point","coordinates":[121.692579,31.160334]},"properties":{"town":"浦东新区","published_address":"新春村","geocoded_address":"上海市浦东新区新春村","date":1648396800000}},{"type":"Feature","geometry":{"type":"Point","coordinates":[121.596251,31.268468]},"properties":{"town":"浦东新区","published_address":"东陆路1268弄","geocoded_address":"上海市浦东新区东陆路1268弄","date":1648396800000}},{"type":"Feature","geometry":{"type":"Point","coordinates":[121.547275,31.244863]},"properties":{"town":"浦东新区","published_address":"苗圃路112弄","geocoded_address":"上海市浦东新区苗圃路112弄","date":1648396800000}},{"type":"Feature","geometry":{"type":"Point","coordinates":[121.549708,31.230087]},"properties":{"town":"浦东新区","published_address":"民生路1001弄","geocoded_address":"上海市浦东新区民生路1001弄","date":1648396800000}},{"type":"Feature","geometry":{"type":"Point","coordinates":[121.557247,31.251172]},"properties":{"town":"浦东新区","published_address":"万德路45弄","geocoded_address":"上海市浦东新区万德路45弄","date":1648396800000}},{"type":"Feature","geometry":{"type":"Point","coordinates":[121.561627,31.247979]},"properties":{"town":"浦东新区","published_address":"德平路100弄","geocoded_address":"上海市浦东新区德平路100弄","date":1648396800000}},{"type":"Feature","geometry":{"type":"Point","coordinates":[121.582188,31.246222]},"properties":{"town":"浦东新区","published_address":"金口路471弄","geocoded_address":"上海市浦东新区金口路471弄","date":1648396800000}},{"type":"Feature","geometry":{"type":"Point","coordinates":[121.578145,31.24875]},"properties":{"town":"浦东新区","published_address":"金口路155弄","geocoded_address":"上海市浦东新区金口路155弄","date":1648396800000}},{"type":"Feature","geometry":{"type":"Point","coordinates":[121.58343,31.250224]},"properties":{"town":"浦东新区","published_address":"金台路115弄","geocoded_address":"上海市浦东新区金台路115弄","date":1648396800000}},{"type":"Feature","geometry":{"type":"Point","coordinates":[121.583819,31.252912]},"properties":{"town":"浦东新区","published_address":"金杨路758弄","geocoded_address":"上海市浦东新区金杨路758弄","date":1648396800000}},{"type":"Feature","geometry":{"type":"Point","coordinates":[121.562888,31.259019]},"properties":{"town":"浦东新区","published_address":"浦东大道2554号","geocoded_address":"上海市浦东新区浦东大道2554号","date":1648396800000}},{"type":"Feature","geometry":{"type":"Point","coordinates":[121.56501,31.257609]},"properties":{"town":"浦东新区","published_address":"栖山路1555弄","geocoded_address":"上海市浦东新区栖山路1555弄","date":1648396800000}},{"type":"Feature","geometry":{"type":"Point","coordinates":[121.56487,31.251422]},"properties":{"town":"浦东新区","published_address":"博山东路173号","geocoded_address":"上海市浦东新区博山东路|173号","date":1648396800000}},{"type":"Feature","geometry":{"type":"Point","coordinates":[121.589272,31.250781]},"properties":{"town":"浦东新区","published_address":"金桥路1498弄","geocoded_address":"上海市浦东新区金桥路1498弄","date":1648396800000}},{"type":"Feature","geometry":{"type":"Point","coordinates":[121.557254,31.248574]},"properties":{"town":"浦东新区","published_address":"万德路52弄","geocoded_address":"上海市浦东新区万德路52弄","date":1648396800000}},{"type":"Feature","geometry":{"type":"Point","coordinates":[121.55887,31.247869]},"properties":{"town":"浦东新区","published_address":"博山东路41弄","geocoded_address":"上海市浦东新区博山东路41弄","date":1648396800000}},{"type":"Feature","geometry":{"type":"Point","coordinates":[121.588166,31.248025]},"properties":{"town":"浦东新区","published_address":"杨高中路750弄","geocoded_address":"上海市浦东新区杨高中路750弄","date":1648396800000}},{"type":"Feature","geometry":{"type":"Point","coordinates":[121.555468,31.252556]},"properties":{"town":"浦东新区","published_address":"万德路11弄","geocoded_address":"上海市浦东新区万德路11弄","date":1648396800000}},{"type":"Feature","geometry":{"type":"Point","coordinates":[121.563756,31.25461]},"properties":{"town":"浦东新区","published_address":"居家桥路520弄","geocoded_address":"上海市浦东新区居家桥路520弄","date":1648396800000}},{"type":"Feature","geometry":{"type":"Point","coordinates":[121.56355,31.137773]},"properties":{"town":"浦东新区","published_address":"沪南路2688弄","geocoded_address":"上海市浦东新区沪南路2688弄","date":1648396800000}},{"type":"Feature","geometry":{"type":"Point","coordinates":[121.573977,31.132688]},"properties":{"town":"浦东新区","published_address":"康沈路726弄","geocoded_address":"上海市浦东新区康沈路726弄","date":1648396800000}},{"type":"Feature","geometry":{"type":"Point","coordinates":[121.563172,31.149112]},"properties":{"town":"浦东新区","published_address":"康士路15弄","geocoded_address":"上海市浦东新区康士路15弄","date":1648396800000}},{"type":"Feature","geometry":{"type":"Point","coordinates":[121.57399,31.132406]},"properties":{"town":"浦东新区","published_address":"周康五村","geocoded_address":"上海市浦东新区周康新村","date":1648396800000}},{"type":"Feature","geometry":{"type":"Point","coordinates":[121.547067,31.237423]},"properties":{"town":"浦东新区","published_address":"巨野路455弄","geocoded_address":"上海市浦东新区巨野路455弄","date":1648396800000}},{"type":"Feature","geometry":{"type":"Point","coordinates":[121.546809,31.238901]},"properties":{"town":"浦东新区","published_address":"沈家弄路901弄","geocoded_address":"上海市浦东新区沈家弄路901弄","date":1648396800000}},{"type":"Feature","geometry":{"type":"Point","coordinates":[121.550338,31.241762]},"properties":{"town":"浦东新区","published_address":"洋泾镇路89弄","geocoded_address":"上海市浦东新区洋泾镇路89弄","date":1648396800000}},{"type":"Feature","geometry":{"type":"Point","coordinates":[121.553675,31.245927]},"properties":{"town":"浦东新区","published_address":"崮山路251弄","geocoded_address":"上海市浦东新区崮山路251弄","date":1648396800000}},{"type":"Feature","geometry":{"type":"Point","coordinates":[121.577995,31.24503]},"properties":{"town":"浦东新区","published_address":"银山路115弄","geocoded_address":"上海市浦东新区银山路115弄","date":1648396800000}},{"type":"Feature","geometry":{"type":"Point","coordinates":[121.547096,31.240032]},"properties":{"town":"浦东新区","published_address":"沈家弄路936号","geocoded_address":"上海市浦东新区沈家弄路936号","date":1648396800000}},{"type":"Feature","geometry":{"type":"Point","coordinates":[121.551879,31.238433]},"properties":{"town":"浦东新区","published_address":"苗圃路438弄","geocoded_address":"上海市浦东新区苗圃路438弄","date":1648396800000}},{"type":"Feature","geometry":{"type":"Point","coordinates":[121.539334,31.233743]},"properties":{"town":"浦东新区","published_address":"张杨路1500弄","geocoded_address":"上海市浦东新区张杨路1500弄","date":1648396800000}},{"type":"Feature","geometry":{"type":"Point","coordinates":[121.558606,31.252008]},"properties":{"town":"浦东新区","published_address":"德平路58弄","geocoded_address":"上海市浦东新区德平路58弄","date":1648396800000}},{"type":"Feature","geometry":{"type":"Point","coordinates":[121.544073,31.246264]},"properties":{"town":"浦东新区","published_address":"浦东大道1695弄","geocoded_address":"上海市浦东新区浦东大道1695弄","date":1648396800000}},{"type":"Feature","geometry":{"type":"Point","coordinates":[121.543975,31.241822]},"properties":{"town":"浦东新区","published_address":"栖山路100弄","geocoded_address":"上海市浦东新区栖山路100弄","date":1648396800000}},{"type":"Feature","geometry":{"type":"Point","coordinates":[121.552812,31.237693]},"properties":{"town":"浦东新区","published_address":"苗圃路466弄","geocoded_address":"上海市浦东新区苗圃路466弄","date":1648396800000}},{"type":"Feature","geometry":{"type":"Point","coordinates":[121.550248,31.231355]},"properties":{"town":"浦东新区","published_address":"灵山路730弄","geocoded_address":"上海市浦东新区灵山路730弄","date":1648396800000}},{"type":"Feature","geometry":{"type":"Point","coordinates":[121.579706,31.130553]},"properties":{"town":"浦东新区","published_address":"秀沿路1028弄","geocoded_address":"上海市浦东新区秀沿路1028弄","date":1648396800000}},{"type":"Feature","geometry":{"type":"Point","coordinates":[121.565194,31.122038]},"properties":{"town":"浦东新区","published_address":"沪南公路3150弄","geocoded_address":"上海市浦东新区沪南公路3150弄","date":1648396800000}},{"type":"Feature","geometry":{"type":"Point","coordinates":[121.571492,31.240149]},"properties":{"town":"浦东新区","published_address":"德平路1189弄","geocoded_address":"上海市浦东新区德平路1189弄","date":1648396800000}},{"type":"Feature","geometry":{"type":"Point","coordinates":[121.571334,31.241708]},"properties":{"town":"浦东新区","published_address":"灵山路1840弄","geocoded_address":"上海市浦东新区灵山路1840弄","date":1648396800000}},{"type":"Feature","geometry":{"type":"Point","coordinates":[121.560001,31.249629]},"properties":{"town":"浦东新区","published_address":"万德路67弄","geocoded_address":"上海市浦东新区万德路67弄","date":1648396800000}},{"type":"Feature","geometry":{"type":"Point","coordinates":[121.569073,31.137286]},"properties":{"town":"浦东新区","published_address":"秀沿路867弄","geocoded_address":"上海市浦东新区秀沿路867弄","date":1648396800000}},{"type":"Feature","geometry":{"type":"Point","coordinates":[121.514804,31.125133]},"properties":{"town":"浦东新区","published_address":"懿行路971弄","geocoded_address":"上海市浦东新区懿行路971弄","date":1648396800000}},{"type":"Feature","geometry":{"type":"Point","coordinates":[121.572847,31.122406]},"properties":{"town":"浦东新区","published_address":"梓康路51弄","geocoded_address":"上海市浦东新区梓康路51弄","date":1648396800000}},{"type":"Feature","geometry":{"type":"Point","coordinates":[121.735499,31.210609]},"properties":{"town":"浦东新区","published_address":"营房村","geocoded_address":"上海市浦东新区营房村","date":1648396800000}},{"type":"Feature","geometry":{"type":"Point","coordinates":[121.576361,31.121715]},"properties":{"town":"浦东新区","published_address":"公元新村","geocoded_address":"上海市浦东新区公元新村","date":1648396800000}},{"type":"Feature","geometry":{"type":"Point","coordinates":[121.688701,31.086087]},"properties":{"town":"浦东新区","published_address":"连民村","geocoded_address":"上海市浦东新区连民村","date":1648396800000}},{"type":"Feature","geometry":{"type":"Point","coordinates":[121.561787,31.171069]},"properties":{"town":"浦东新区","published_address":"高青路4567弄","geocoded_address":"上海市浦东新区高青路4567弄","date":1648396800000}},{"type":"Feature","geometry":{"type":"Point","coordinates":[121.542023,31.173295]},"properties":{"town":"浦东新区","published_address":"下南路551弄","geocoded_address":"上海市浦东新区下南路551弄","date":1648396800000}},{"type":"Feature","geometry":{"type":"Point","coordinates":[121.53039,31.16978]},"properties":{"town":"浦东新区","published_address":"新浦路673弄","geocoded_address":"上海市浦东新区新浦路673弄","date":1648396800000}},{"type":"Feature","geometry":{"type":"Point","coordinates":[121.53039,31.16978]},"properties":{"town":"浦东新区","published_address":"新浦路543弄","geocoded_address":"上海市浦东新区新浦路543弄","date":1648396800000}},{"type":"Feature","geometry":{"type":"Point","coordinates":[121.567272,31.155485]},"properties":{"town":"浦东新区","published_address":"御山路360弄","geocoded_address":"上海市浦东新区御山路360弄","date":1648396800000}},{"type":"Feature","geometry":{"type":"Point","coordinates":[121.582983,31.16147]},"properties":{"town":"浦东新区","published_address":"卫行村朱家队朱家宅","geocoded_address":"上海市浦东新区卫行村朱家队朱家宅","date":1648396800000}},{"type":"Feature","geometry":{"type":"Point","coordinates":[121.568052,31.153236]},"properties":{"town":"浦东新区","published_address":"京浦路160弄","geocoded_address":"上海市浦东新区京浦路160弄","date":1648396800000}},{"type":"Feature","geometry":{"type":"Point","coordinates":[121.529838,31.167906]},"properties":{"town":"浦东新区","published_address":"新浦路587弄","geocoded_address":"上海市浦东新区新浦路587弄","date":1648396800000}},{"type":"Feature","geometry":{"type":"Point","coordinates":[121.554665,31.175325]},"properties":{"town":"浦东新区","published_address":"鹏飞路51弄","geocoded_address":"上海市浦东新区鹏飞路51弄","date":1648396800000}},{"type":"Feature","geometry":{"type":"Point","coordinates":[121.560259,31.175747]},"properties":{"town":"浦东新区","published_address":"陈春东路99弄","geocoded_address":"上海市浦东新区陈春东路99弄","date":1648396800000}},{"type":"Feature","geometry":{"type":"Point","coordinates":[121.569758,31.155798]},"properties":{"town":"浦东新区","published_address":"御山路347弄","geocoded_address":"上海市浦东新区御山路347弄","date":1648396800000}},{"type":"Feature","geometry":{"type":"Point","coordinates":[121.565403,31.152818]},"properties":{"town":"浦东新区","published_address":"京浦路82弄","geocoded_address":"上海市浦东新区京浦路82弄","date":1648396800000}},{"type":"Feature","geometry":{"type":"Point","coordinates":[121.54262,31.169586]},"properties":{"town":"浦东新区","published_address":"下南路339弄","geocoded_address":"上海市浦东新区下南路339弄","date":1648396800000}},{"type":"Feature","geometry":{"type":"Point","coordinates":[121.559846,31.186811]},"properties":{"town":"浦东新区","published_address":"莲溪路126弄","geocoded_address":"上海市浦东新区莲溪路126弄","date":1648396800000}},{"type":"Feature","geometry":{"type":"Point","coordinates":[121.58158,31.164629]},"properties":{"town":"浦东新区","published_address":"华夏西路5758号","geocoded_address":"上海市浦东新区华夏西路|5758","date":1648396800000}},{"type":"Feature","geometry":{"type":"Point","coordinates":[121.567638,31.191891]},"properties":{"town":"浦东新区","published_address":"五星村陈家队陈家宅","geocoded_address":"上海市浦东新区五星村陈家队陈家宅","date":1648396800000}},{"type":"Feature","geometry":{"type":"Point","coordinates":[121.546252,31.183663]},"properties":{"town":"浦东新区","published_address":"博华路237弄","geocoded_address":"上海市浦东新区博华路237弄","date":1648396800000}},{"type":"Feature","geometry":{"type":"Point","coordinates":[121.548341,31.166473]},"properties":{"town":"浦东新区","published_address":"卫行村张家宅","geocoded_address":"上海市浦东新区张家宅","date":1648396800000}},{"type":"Feature","geometry":{"type":"Point","coordinates":[121.570764,31.142136]},"properties":{"town":"浦东新区","published_address":"秀康路958弄","geocoded_address":"上海市浦东新区秀康路958弄","date":1648396800000}},{"type":"Feature","geometry":{"type":"Point","coordinates":[121.56445,31.175563]},"properties":{"town":"浦东新区","published_address":"五星路239弄","geocoded_address":"上海市浦东新区五星路239弄","date":1648396800000}},{"type":"Feature","geometry":{"type":"Point","coordinates":[121.532387,31.148785]},"properties":{"town":"浦东新区","published_address":"御桥路360弄","geocoded_address":"上海市浦东新区御桥路","date":1648396800000}},{"type":"Feature","geometry":{"type":"Point","coordinates":[121.498101,31.162353]},"properties":{"town":"浦东新区","published_address":"上南路3039号","geocoded_address":"上海市浦东新区上南路3039号","date":1648396800000}},{"type":"Feature","geometry":{"type":"Point","coordinates":[121.554829,31.169874]},"properties":{"town":"浦东新区","published_address":"杨莲路171号","geocoded_address":"上海市浦东新区杨莲路171号","date":1648396800000}},{"type":"Feature","geometry":{"type":"Point","coordinates":[121.535201,31.165057]},"properties":{"town":"浦东新区","published_address":"东书房路390弄","geocoded_address":"上海市浦东新区东书房路390弄","date":1648396800000}},{"type":"Feature","geometry":{"type":"Point","coordinates":[121.621903,31.289664]},"properties":{"town":"浦东新区","published_address":"高宝路300弄","geocoded_address":"上海市浦东新区高宝路300弄","date":1648396800000}},{"type":"Feature","geometry":{"type":"Point","coordinates":[121.554022,31.169589]},"properties":{"town":"浦东新区","published_address":"杨莲路131号","geocoded_address":"上海市浦东新区杨莲路|131","date":1648396800000}},{"type":"Feature","geometry":{"type":"Point","coordinates":[121.547503,31.170084]},"properties":{"town":"浦东新区","published_address":"绿林路320弄","geocoded_address":"上海市浦东新区绿林路320弄","date":1648396800000}},{"type":"Feature","geometry":{"type":"Point","coordinates":[121.521789,31.199175]},"properties":{"town":"浦东新区","published_address":"东方路1881弄","geocoded_address":"上海市浦东新区东方路1881弄","date":1648396800000}},{"type":"Feature","geometry":{"type":"Point","coordinates":[121.544662,31.145454]},"properties":{"town":"浦东新区","published_address":"永泰路2080弄","geocoded_address":"上海市浦东新区永泰路2080弄","date":1648396800000}},{"type":"Feature","geometry":{"type":"Point","coordinates":[121.528549,31.161482]},"properties":{"town":"浦东新区","published_address":"高青路2861弄","geocoded_address":"上海市浦东新区高青路2861弄","date":1648396800000}},{"type":"Feature","geometry":{"type":"Point","coordinates":[121.726176,31.086106]},"properties":{"town":"浦东新区","published_address":"宣春路201号","geocoded_address":"上海市浦东新区宣春路201号","date":1648396800000}},{"type":"Feature","geometry":{"type":"Point","coordinates":[121.374479,31.427947]},"properties":{"town":"浦东新区","published_address":"光明村","geocoded_address":"上海市宝山区光明村","date":1648396800000}},{"type":"Feature","geometry":{"type":"Point","coordinates":[121.566124,31.192456]},"properties":{"town":"浦东新区","published_address":"中界村陈家队陈家宅","geocoded_address":"上海市浦东新区中界村陈家队陈家宅","date":1648396800000}},{"type":"Feature","geometry":{"type":"Point","coordinates":[121.572289,31.161036]},"properties":{"town":"浦东新区","published_address":"御水路150弄","geocoded_address":"上海市浦东新区御水路150弄","date":1648396800000}},{"type":"Feature","geometry":{"type":"Point","coordinates":[121.513748,31.193316]},"properties":{"town":"浦东新区","published_address":"东方路3344弄","geocoded_address":"上海市浦东新区东方路3344弄","date":1648396800000}},{"type":"Feature","geometry":{"type":"Point","coordinates":[121.578657,31.338421]},"properties":{"town":"浦东新区","published_address":"莱阳路4288弄","geocoded_address":"上海市浦东新区莱阳路4288弄","date":1648396800000}},{"type":"Feature","geometry":{"type":"Point","coordinates":[121.907584,30.953003]},"properties":{"town":"浦东新区","published_address":"三三公路5020弄","geocoded_address":"上海市浦东新区三三公路5020弄","date":1648396800000}},{"type":"Feature","geometry":{"type":"Point","coordinates":[121.513629,31.192742]},"properties":{"town":"浦东新区","published_address":"浦三路288弄","geocoded_address":"上海市浦东新区浦三路288弄","date":1648396800000}},{"type":"Feature","geometry":{"type":"Point","coordinates":[121.66886,31.211369]},"properties":{"town":"浦东新区","published_address":"创新中路593弄","geocoded_address":"上海市浦东新区创新中路593弄","date":1648396800000}},{"type":"Feature","geometry":{"type":"Point","coordinates":[121.655853,31.202614]},"properties":{"town":"浦东新区","published_address":"创新西路75弄","geocoded_address":"上海市浦东新区创新西路75弄","date":1648396800000}},{"type":"Feature","geometry":{"type":"Point","coordinates":[121.505373,31.15926]},"properties":{"town":"浦东新区","published_address":"海阳路1065弄","geocoded_address":"上海市浦东新区海阳路1065弄","date":1648396800000}},{"type":"Feature","geometry":{"type":"Point","coordinates":[121.518632,31.234973]},"properties":{"town":"浦东新区","published_address":"崂山三村","geocoded_address":"上海市浦东新区崂山三村","date":1648396800000}},{"type":"Feature","geometry":{"type":"Point","coordinates":[121.398941,31.300546]},"properties":{"town":"浦东新区","published_address":"栖霞路190弄","geocoded_address":"上海市宝山区190弄","date":1648396800000}},{"type":"Feature","geometry":{"type":"Point","coordinates":[121.546001,31.179508]},"properties":{"town":"浦东新区","published_address":"成山路2388弄","geocoded_address":"上海市浦东新区成山路2388弄","date":1648396800000}},{"type":"Feature","geometry":{"type":"Point","coordinates":[121.534948,31.171809]},"properties":{"town":"浦东新区","published_address":"新浦路380弄","geocoded_address":"上海市浦东新区新浦路380弄","date":1648396800000}},{"type":"Feature","geometry":{"type":"Point","coordinates":[121.534702,31.171781]},"properties":{"town":"浦东新区","published_address":"新浦路350弄","geocoded_address":"上海市浦东新区新浦路350弄","date":1648396800000}},{"type":"Feature","geometry":{"type":"Point","coordinates":[121.5128,31.148137]},"properties":{"town":"浦东新区","published_address":"云台路1800号","geocoded_address":"上海市浦东新区云台路1800号","date":1648396800000}},{"type":"Feature","geometry":{"type":"Point","coordinates":[121.568585,31.342882]},"properties":{"town":"浦东新区","published_address":"五星村徐家队顾家宅","geocoded_address":"上海市浦东新区顾家宅","date":1648396800000}},{"type":"Feature","geometry":{"type":"Point","coordinates":[121.614444,31.214303]},"properties":{"town":"浦东新区","published_address":"香楠路399弄","geocoded_address":"上海市浦东新区香楠路399弄","date":1648396800000}},{"type":"Feature","geometry":{"type":"Point","coordinates":[121.532687,31.190517]},"properties":{"town":"浦东新区","published_address":"严中路173弄","geocoded_address":"上海市浦东新区严中路173弄","date":1648396800000}},{"type":"Feature","geometry":{"type":"Point","coordinates":[121.517926,31.180596]},"properties":{"town":"浦东新区","published_address":"昌里东路738号","geocoded_address":"上海市浦东新区昌里东路738号","date":1648396800000}},{"type":"Feature","geometry":{"type":"Point","coordinates":[121.533069,31.122657]},"properties":{"town":"浦东新区","published_address":"天花庵村闵北队闵家宅","geocoded_address":"上海市浦东新区闵北队闵家宅","date":1648396800000}},{"type":"Feature","geometry":{"type":"Point","coordinates":[121.593013,31.157935]},"properties":{"town":"浦东新区","published_address":"钱堂村新立宅","geocoded_address":"上海市浦东新区钱堂村新立宅","date":1648396800000}},{"type":"Feature","geometry":{"type":"Point","coordinates":[121.577463,31.154506]},"properties":{"town":"浦东新区","published_address":"御水路555弄","geocoded_address":"上海市浦东新区御水路555弄","date":1648396800000}},{"type":"Feature","geometry":{"type":"Point","coordinates":[121.571506,31.152805]},"properties":{"town":"浦东新区","published_address":"御青路918弄","geocoded_address":"上海市浦东新区御青路918弄","date":1648396800000}},{"type":"Feature","geometry":{"type":"Point","coordinates":[121.598803,31.127174]},"properties":{"town":"浦东新区","published_address":"康弘路580弄","geocoded_address":"上海市浦东新区康弘路580弄","date":1648396800000}},{"type":"Feature","geometry":{"type":"Point","coordinates":[121.513046,31.195034]},"properties":{"town":"浦东新区","published_address":"临沂路451弄","geocoded_address":"上海市浦东新区临沂路","date":1648396800000}},{"type":"Feature","geometry":{"type":"Point","coordinates":[121.686937,31.188723]},"properties":{"town":"浦东新区","published_address":"新川路995弄","geocoded_address":"上海市浦东新区新川路995弄","date":1648396800000}},{"type":"Feature","geometry":{"type":"Point","coordinates":[121.487783,31.15899]},"properties":{"town":"浦东新区","published_address":"西营南路68弄","geocoded_address":"上海市浦东新区西营南路68弄","date":1648396800000}},{"type":"Feature","geometry":{"type":"Point","coordinates":[121.516112,31.118917]},"properties":{"town":"浦东新区","published_address":"懿德村吴家队","geocoded_address":"上海市浦东新区懿德村","date":1648396800000}},{"type":"Feature","geometry":{"type":"Point","coordinates":[121.526629,31.124134]},"properties":{"town":"浦东新区","published_address":"天花庵村芦家队芦家油车","geocoded_address":"上海市浦东新区芦家油车","date":1648396800000}},{"type":"Feature","geometry":{"type":"Point","coordinates":[121.516112,31.118917]},"properties":{"town":"浦东新区","published_address":"懿德村小陈家队","geocoded_address":"上海市浦东新区懿德村","date":1648396800000}},{"type":"Feature","geometry":{"type":"Point","coordinates":[121.516307,31.120637]},"properties":{"town":"浦东新区","published_address":"懿德村康家队","geocoded_address":"上海市浦东新区懿德村康家队","date":1648396800000}},{"type":"Feature","geometry":{"type":"Point","coordinates":[121.516112,31.118917]},"properties":{"town":"浦东新区","published_address":"懿德村钱家队","geocoded_address":"上海市浦东新区懿德村","date":1648396800000}},{"type":"Feature","geometry":{"type":"Point","coordinates":[121.529306,31.194858]},"properties":{"town":"浦东新区","published_address":"严杨路165弄","geocoded_address":"上海市浦东新区严杨路165弄","date":1648396800000}},{"type":"Feature","geometry":{"type":"Point","coordinates":[121.530852,31.194902]},"properties":{"town":"浦东新区","published_address":"严中路47弄","geocoded_address":"上海市浦东新区严中路47弄","date":1648396800000}},{"type":"Feature","geometry":{"type":"Point","coordinates":[121.713388,31.094767]},"properties":{"town":"浦东新区","published_address":"会龙村","geocoded_address":"上海市浦东新区会龙村","date":1648396800000}},{"type":"Feature","geometry":{"type":"Point","coordinates":[121.557363,31.171562]},"properties":{"town":"浦东新区","published_address":"鹏飞路333弄","geocoded_address":"上海市浦东新区鹏飞路333弄","date":1648396800000}},{"type":"Feature","geometry":{"type":"Point","coordinates":[121.535798,31.188135]},"properties":{"town":"浦东新区","published_address":"高科西路2111弄","geocoded_address":"上海市浦东新区高科西路2111弄","date":1648396800000}},{"type":"Feature","geometry":{"type":"Point","coordinates":[121.554296,31.189313]},"properties":{"town":"浦东新区","published_address":"高科西路2757弄","geocoded_address":"上海市浦东新区高科西路2757弄","date":1648396800000}},{"type":"Feature","geometry":{"type":"Point","coordinates":[121.521409,31.18907]},"properties":{"town":"浦东新区","published_address":"中界村沈家队沈家宅","geocoded_address":"上海市浦东新区中界村沈家宅","date":1648396800000}},{"type":"Feature","geometry":{"type":"Point","coordinates":[121.539472,31.17009]},"properties":{"town":"浦东新区","published_address":"下南路370弄","geocoded_address":"上海市浦东新区下南路370弄","date":1648396800000}},{"type":"Feature","geometry":{"type":"Point","coordinates":[121.56003,31.194874]},"properties":{"town":"浦东新区","published_address":"芳华路478弄","geocoded_address":"上海市浦东新区芳华路478弄","date":1648396800000}},{"type":"Feature","geometry":{"type":"Point","coordinates":[121.507174,31.158938]},"properties":{"town":"浦东新区","published_address":"海阳路1125弄","geocoded_address":"上海市浦东新区海阳路1125弄","date":1648396800000}},{"type":"Feature","geometry":{"type":"Point","coordinates":[121.531224,31.165656]},"properties":{"town":"浦东新区","published_address":"板泉路2000弄","geocoded_address":"上海市浦东新区板泉路2000弄","date":1648396800000}},{"type":"Feature","geometry":{"type":"Point","coordinates":[121.526218,31.158549]},"properties":{"town":"浦东新区","published_address":"杨高南路4501弄","geocoded_address":"上海市浦东新区杨高南路4501弄","date":1648396800000}},{"type":"Feature","geometry":{"type":"Point","coordinates":[121.530263,31.158072]},"properties":{"town":"浦东新区","published_address":"盛苑路777弄","geocoded_address":"上海市浦东新区盛苑路777弄","date":1648396800000}},{"type":"Feature","geometry":{"type":"Point","coordinates":[121.508211,31.229795]},"properties":{"town":"浦东新区","published_address":"浦城路99弄","geocoded_address":"上海市浦东新区浦城路99弄","date":1648396800000}},{"type":"Feature","geometry":{"type":"Point","coordinates":[121.795539,30.985474]},"properties":{"town":"浦东新区","published_address":"一六村金桥队赵家宅","geocoded_address":"上海市浦东新区金桥","date":1648396800000}},{"type":"Feature","geometry":{"type":"Point","coordinates":[121.527329,31.178994]},"properties":{"town":"浦东新区","published_address":"华春路100弄","geocoded_address":"上海市浦东新区华春路100弄","date":1648396800000}},{"type":"Feature","geometry":{"type":"Point","coordinates":[121.554284,31.185459]},"properties":{"town":"浦东新区","published_address":"莲园路508弄","geocoded_address":"上海市浦东新区莲园路","date":1648396800000}},{"type":"Feature","geometry":{"type":"Point","coordinates":[121.573025,31.185266]},"properties":{"town":"浦东新区","published_address":"中界村黄家队黄家宅","geocoded_address":"上海市浦东新区黄家队黄家宅","date":1648396800000}},{"type":"Feature","geometry":{"type":"Point","coordinates":[121.582788,31.164487]},"properties":{"town":"浦东新区","published_address":"一六村西王家宅","geocoded_address":"上海市浦东新区一六村王家宅","date":1648396800000}},{"type":"Feature","geometry":{"type":"Point","coordinates":[121.583051,31.164428]},"properties":{"town":"浦东新区","published_address":"卫行路30号","geocoded_address":"上海市浦东新区卫行路|30号","date":1648396800000}},{"type":"Feature","geometry":{"type":"Point","coordinates":[121.495207,31.157828]},"properties":{"town":"浦东新区","published_address":"灵岩南路251号","geocoded_address":"上海市浦东新区灵岩南路251号","date":1648396800000}},{"type":"Feature","geometry":{"type":"Point","coordinates":[121.477866,31.119347]},"properties":{"town":"浦东新区","published_address":"临江村太保堂队太保堂","geocoded_address":"上海市浦东新区太保堂","date":1648396800000}},{"type":"Feature","geometry":{"type":"Point","coordinates":[121.589854,31.144231]},"properties":{"town":"浦东新区","published_address":"沿北村","geocoded_address":"上海市浦东新区沿北村","date":1648396800000}},{"type":"Feature","geometry":{"type":"Point","coordinates":[121.566093,31.146186]},"properties":{"town":"浦东新区","published_address":"康士路2弄","geocoded_address":"上海市浦东新区康士路2弄","date":1648396800000}},{"type":"Feature","geometry":{"type":"Point","coordinates":[121.582189,31.150764]},"properties":{"town":"浦东新区","published_address":"康桥路90弄","geocoded_address":"上海市浦东新区康桥路","date":1648396800000}},{"type":"Feature","geometry":{"type":"Point","coordinates":[121.549112,31.148377]},"properties":{"town":"浦东新区","published_address":"花墙村","geocoded_address":"上海市浦东新区花墙村","date":1648396800000}},{"type":"Feature","geometry":{"type":"Point","coordinates":[121.564691,31.146628]},"properties":{"town":"浦东新区","published_address":"康士路1弄","geocoded_address":"上海市浦东新区康士路1弄","date":1648396800000}},{"type":"Feature","geometry":{"type":"Point","coordinates":[121.573657,31.151183]},"properties":{"town":"浦东新区","published_address":"御青路1051号","geocoded_address":"上海市浦东新区御青路1051号","date":1648396800000}},{"type":"Feature","geometry":{"type":"Point","coordinates":[121.567411,31.140086]},"properties":{"town":"浦东新区","published_address":"沪南路3468弄","geocoded_address":"上海市浦东新区沪南路3468弄","date":1648396800000}},{"type":"Feature","geometry":{"type":"Point","coordinates":[121.492209,31.162979]},"properties":{"town":"浦东新区","published_address":"杨新路197弄","geocoded_address":"上海市浦东新区杨新路197弄","date":1648396800000}},{"type":"Feature","geometry":{"type":"Point","coordinates":[121.547017,31.118012]},"properties":{"town":"浦东新区","published_address":"渡桥路78弄","geocoded_address":"上海市浦东新区渡桥路78弄","date":1648396800000}},{"type":"Feature","geometry":{"type":"Point","coordinates":[121.537927,31.239501]},"properties":{"town":"浦东新区","published_address":"桃林路299弄","geocoded_address":"上海市浦东新区桃林路299弄","date":1648396800000}},{"type":"Feature","geometry":{"type":"Point","coordinates":[121.478618,31.148701]},"properties":{"town":"浦东新区","published_address":"江高路118弄","geocoded_address":"上海市浦东新区江高路118弄","date":1648396800000}},{"type":"Feature","geometry":{"type":"Point","coordinates":[121.496484,31.164257]},"properties":{"town":"浦东新区","published_address":"新村路59弄","geocoded_address":"上海市浦东新区新村路59弄","date":1648396800000}},{"type":"Feature","geometry":{"type":"Point","coordinates":[121.564109,31.19639]},"properties":{"town":"浦东新区","published_address":"芳华路630弄","geocoded_address":"上海市浦东新区芳华路630弄","date":1648396800000}},{"type":"Feature","geometry":{"type":"Point","coordinates":[121.616303,31.128098]},"properties":{"town":"浦东新区","published_address":"叠桥村","geocoded_address":"上海市浦东新区叠桥村","date":1648396800000}},{"type":"Feature","geometry":{"type":"Point","coordinates":[121.59613,31.154926]},"properties":{"town":"浦东新区","published_address":"韩钱路立达宅","geocoded_address":"上海市浦东新区韩钱路立达宅","date":1648396800000}},{"type":"Feature","geometry":{"type":"Point","coordinates":[121.693165,31.194399]},"properties":{"town":"浦东新区","published_address":"城西路195弄","geocoded_address":"上海市浦东新区城西路195弄","date":1648396800000}},{"type":"Feature","geometry":{"type":"Point","coordinates":[121.745999,31.040209]},"properties":{"town":"浦东新区","published_address":"通济路220弄","geocoded_address":"上海市浦东新区通济路","date":1648396800000}},{"type":"Feature","geometry":{"type":"Point","coordinates":[121.750057,31.001402]},"properties":{"town":"浦东新区","published_address":"扶栏村","geocoded_address":"上海市浦东新区扶栏村","date":1648396800000}},{"type":"Feature","geometry":{"type":"Point","coordinates":[121.748885,31.051614]},"properties":{"town":"浦东新区","published_address":"城西路377弄","geocoded_address":"上海市浦东新区城西路377弄","date":1648396800000}},{"type":"Feature","geometry":{"type":"Point","coordinates":[121.803461,31.04042]},"properties":{"town":"浦东新区","published_address":"远东村","geocoded_address":"上海市浦东新区远东村","date":1648396800000}},{"type":"Feature","geometry":{"type":"Point","coordinates":[121.50581,31.1649]},"properties":{"town":"浦东新区","published_address":"杨思路1121弄","geocoded_address":"上海市浦东新区杨思路1121弄","date":1648396800000}},{"type":"Feature","geometry":{"type":"Point","coordinates":[121.548926,31.207332]},"properties":{"town":"浦东新区","published_address":"牡丹路258弄","geocoded_address":"上海市浦东新区牡丹路258弄","date":1648396800000}},{"type":"Feature","geometry":{"type":"Point","coordinates":[121.766396,31.089088]},"properties":{"town":"浦东新区","published_address":"虹一村","geocoded_address":"上海市浦东新区虹一村","date":1648396800000}},{"type":"Feature","geometry":{"type":"Point","coordinates":[121.608178,31.285951]},"properties":{"town":"浦东新区","published_address":"金高路988弄","geocoded_address":"上海市浦东新区金高路988弄","date":1648396800000}},{"type":"Feature","geometry":{"type":"Point","coordinates":[121.563577,31.197153]},"properties":{"town":"浦东新区","published_address":"芳华路713弄","geocoded_address":"上海市浦东新区芳华路713弄","date":1648396800000}},{"type":"Feature","geometry":{"type":"Point","coordinates":[121.556822,31.222357]},"properties":{"town":"浦东新区","published_address":"锦绣路666弄","geocoded_address":"上海市浦东新区锦绣路666弄","date":1648396800000}},{"type":"Feature","geometry":{"type":"Point","coordinates":[121.568783,31.122739]},"properties":{"town":"浦东新区","published_address":"梓康路188弄","geocoded_address":"上海市浦东新区梓康路188弄","date":1648396800000}},{"type":"Feature","geometry":{"type":"Point","coordinates":[121.808693,31.028049]},"properties":{"town":"浦东新区","published_address":"天庵村西瞿队瞿家宅","geocoded_address":"上海市浦东新区瞿家宅","date":1648396800000}},{"type":"Feature","geometry":{"type":"Point","coordinates":[121.778241,31.02155]},"properties":{"town":"浦东新区","published_address":"团结村","geocoded_address":"上海市浦东新区团结村","date":1648396800000}},{"type":"Feature","geometry":{"type":"Point","coordinates":[121.763178,31.051066]},"properties":{"town":"浦东新区","published_address":"城东路312号","geocoded_address":"上海市浦东新区城东路312号","date":1648396800000}},{"type":"Feature","geometry":{"type":"Point","coordinates":[121.71469,31.030308]},"properties":{"town":"浦东新区","published_address":"徐庙村","geocoded_address":"上海市浦东新区徐庙村","date":1648396800000}},{"type":"Feature","geometry":{"type":"Point","coordinates":[121.510443,31.199267]},"properties":{"town":"浦东新区","published_address":"东三里桥路160弄","geocoded_address":"上海市浦东新区东三里桥路160弄","date":1648396800000}},{"type":"Feature","geometry":{"type":"Point","coordinates":[121.645215,31.028606]},"properties":{"town":"浦东新区","published_address":"港东街32弄","geocoded_address":"上海市浦东新区港东街32弄","date":1648396800000}},{"type":"Feature","geometry":{"type":"Point","coordinates":[121.780727,31.042309]},"properties":{"town":"浦东新区","published_address":"城南路1385弄","geocoded_address":"上海市浦东新区城南路1385弄","date":1648396800000}},{"type":"Feature","geometry":{"type":"Point","coordinates":[121.52231,31.239233]},"properties":{"town":"浦东新区","published_address":"梅园三村","geocoded_address":"上海市浦东新区梅园三村","date":1648396800000}},{"type":"Feature","geometry":{"type":"Point","coordinates":[121.521994,31.238092]},"properties":{"town":"浦东新区","published_address":"栖霞路286号","geocoded_address":"上海市浦东新区栖霞路286号","date":1648396800000}},{"type":"Feature","geometry":{"type":"Point","coordinates":[121.504446,31.242687]},"properties":{"town":"浦东新区","published_address":"陆家嘴环路1288号","geocoded_address":"上海市浦东新区陆家嘴环路|1288号","date":1648396800000}},{"type":"Feature","geometry":{"type":"Point","coordinates":[121.523695,31.236522]},"properties":{"town":"浦东新区","published_address":"福山路40弄","geocoded_address":"上海市浦东新区福山路40弄","date":1648396800000}},{"type":"Feature","geometry":{"type":"Point","coordinates":[121.504261,31.134527]},"properties":{"town":"浦东新区","published_address":"永泰路136弄","geocoded_address":"上海市浦东新区永泰路136弄","date":1648396800000}},{"type":"Feature","geometry":{"type":"Point","coordinates":[121.757907,31.043401]},"properties":{"town":"浦东新区","published_address":"卫星东路113弄","geocoded_address":"上海市浦东新区卫星东路113弄","date":1648396800000}},{"type":"Feature","geometry":{"type":"Point","coordinates":[121.530758,31.193408]},"properties":{"town":"浦东新区","published_address":"严中路140弄","geocoded_address":"上海市浦东新区严中路140弄","date":1648396800000}},{"type":"Feature","geometry":{"type":"Point","coordinates":[121.502575,31.166051]},"properties":{"town":"浦东新区","published_address":"杨新东路116号","geocoded_address":"上海市浦东新区杨新东路116-120号","date":1648396800000}},{"type":"Feature","geometry":{"type":"Point","coordinates":[121.595918,31.2707]},"properties":{"town":"浦东新区","published_address":"东陆路1182弄","geocoded_address":"上海市浦东新区东陆路1182弄","date":1648396800000}},{"type":"Feature","geometry":{"type":"Point","coordinates":[121.608091,31.157408]},"properties":{"town":"浦东新区","published_address":"钱塘村","geocoded_address":"上海市浦东新区钱塘村","date":1648396800000}},{"type":"Feature","geometry":{"type":"Point","coordinates":[121.590405,31.27201]},"properties":{"town":"浦东新区","published_address":"菏泽路88号","geocoded_address":"上海市浦东新区菏泽路88号","date":1648396800000}},{"type":"Feature","geometry":{"type":"Point","coordinates":[121.569901,31.34476]},"properties":{"town":"浦东新区","published_address":"和龙路371弄","geocoded_address":"上海市浦东新区和龙路371弄","date":1648396800000}},{"type":"Feature","geometry":{"type":"Point","coordinates":[121.739943,31.140378]},"properties":{"town":"浦东新区","published_address":"闻六路吴家宅","geocoded_address":"上海市浦东新区闻六路","date":1648396800000}},{"type":"Feature","geometry":{"type":"Point","coordinates":[121.605285,31.099961]},"properties":{"town":"浦东新区","published_address":"周秀路118弄","geocoded_address":"上海市浦东新区周秀路118弄","date":1648396800000}},{"type":"Feature","geometry":{"type":"Point","coordinates":[121.670771,31.205599]},"properties":{"town":"浦东新区","published_address":"顾唐路3281弄","geocoded_address":"上海市浦东新区顾唐路3281弄","date":1648396800000}},{"type":"Feature","geometry":{"type":"Point","coordinates":[121.917494,30.883939]},"properties":{"town":"浦东新区","published_address":"古棕路168弄","geocoded_address":"上海市浦东新区古棕路168弄","date":1648396800000}},{"type":"Feature","geometry":{"type":"Point","coordinates":[121.769073,31.194157]},"properties":{"town":"浦东新区","published_address":"陈胡村","geocoded_address":"上海市浦东新区陈胡村","date":1648396800000}},{"type":"Feature","geometry":{"type":"Point","coordinates":[121.575189,31.347835]},"properties":{"town":"浦东新区","published_address":"花山路609弄","geocoded_address":"上海市浦东新区花山路609弄","date":1648396800000}},{"type":"Feature","geometry":{"type":"Point","coordinates":[121.556813,31.246074]},"properties":{"town":"浦东新区","published_address":"博山路12弄","geocoded_address":"上海市浦东新区博山路12弄","date":1648396800000}},{"type":"Feature","geometry":{"type":"Point","coordinates":[121.588575,31.327729]},"properties":{"town":"浦东新区","published_address":"行南路900弄","geocoded_address":"上海市浦东新区行南路900弄","date":1648396800000}},{"type":"Feature","geometry":{"type":"Point","coordinates":[121.525974,31.221979]},"properties":{"town":"浦东新区","published_address":"崂山路644弄","geocoded_address":"上海市浦东新区崂山路644弄","date":1648396800000}},{"type":"Feature","geometry":{"type":"Point","coordinates":[121.517237,31.23719]},"properties":{"town":"浦东新区","published_address":"崂山路502号","geocoded_address":"上海市浦东新区崂山路502号","date":1648396800000}},{"type":"Feature","geometry":{"type":"Point","coordinates":[121.49832,31.158529]},"properties":{"town":"浦东新区","published_address":"上南路3300号","geocoded_address":"上海市浦东新区上南路3300号","date":1648396800000}},{"type":"Feature","geometry":{"type":"Point","coordinates":[121.603124,31.116215]},"properties":{"town":"浦东新区","published_address":"海尚乐苑","geocoded_address":"上海市浦东新区海尚乐苑","date":1648396800000}},{"type":"Feature","geometry":{"type":"Point","coordinates":[121.508239,31.192262]},"properties":{"town":"浦东新区","published_address":"华丰路51弄","geocoded_address":"上海市浦东新区华丰路51弄","date":1648396800000}},{"type":"Feature","geometry":{"type":"Point","coordinates":[121.523696,31.220026]},"properties":{"town":"浦东新区","published_address":"潍坊五村","geocoded_address":"上海市浦东新区潍坊五村","date":1648396800000}},{"type":"Feature","geometry":{"type":"Point","coordinates":[121.561527,31.151713]},"properties":{"town":"浦东新区","published_address":"康杉路359弄","geocoded_address":"上海市浦东新区康杉路359弄","date":1648396800000}},{"type":"Feature","geometry":{"type":"Point","coordinates":[121.548216,31.239619]},"properties":{"town":"浦东新区","published_address":"张杨路1811弄","geocoded_address":"上海市浦东新区张杨路1811弄","date":1648396800000}},{"type":"Feature","geometry":{"type":"Point","coordinates":[121.5437,31.238086]},"properties":{"town":"浦东新区","published_address":"沈家弄路810弄","geocoded_address":"上海市浦东新区沈家弄路810弄","date":1648396800000}},{"type":"Feature","geometry":{"type":"Point","coordinates":[121.525775,31.219702]},"properties":{"town":"浦东新区","published_address":"浦电路307号","geocoded_address":"上海市浦东新区浦电路307号","date":1648396800000}},{"type":"Feature","geometry":{"type":"Point","coordinates":[121.60567,31.297167]},"properties":{"town":"浦东新区","published_address":"金高路58弄","geocoded_address":"上海市浦东新区金高路58弄","date":1648396800000}},{"type":"Feature","geometry":{"type":"Point","coordinates":[121.691285,31.197754]},"properties":{"town":"浦东新区","published_address":"新德路602弄","geocoded_address":"上海市浦东新区新德路602弄","date":1648396800000}},{"type":"Feature","geometry":{"type":"Point","coordinates":[121.592419,31.241594]},"properties":{"town":"浦东新区","published_address":"红枫路358弄","geocoded_address":"上海市浦东新区红枫路358弄","date":1648396800000}},{"type":"Feature","geometry":{"type":"Point","coordinates":[121.611021,31.25744]},"properties":{"town":"浦东新区","published_address":"金沪路97号","geocoded_address":"上海市浦东新区金沪路97号","date":1648396800000}},{"type":"Feature","geometry":{"type":"Point","coordinates":[121.599766,31.251189]},"properties":{"town":"浦东新区","published_address":"浙桥路200号","geocoded_address":"上海市浦东新区浙桥路200号","date":1648396800000}},{"type":"Feature","geometry":{"type":"Point","coordinates":[121.575599,31.269441]},"properties":{"town":"浦东新区","published_address":"浦东大道2778弄","geocoded_address":"上海市浦东新区浦东大道2778弄","date":1648396800000}},{"type":"Feature","geometry":{"type":"Point","coordinates":[121.680159,31.166252]},"properties":{"town":"浦东新区","published_address":"跃丰村王家宅","geocoded_address":"上海市浦东新区王家宅","date":1648396800000}},{"type":"Feature","geometry":{"type":"Point","coordinates":[121.590356,31.270819]},"properties":{"town":"浦东新区","published_address":"五莲路759弄","geocoded_address":"上海市浦东新区五莲路759弄","date":1648396800000}},{"type":"Feature","geometry":{"type":"Point","coordinates":[121.527175,31.124859]},"properties":{"town":"浦东新区","published_address":"上南路5588号","geocoded_address":"上海市浦东新区上南路5588号","date":1648396800000}},{"type":"Feature","geometry":{"type":"Point","coordinates":[121.57502,31.125299]},"properties":{"town":"浦东新区","published_address":"康沈路1199弄","geocoded_address":"上海市浦东新区康沈路1199弄","date":1648396800000}},{"type":"Feature","geometry":{"type":"Point","coordinates":[121.549599,31.246675]},"properties":{"town":"浦东新区","published_address":"栖山路401弄","geocoded_address":"上海市浦东新区栖山路401弄","date":1648396800000}},{"type":"Feature","geometry":{"type":"Point","coordinates":[121.550666,31.235299]},"properties":{"town":"浦东新区","published_address":"羽山路801弄","geocoded_address":"上海市浦东新区羽山路801弄","date":1648396800000}},{"type":"Feature","geometry":{"type":"Point","coordinates":[121.531924,31.243578]},"properties":{"town":"浦东新区","published_address":"浦东大道1097弄","geocoded_address":"上海市浦东新区浦东大道1097弄","date":1648396800000}},{"type":"Feature","geometry":{"type":"Point","coordinates":[121.542936,31.244102]},"properties":{"town":"浦东新区","published_address":"巨野路大陆家宅","geocoded_address":"上海市浦东新区巨野路","date":1648396800000}},{"type":"Feature","geometry":{"type":"Point","coordinates":[121.593716,31.114844]},"properties":{"town":"浦东新区","published_address":"年家浜路159弄","geocoded_address":"上海市浦东新区年家浜路159弄","date":1648396800000}},{"type":"Feature","geometry":{"type":"Point","coordinates":[121.495247,31.12628]},"properties":{"town":"浦东新区","published_address":"浦星公路71弄","geocoded_address":"上海市浦东新区浦星公路","date":1648396800000}},{"type":"Feature","geometry":{"type":"Point","coordinates":[121.496178,31.138008]},"properties":{"town":"浦东新区","published_address":"三林路235号","geocoded_address":"上海市浦东新区三林路235号","date":1648396800000}},{"type":"Feature","geometry":{"type":"Point","coordinates":[121.50841,31.12214]},"properties":{"town":"浦东新区","published_address":"林展路422弄","geocoded_address":"上海市浦东新区林展路422弄","date":1648396800000}},{"type":"Feature","geometry":{"type":"Point","coordinates":[121.680159,31.166252]},"properties":{"town":"浦东新区","published_address":"栏杆村王家宅","geocoded_address":"上海市浦东新区王家宅","date":1648396800000}},{"type":"Feature","geometry":{"type":"Point","coordinates":[121.548341,31.166473]},"properties":{"town":"浦东新区","published_address":"黄楼村张家宅","geocoded_address":"上海市浦东新区张家宅","date":1648396800000}},{"type":"Feature","geometry":{"type":"Point","coordinates":[121.851381,30.999036]},"properties":{"town":"浦东新区","published_address":"栏杆村孙家宅","geocoded_address":"上海市浦东新区孙家宅","date":1648396800000}},{"type":"Feature","geometry":{"type":"Point","coordinates":[121.709725,31.118141]},"properties":{"town":"浦东新区","published_address":"鹿溪村","geocoded_address":"上海市浦东新区鹿溪村","date":1648396800000}},{"type":"Feature","geometry":{"type":"Point","coordinates":[121.636911,31.150577]},"properties":{"town":"浦东新区","published_address":"沔青村","geocoded_address":"上海市浦东新区沔青村","date":1648396800000}},{"type":"Feature","geometry":{"type":"Point","coordinates":[121.564215,31.145559]},"properties":{"town":"浦东新区","published_address":"康杉路608弄","geocoded_address":"上海市浦东新区康杉路608弄","date":1648396800000}},{"type":"Feature","geometry":{"type":"Point","coordinates":[121.582715,31.253974]},"properties":{"town":"浦东新区","published_address":"金杨路785弄","geocoded_address":"上海市浦东新区金杨路785弄","date":1648396800000}},{"type":"Feature","geometry":{"type":"Point","coordinates":[121.557351,31.191075]},"properties":{"town":"浦东新区","published_address":"芳芯路312弄","geocoded_address":"上海市浦东新区芳芯路312弄","date":1648396800000}},{"type":"Feature","geometry":{"type":"Point","coordinates":[121.53147,31.15233]},"properties":{"town":"浦东新区","published_address":"西泰林路158弄","geocoded_address":"上海市浦东新区西泰林路158弄","date":1648396800000}},{"type":"Feature","geometry":{"type":"Point","coordinates":[121.573796,31.154516]},"properties":{"town":"浦东新区","published_address":"御青路999弄","geocoded_address":"上海市浦东新区御青路999弄","date":1648396800000}},{"type":"Feature","geometry":{"type":"Point","coordinates":[121.601444,31.138429]},"properties":{"town":"浦东新区","published_address":"秀沿路2501弄","geocoded_address":"上海市浦东新区秀沿路2501弄","date":1648396800000}},{"type":"Feature","geometry":{"type":"Point","coordinates":[121.540537,31.168696]},"properties":{"town":"浦东新区","published_address":"文汇小区","geocoded_address":"上海市浦东新区文汇小区","date":1648396800000}},{"type":"Feature","geometry":{"type":"Point","coordinates":[121.604826,31.136209]},"properties":{"town":"浦东新区","published_address":"环桥路1136弄","geocoded_address":"上海市浦东新区环桥路1136弄","date":1648396800000}},{"type":"Feature","geometry":{"type":"Point","coordinates":[121.605826,31.136281]},"properties":{"town":"浦东新区","published_address":"汤巷雅苑","geocoded_address":"上海市浦东新区汤巷雅苑","date":1648396800000}},{"type":"Feature","geometry":{"type":"Point","coordinates":[121.548394,31.230818]},"properties":{"town":"浦东新区","published_address":"灵山路708弄","geocoded_address":"上海市浦东新区灵山路708弄","date":1648396800000}},{"type":"Feature","geometry":{"type":"Point","coordinates":[121.561696,31.242188]},"properties":{"town":"浦东新区","published_address":"羽山路1445弄","geocoded_address":"上海市浦东新区羽山路1445弄","date":1648396800000}},{"type":"Feature","geometry":{"type":"Point","coordinates":[121.53501,31.129753]},"properties":{"town":"浦东新区","published_address":"秀沿西路218弄","geocoded_address":"上海市浦东新区秀沿西路218弄","date":1648396800000}},{"type":"Feature","geometry":{"type":"Point","coordinates":[121.548341,31.166473]},"properties":{"town":"浦东新区","published_address":"联勤村张家队张家宅","geocoded_address":"上海市浦东新区张家宅","date":1648396800000}},{"type":"Feature","geometry":{"type":"Point","coordinates":[121.506616,31.157235]},"properties":{"town":"浦东新区","published_address":"海阳路1080弄","geocoded_address":"上海市浦东新区海阳路1080弄","date":1648396800000}},{"type":"Feature","geometry":{"type":"Point","coordinates":[121.559668,31.15053]},"properties":{"town":"浦东新区","published_address":"康杉路151号","geocoded_address":"上海市浦东新区康杉路|151号","date":1648396800000}},{"type":"Feature","geometry":{"type":"Point","coordinates":[121.562722,31.120148]},"properties":{"town":"浦东新区","published_address":"上南路6733弄","geocoded_address":"上海市浦东新区上南路6733弄","date":1648396800000}},{"type":"Feature","geometry":{"type":"Point","coordinates":[121.610968,31.294905]},"properties":{"town":"浦东新区","published_address":"行德路141弄","geocoded_address":"上海市浦东新区行德路141弄","date":1648396800000}},{"type":"Feature","geometry":{"type":"Point","coordinates":[121.857155,30.86739]},"properties":{"town":"浦东新区","published_address":"港辉路308弄","geocoded_address":"上海市浦东新区港辉路308弄","date":1648396800000}},{"type":"Feature","geometry":{"type":"Point","coordinates":[121.819907,30.968155]},"properties":{"town":"浦东新区","published_address":"万六村","geocoded_address":"上海市浦东新区万六村","date":1648396800000}},{"type":"Feature","geometry":{"type":"Point","coordinates":[121.564108,31.259853]},"properties":{"town":"浦东新区","published_address":"浦东大道2568弄","geocoded_address":"上海市浦东新区浦东大道2568弄","date":1648396800000}},{"type":"Feature","geometry":{"type":"Point","coordinates":[121.584276,31.244738]},"properties":{"town":"浦东新区","published_address":"银山路370弄","geocoded_address":"上海市浦东新区银山路370弄","date":1648396800000}},{"type":"Feature","geometry":{"type":"Point","coordinates":[121.583896,31.244742]},"properties":{"town":"浦东新区","published_address":"银山路342弄","geocoded_address":"上海市浦东新区银山路342弄","date":1648396800000}},{"type":"Feature","geometry":{"type":"Point","coordinates":[121.503618,31.158904]},"properties":{"town":"浦东新区","published_address":"海阳路905弄","geocoded_address":"上海市浦东新区海阳路905弄","date":1648396800000}},{"type":"Feature","geometry":{"type":"Point","coordinates":[121.52303,31.226273]},"properties":{"town":"浦东新区","published_address":"崂山路571弄","geocoded_address":"上海市浦东新区崂山路571弄","date":1648396800000}},{"type":"Feature","geometry":{"type":"Point","coordinates":[121.518322,31.210465]},"properties":{"town":"浦东新区","published_address":"浦建路15号","geocoded_address":"上海市浦东新区浦建路15号","date":1648396800000}},{"type":"Feature","geometry":{"type":"Point","coordinates":[121.581557,31.253448]},"properties":{"town":"浦东新区","published_address":"金杨路685弄","geocoded_address":"上海市浦东新区金杨路685弄","date":1648396800000}},{"type":"Feature","geometry":{"type":"Point","coordinates":[121.567919,31.259657]},"properties":{"town":"浦东新区","published_address":"栖山路1689弄","geocoded_address":"上海市浦东新区栖山路1689弄","date":1648396800000}},{"type":"Feature","geometry":{"type":"Point","coordinates":[121.566871,31.239802]},"properties":{"town":"浦东新区","published_address":"灵山路1671弄","geocoded_address":"上海市浦东新区灵山路1671弄","date":1648396800000}},{"type":"Feature","geometry":{"type":"Point","coordinates":[121.57079,31.18234]},"properties":{"town":"浦东新区","published_address":"五星村三联队黄家宅","geocoded_address":"上海市浦东新区五星村三联队黄家宅","date":1648396800000}},{"type":"Feature","geometry":{"type":"Point","coordinates":[121.761868,31.085111]},"properties":{"town":"浦东新区","published_address":"盐仓老街","geocoded_address":"上海市浦东新区盐仓老街","date":1648396800000}},{"type":"Feature","geometry":{"type":"Point","coordinates":[121.58188,31.154037]},"properties":{"town":"浦东新区","published_address":"御衡路68弄","geocoded_address":"上海市浦东新区御衡路68弄","date":1648396800000}},{"type":"Feature","geometry":{"type":"Point","coordinates":[121.546624,31.16768]},"properties":{"town":"浦东新区","published_address":"锦绣路3841弄","geocoded_address":"上海市浦东新区锦绣路3841弄","date":1648396800000}},{"type":"Feature","geometry":{"type":"Point","coordinates":[121.543241,31.169203]},"properties":{"town":"浦东新区","published_address":"下南路309弄","geocoded_address":"上海市浦东新区下南路309弄","date":1648396800000}},{"type":"Feature","geometry":{"type":"Point","coordinates":[121.574216,31.024454]},"properties":{"town":"浦东新区","published_address":"航梅路525弄","geocoded_address":"上海市浦东新区航梅路525弄","date":1648396800000}},{"type":"Feature","geometry":{"type":"Point","coordinates":[121.565375,31.122198]},"properties":{"town":"浦东新区","published_address":"沪南路3150弄","geocoded_address":"上海市浦东新区沪南路3150弄","date":1648396800000}},{"type":"Feature","geometry":{"type":"Point","coordinates":[121.673226,31.196184]},"properties":{"town":"浦东新区","published_address":"华夏东路1260弄","geocoded_address":"上海市浦东新区华夏东路1260弄","date":1648396800000}},{"type":"Feature","geometry":{"type":"Point","coordinates":[121.506756,31.151746]},"properties":{"town":"浦东新区","published_address":"上南路3827弄","geocoded_address":"上海市浦东新区上南路3827弄","date":1648396800000}},{"type":"Feature","geometry":{"type":"Point","coordinates":[121.542872,31.200731]},"properties":{"town":"浦东新区","published_address":"锦安东路280弄","geocoded_address":"上海市浦东新区锦安东路280弄","date":1648396800000}},{"type":"Feature","geometry":{"type":"Point","coordinates":[121.509781,31.196548]},"properties":{"town":"浦东新区","published_address":"浦东南路3005号","geocoded_address":"上海市浦东新区浦东南路|3005","date":1648396800000}},{"type":"Feature","geometry":{"type":"Point","coordinates":[121.610459,31.010373]},"properties":{"town":"浦东新区","published_address":"海桥村","geocoded_address":"上海市浦东新区海桥村","date":1648396800000}},{"type":"Feature","geometry":{"type":"Point","coordinates":[121.595723,31.050528]},"properties":{"town":"浦东新区","published_address":"下沙新街","geocoded_address":"上海市浦东新区下沙新街","date":1648396800000}},{"type":"Feature","geometry":{"type":"Point","coordinates":[121.523477,31.18123]},"properties":{"town":"浦东新区","published_address":"北艾路1660弄","geocoded_address":"上海市浦东新区北艾路1660弄","date":1648396800000}},{"type":"Feature","geometry":{"type":"Point","coordinates":[121.599772,31.281952]},"properties":{"town":"浦东新区","published_address":"五莲路108弄","geocoded_address":"上海市浦东新区五莲路","date":1648396800000}},{"type":"Feature","geometry":{"type":"Point","coordinates":[121.571166,31.340954]},"properties":{"town":"浦东新区","published_address":"清溪路400弄","geocoded_address":"上海市浦东新区清溪路400弄","date":1648396800000}},{"type":"Feature","geometry":{"type":"Point","coordinates":[121.59262,31.269341]},"properties":{"town":"浦东新区","published_address":"荷泽路287弄","geocoded_address":"上海市浦东新区荷泽路287弄","date":1648396800000}},{"type":"Feature","geometry":{"type":"Point","coordinates":[121.571337,31.260739]},"properties":{"town":"浦东新区","published_address":"栖山路1855弄","geocoded_address":"上海市浦东新区栖山路1855号","date":1648396800000}},{"type":"Feature","geometry":{"type":"Point","coordinates":[121.599636,31.272951]},"properties":{"town":"浦东新区","published_address":"凌河路420弄","geocoded_address":"上海市浦东新区凌河路420弄","date":1648396800000}},{"type":"Feature","geometry":{"type":"Point","coordinates":[121.582944,31.273833]},"properties":{"town":"浦东新区","published_address":"莱阳路350弄","geocoded_address":"上海市浦东新区莱阳路350弄","date":1648396800000}},{"type":"Feature","geometry":{"type":"Point","coordinates":[121.596432,31.272184]},"properties":{"town":"浦东新区","published_address":"五莲路1168号","geocoded_address":"上海市浦东新区五莲路1168号","date":1648396800000}},{"type":"Feature","geometry":{"type":"Point","coordinates":[121.673798,31.22541]},"properties":{"town":"浦东新区","published_address":"玉盘北路281弄","geocoded_address":"上海市浦东新区玉盘北路281弄","date":1648396800000}},{"type":"Feature","geometry":{"type":"Point","coordinates":[121.538418,31.171248]},"properties":{"town":"浦东新区","published_address":"下南路526弄","geocoded_address":"上海市浦东新区下南路526弄","date":1648396800000}},{"type":"Feature","geometry":{"type":"Point","coordinates":[121.539027,31.172119]},"properties":{"town":"浦东新区","published_address":"下南路500弄","geocoded_address":"上海市浦东新区下南路500弄","date":1648396800000}},{"type":"Feature","geometry":{"type":"Point","coordinates":[121.539605,31.172433]},"properties":{"town":"浦东新区","published_address":"下南路518弄","geocoded_address":"上海市浦东新区下南路518弄","date":1648396800000}},{"type":"Feature","geometry":{"type":"Point","coordinates":[121.563369,31.182923]},"properties":{"town":"浦东新区","published_address":"莲溪路477弄","geocoded_address":"上海市浦东新区莲溪路477弄","date":1648396800000}},{"type":"Feature","geometry":{"type":"Point","coordinates":[121.563404,31.181749]},"properties":{"town":"浦东新区","published_address":"莲安东路367弄","geocoded_address":"上海市浦东新区莲安东路367弄","date":1648396800000}},{"type":"Feature","geometry":{"type":"Point","coordinates":[121.54994,31.16502]},"properties":{"town":"浦东新区","published_address":"杨莲路310弄","geocoded_address":"上海市浦东新区杨莲路","date":1648396800000}},{"type":"Feature","geometry":{"type":"Point","coordinates":[121.567091,31.156931]},"properties":{"town":"浦东新区","published_address":"康安路御北路交界口工地生活区","geocoded_address":"上海市浦东新区工地生活区","date":1648396800000}},{"type":"Feature","geometry":{"type":"Point","coordinates":[121.719544,31.155618]},"properties":{"town":"浦东新区","published_address":"普庆路115弄","geocoded_address":"上海市浦东新区普庆路115弄","date":1648396800000}},{"type":"Feature","geometry":{"type":"Point","coordinates":[121.53413,31.20045]},"properties":{"town":"浦东新区","published_address":"东建路350号","geocoded_address":"上海市浦东新区东建路350号","date":1648396800000}},{"type":"Feature","geometry":{"type":"Point","coordinates":[121.568039,31.166742]},"properties":{"town":"浦东新区","published_address":"莲溪路1299号","geocoded_address":"上海市浦东新区莲溪路1299号","date":1648396800000}},{"type":"Feature","geometry":{"type":"Point","coordinates":[121.592675,31.27294]},"properties":{"town":"浦东新区","published_address":"东陆路1018弄","geocoded_address":"上海市浦东新区东陆路1018弄","date":1648396800000}},{"type":"Feature","geometry":{"type":"Point","coordinates":[121.54537,31.237999]},"properties":{"town":"浦东新区","published_address":"沈家弄路877弄","geocoded_address":"上海市浦东新区沈家弄路877弄","date":1648396800000}},{"type":"Feature","geometry":{"type":"Point","coordinates":[121.582549,31.339415]},"properties":{"town":"浦东新区","published_address":"春晖路368弄","geocoded_address":"上海市浦东新区春晖路368弄","date":1648396800000}},{"type":"Feature","geometry":{"type":"Point","coordinates":[121.508127,31.191181]},"properties":{"town":"浦东新区","published_address":"港机新村","geocoded_address":"上海市浦东新区港机新村","date":1648396800000}},{"type":"Feature","geometry":{"type":"Point","coordinates":[121.59599,31.126699]},"properties":{"town":"浦东新区","published_address":"康佳路38弄","geocoded_address":"上海市浦东新区康佳路38弄","date":1648396800000}},{"type":"Feature","geometry":{"type":"Point","coordinates":[121.534438,31.231155]},"properties":{"town":"浦东新区","published_address":"源深路600弄","geocoded_address":"上海市浦东新区源深路600弄","date":1648396800000}},{"type":"Feature","geometry":{"type":"Point","coordinates":[121.559653,31.183189]},"properties":{"town":"浦东新区","published_address":"北中路354弄","geocoded_address":"上海市浦东新区北中路354弄","date":1648396800000}},{"type":"Feature","geometry":{"type":"Point","coordinates":[121.58823,31.045703]},"properties":{"town":"浦东新区","published_address":"鹤鸣村","geocoded_address":"上海市浦东新区鹤鸣村","date":1648396800000}},{"type":"Feature","geometry":{"type":"Point","coordinates":[121.80906,30.98016]},"properties":{"town":"浦东新区","published_address":"路四村","geocoded_address":"上海市浦东新区路四村","date":1648396800000}},{"type":"Feature","geometry":{"type":"Point","coordinates":[121.607479,31.138588]},"properties":{"town":"浦东新区","published_address":"川周公路3083号","geocoded_address":"上海市浦东新区川周公路3083号","date":1648396800000}},{"type":"Feature","geometry":{"type":"Point","coordinates":[121.753478,31.029162]},"properties":{"town":"浦东新区","published_address":"英雄村","geocoded_address":"上海市浦东新区英雄村","date":1648396800000}},{"type":"Feature","geometry":{"type":"Point","coordinates":[121.742535,31.04068]},"properties":{"town":"浦东新区","published_address":"城南路41弄","geocoded_address":"上海市浦东新区城南路41弄","date":1648396800000}},{"type":"Feature","geometry":{"type":"Point","coordinates":[121.712541,31.138569]},"properties":{"town":"浦东新区","published_address":"七灶村","geocoded_address":"上海市浦东新区七灶村","date":1648396800000}},{"type":"Feature","geometry":{"type":"Point","coordinates":[121.532071,31.19958]},"properties":{"town":"浦东新区","published_address":"东绣路1389弄","geocoded_address":"上海市浦东新区东绣路1389弄","date":1648396800000}},{"type":"Feature","geometry":{"type":"Point","coordinates":[121.567958,31.189333]},"properties":{"town":"浦东新区","published_address":"中界村林家宅","geocoded_address":"上海市浦东新区中界村","date":1648396800000}},{"type":"Feature","geometry":{"type":"Point","coordinates":[121.707034,31.144389]},"properties":{"town":"浦东新区","published_address":"龄七路537号","geocoded_address":"上海市浦东新区龄七路537号","date":1648396800000}},{"type":"Feature","geometry":{"type":"Point","coordinates":[121.58855,31.025187]},"properties":{"town":"浦东新区","published_address":"航鹤路78弄","geocoded_address":"上海市浦东新区航鹤路78弄","date":1648396800000}},{"type":"Feature","geometry":{"type":"Point","coordinates":[121.597023,31.033215]},"properties":{"town":"浦东新区","published_address":"富航路105弄","geocoded_address":"上海市浦东新区富航路105弄","date":1648396800000}},{"type":"Feature","geometry":{"type":"Point","coordinates":[121.503022,31.170513]},"properties":{"town":"浦东新区","published_address":"洪山路301弄","geocoded_address":"上海市浦东新区洪山路301弄","date":1648396800000}},{"type":"Feature","geometry":{"type":"Point","coordinates":[121.520417,31.186118]},"properties":{"town":"浦东新区","published_address":"浦三路817弄","geocoded_address":"上海市浦东新区浦三路817弄","date":1648396800000}},{"type":"Feature","geometry":{"type":"Point","coordinates":[121.702329,31.021918]},"properties":{"town":"浦东新区","published_address":"宣镇东路625号","geocoded_address":"上海市浦东新区宣镇东路|625栋","date":1648396800000}},{"type":"Feature","geometry":{"type":"Point","coordinates":[121.523338,31.177993]},"properties":{"town":"浦东新区","published_address":"北艾路1765弄","geocoded_address":"上海市浦东新区北艾路1765弄","date":1648396800000}},{"type":"Feature","geometry":{"type":"Point","coordinates":[121.520299,31.216924]},"properties":{"town":"浦东新区","published_address":"东建新村","geocoded_address":"上海市浦东新区东建新村","date":1648396800000}},{"type":"Feature","geometry":{"type":"Point","coordinates":[121.680712,31.27919]},"properties":{"town":"浦东新区","published_address":"海松路421弄","geocoded_address":"上海市浦东新区海松路421弄","date":1648396800000}},{"type":"Feature","geometry":{"type":"Point","coordinates":[121.722233,31.226709]},"properties":{"town":"浦东新区","published_address":"青三村","geocoded_address":"上海市浦东新区青三村","date":1648396800000}},{"type":"Feature","geometry":{"type":"Point","coordinates":[121.437629,31.38228]},"properties":{"town":"浦东新区","published_address":"大沟村东街","geocoded_address":"上海市宝山区东街村","date":1648396800000}},{"type":"Feature","geometry":{"type":"Point","coordinates":[121.714951,31.179926]},"properties":{"town":"浦东新区","published_address":"妙川路1000弄","geocoded_address":"上海市浦东新区妙川路1000弄","date":1648396800000}},{"type":"Feature","geometry":{"type":"Point","coordinates":[121.696335,31.259873]},"properties":{"town":"浦东新区","published_address":"启明村陈家宅","geocoded_address":"上海市浦东新区启明村陈家宅","date":1648396800000}},{"type":"Feature","geometry":{"type":"Point","coordinates":[121.580603,31.166133]},"properties":{"town":"浦东新区","published_address":"华夏西路5778号","geocoded_address":"上海市浦东新区华夏西路5778号","date":1648396800000}},{"type":"Feature","geometry":{"type":"Point","coordinates":[121.585403,31.098711]},"properties":{"town":"浦东新区","published_address":"瑞浦路8弄","geocoded_address":"上海市浦东新区瑞浦路8弄","date":1648396800000}},{"type":"Feature","geometry":{"type":"Point","coordinates":[121.661269,31.214942]},"properties":{"town":"浦东新区","published_address":"机口村","geocoded_address":"上海市浦东新区机口村","date":1648396800000}},{"type":"Feature","geometry":{"type":"Point","coordinates":[121.69209,31.190702]},"properties":{"town":"浦东新区","published_address":"新川路709弄","geocoded_address":"上海市浦东新区新川路709弄","date":1648396800000}},{"type":"Feature","geometry":{"type":"Point","coordinates":[121.578107,31.267817]},"properties":{"town":"浦东新区","published_address":"长岛路85弄","geocoded_address":"上海市浦东新区长岛路85弄","date":1648396800000}},{"type":"Feature","geometry":{"type":"Point","coordinates":[121.690411,31.186165]},"properties":{"town":"浦东新区","published_address":"妙栏路353弄","geocoded_address":"上海市浦东新区妙栏路353弄","date":1648396800000}},{"type":"Feature","geometry":{"type":"Point","coordinates":[121.660897,30.983312]},"properties":{"town":"浦东新区","published_address":"前进村南李家宅","geocoded_address":"上海市奉贤区南李家宅","date":1648396800000}},{"type":"Feature","geometry":{"type":"Point","coordinates":[121.609684,31.18105]},"properties":{"town":"浦东新区","published_address":"北蔡镇丁家队丁家宅","geocoded_address":"上海市浦东新区北蔡镇丁家队丁家宅","date":1648396800000}},{"type":"Feature","geometry":{"type":"Point","coordinates":[121.516247,31.221923]},"properties":{"town":"浦东新区","published_address":"浦东南路1466弄","geocoded_address":"上海市浦东新区浦东南路1466弄","date":1648396800000}},{"type":"Feature","geometry":{"type":"Point","coordinates":[121.514838,31.224544]},"properties":{"town":"浦东新区","published_address":"浦城路580弄","geocoded_address":"上海市浦东新区浦城路580弄","date":1648396800000}},{"type":"Feature","geometry":{"type":"Point","coordinates":[121.600996,31.264129]},"properties":{"town":"浦东新区","published_address":"长岛路1560弄","geocoded_address":"上海市浦东新区长岛路1560弄","date":1648396800000}},{"type":"Feature","geometry":{"type":"Point","coordinates":[121.602426,31.094094]},"properties":{"town":"浦东新区","published_address":"周阳路259弄","geocoded_address":"上海市浦东新区周阳路259弄","date":1648396800000}},{"type":"Feature","geometry":{"type":"Point","coordinates":[121.737278,30.968955]},"properties":{"town":"浦东新区","published_address":"南三支路139弄","geocoded_address":"上海市浦东新区南三支路139弄","date":1648396800000}},{"type":"Feature","geometry":{"type":"Point","coordinates":[121.77837,31.02526]},"properties":{"town":"浦东新区","published_address":"爱民路23号","geocoded_address":"上海市浦东新区爱民路|23号","date":1648396800000}},{"type":"Feature","geometry":{"type":"Point","coordinates":[121.510357,31.193153]},"properties":{"town":"浦东新区","published_address":"临沂路219号","geocoded_address":"上海市浦东新区临沂路|219","date":1648396800000}},{"type":"Feature","geometry":{"type":"Point","coordinates":[121.560508,31.255416]},"properties":{"town":"浦东新区","published_address":"栖山路1299弄","geocoded_address":"上海市浦东新区栖山路1299弄","date":1648396800000}},{"type":"Feature","geometry":{"type":"Point","coordinates":[121.514458,31.194003]},"properties":{"town":"浦东新区","published_address":"浦三路277弄","geocoded_address":"上海市浦东新区浦三路277弄","date":1648396800000}},{"type":"Feature","geometry":{"type":"Point","coordinates":[121.519372,31.177694]},"properties":{"town":"浦东新区","published_address":"杨高南路2772弄","geocoded_address":"上海市浦东新区杨高南路2772弄","date":1648396800000}},{"type":"Feature","geometry":{"type":"Point","coordinates":[121.319356,31.492383]},"properties":{"town":"浦东新区","published_address":"张家桥村","geocoded_address":"上海市宝山区张家桥","date":1648396800000}},{"type":"Feature","geometry":{"type":"Point","coordinates":[121.76856,31.080649]},"properties":{"town":"浦东新区","published_address":"星火村","geocoded_address":"上海市浦东新区星火村","date":1648396800000}},{"type":"Feature","geometry":{"type":"Point","coordinates":[121.699489,31.187777]},"properties":{"town":"浦东新区","published_address":"城南村","geocoded_address":"上海市浦东新区城南村","date":1648396800000}},{"type":"Feature","geometry":{"type":"Point","coordinates":[121.550865,31.246249]},"properties":{"town":"浦东新区","published_address":"栖山路400弄","geocoded_address":"上海市浦东新区栖山路400弄","date":1648396800000}},{"type":"Feature","geometry":{"type":"Point","coordinates":[121.554656,31.246169]},"properties":{"town":"浦东新区","published_address":"崮山路311号","geocoded_address":"上海市浦东新区崮山路311号","date":1648396800000}},{"type":"Feature","geometry":{"type":"Point","coordinates":[121.531897,31.230649]},"properties":{"town":"浦东新区","published_address":"张杨路1318号","geocoded_address":"上海市浦东新区张杨路1318号","date":1648396800000}},{"type":"Feature","geometry":{"type":"Point","coordinates":[121.564527,31.236695]},"properties":{"town":"浦东新区","published_address":"灵山路1396弄","geocoded_address":"上海市浦东新区灵山路1396弄","date":1648396800000}},{"type":"Feature","geometry":{"type":"Point","coordinates":[121.568078,31.239982]},"properties":{"town":"浦东新区","published_address":"灵山路1724弄","geocoded_address":"上海市浦东新区灵山路1724弄","date":1648396800000}},{"type":"Feature","geometry":{"type":"Point","coordinates":[121.564351,31.252184]},"properties":{"town":"浦东新区","published_address":"龙居路191弄","geocoded_address":"上海市浦东新区龙居路191弄","date":1648396800000}},{"type":"Feature","geometry":{"type":"Point","coordinates":[121.340118,31.354697]},"properties":{"town":"浦东新区","published_address":"张江镇吴家宅","geocoded_address":"上海市宝山区吴家宅","date":1648396800000}},{"type":"Feature","geometry":{"type":"Point","coordinates":[121.542261,31.148822]},"properties":{"town":"浦东新区","published_address":"浦发绿城东区","geocoded_address":"上海市浦东新区浦发绿城东区","date":1648396800000}},{"type":"Feature","geometry":{"type":"Point","coordinates":[121.554211,31.237176]},"properties":{"town":"浦东新区","published_address":"羽山路951弄","geocoded_address":"上海市浦东新区羽山路951弄","date":1648396800000}},{"type":"Feature","geometry":{"type":"Point","coordinates":[121.523775,31.218517]},"properties":{"town":"浦东新区","published_address":"浦电路221号","geocoded_address":"上海市浦东新区浦电路221号","date":1648396800000}},{"type":"Feature","geometry":{"type":"Point","coordinates":[121.507075,31.160346]},"properties":{"town":"浦东新区","published_address":"上南路3339弄","geocoded_address":"上海市浦东新区上南路3339弄","date":1648396800000}},{"type":"Feature","geometry":{"type":"Point","coordinates":[121.524221,31.21826]},"properties":{"town":"浦东新区","published_address":"潍坊四村","geocoded_address":"上海市浦东新区潍坊四村","date":1648396800000}},{"type":"Feature","geometry":{"type":"Point","coordinates":[121.54477,31.208064]},"properties":{"town":"浦东新区","published_address":"牡丹路145弄","geocoded_address":"上海市浦东新区牡丹路145弄","date":1648396800000}},{"type":"Feature","geometry":{"type":"Point","coordinates":[121.524749,31.212145]},"properties":{"town":"浦东新区","published_address":"蓝村路501弄","geocoded_address":"上海市浦东新区蓝村路501弄","date":1648396800000}},{"type":"Feature","geometry":{"type":"Point","coordinates":[121.573609,31.244152]},"properties":{"town":"浦东新区","published_address":"灵山路2011弄","geocoded_address":"上海市浦东新区灵山路2011弄","date":1648396800000}},{"type":"Feature","geometry":{"type":"Point","coordinates":[121.516651,31.217193]},"properties":{"town":"浦东新区","published_address":"浦电路57号","geocoded_address":"上海市浦东新区浦电路57号","date":1648396800000}},{"type":"Feature","geometry":{"type":"Point","coordinates":[121.51699,31.188585]},"properties":{"town":"浦东新区","published_address":"浦三路629弄","geocoded_address":"上海市浦东新区浦三路629弄","date":1648396800000}},{"type":"Feature","geometry":{"type":"Point","coordinates":[121.512231,31.199603]},"properties":{"town":"浦东新区","published_address":"浦东南路2351号","geocoded_address":"上海市浦东新区浦东南路|2351弄小区","date":1648396800000}},{"type":"Feature","geometry":{"type":"Point","coordinates":[121.549874,31.171704]},"properties":{"town":"浦东新区","published_address":"陈春路299号","geocoded_address":"上海市浦东新区陈春路299号","date":1648396800000}},{"type":"Feature","geometry":{"type":"Point","coordinates":[121.568135,31.350755]},"properties":{"town":"浦东新区","published_address":"草高支路870号","geocoded_address":"上海市浦东新区草高支路870号","date":1648396800000}},{"type":"Feature","geometry":{"type":"Point","coordinates":[121.748639,30.982441]},"properties":{"town":"浦东新区","published_address":"园艺村","geocoded_address":"上海市浦东新区园艺村","date":1648396800000}},{"type":"Feature","geometry":{"type":"Point","coordinates":[121.856949,30.864261]},"properties":{"town":"浦东新区","published_address":"港辉路236弄","geocoded_address":"上海市浦东新区港辉路236弄","date":1648396800000}},{"type":"Feature","geometry":{"type":"Point","coordinates":[121.601052,31.092445]},"properties":{"town":"浦东新区","published_address":"瑞安路699弄","geocoded_address":"上海市浦东新区瑞安路699弄","date":1648396800000}},{"type":"Feature","geometry":{"type":"Point","coordinates":[121.561778,31.189399]},"properties":{"town":"浦东新区","published_address":"高科西路3000弄","geocoded_address":"上海市浦东新区高科西路3000弄","date":1648396800000}},{"type":"Feature","geometry":{"type":"Point","coordinates":[121.511597,31.196956]},"properties":{"town":"浦东新区","published_address":"浦三路32号","geocoded_address":"上海市浦东新区浦三路|32","date":1648396800000}},{"type":"Feature","geometry":{"type":"Point","coordinates":[121.595857,31.075247]},"properties":{"town":"浦东新区","published_address":"鹤韵路549弄","geocoded_address":"上海市浦东新区鹤韵路549弄","date":1648396800000}},{"type":"Feature","geometry":{"type":"Point","coordinates":[121.561652,31.239578]},"properties":{"town":"浦东新区","published_address":"羽山路1446弄","geocoded_address":"上海市浦东新区羽山路1446弄","date":1648396800000}},{"type":"Feature","geometry":{"type":"Point","coordinates":[121.561419,31.233763]},"properties":{"town":"浦东新区","published_address":"杨高中路1898号","geocoded_address":"上海市浦东新区杨高中路1898号","date":1648396800000}},{"type":"Feature","geometry":{"type":"Point","coordinates":[121.579118,31.133692]},"properties":{"town":"浦东新区","published_address":"秀沿路2弄","geocoded_address":"上海市浦东新区秀沿路","date":1648396800000}},{"type":"Feature","geometry":{"type":"Point","coordinates":[121.611914,31.14019]},"properties":{"town":"浦东新区","published_address":"川周公路2955号","geocoded_address":"上海市浦东新区川周公路2955号","date":1648396800000}},{"type":"Feature","geometry":{"type":"Point","coordinates":[121.686817,31.237262]},"properties":{"town":"浦东新区","published_address":"新雅东路51弄","geocoded_address":"上海市浦东新区新雅东路51弄","date":1648396800000}},{"type":"Feature","geometry":{"type":"Point","coordinates":[121.740523,31.065905]},"properties":{"town":"浦东新区","published_address":"拱晨路255弄","geocoded_address":"上海市浦东新区拱晨路255弄","date":1648396800000}},{"type":"Feature","geometry":{"type":"Point","coordinates":[121.52242,31.222213]},"properties":{"town":"浦东新区","published_address":"潍坊六村","geocoded_address":"上海市浦东新区潍坊六村","date":1648396800000}},{"type":"Feature","geometry":{"type":"Point","coordinates":[121.618203,31.330458]},"properties":{"town":"浦东新区","published_address":"光泽路429弄","geocoded_address":"上海市浦东新区光泽路429弄","date":1648396800000}},{"type":"Feature","geometry":{"type":"Point","coordinates":[121.564312,31.189519]},"properties":{"town":"浦东新区","published_address":"高科西路3060弄","geocoded_address":"上海市浦东新区高科西路3060弄","date":1648396800000}},{"type":"Feature","geometry":{"type":"Point","coordinates":[121.708475,31.067589]},"properties":{"town":"浦东新区","published_address":"三灶北街","geocoded_address":"上海市浦东新区三灶北街","date":1648396800000}},{"type":"Feature","geometry":{"type":"Point","coordinates":[121.652798,31.270721]},"properties":{"town":"浦东新区","published_address":"民同路290弄","geocoded_address":"上海市浦东新区民同路290弄","date":1648396800000}},{"type":"Feature","geometry":{"type":"Point","coordinates":[121.668323,31.313589]},"properties":{"town":"浦东新区","published_address":"港建路1699号","geocoded_address":"上海市浦东新区港建路1699号","date":1648396800000}},{"type":"Feature","geometry":{"type":"Point","coordinates":[121.689599,31.175072]},"properties":{"town":"浦东新区","published_address":"华夏二路1278弄","geocoded_address":"上海市浦东新区华夏二路1278弄","date":1648396800000}},{"type":"Feature","geometry":{"type":"Point","coordinates":[121.692411,31.197098]},"properties":{"town":"浦东新区","published_address":"新德路558弄","geocoded_address":"上海市浦东新区新德路558弄","date":1648396800000}},{"type":"Feature","geometry":{"type":"Point","coordinates":[121.78976,30.99621]},"properties":{"town":"浦东新区","published_address":"华星村颜家宅","geocoded_address":"上海市浦东新区颜家宅","date":1648396800000}},{"type":"Feature","geometry":{"type":"Point","coordinates":[121.696546,31.188887]},"properties":{"town":"浦东新区","published_address":"南桥路707弄","geocoded_address":"上海市浦东新区南桥路707弄","date":1648396800000}},{"type":"Feature","geometry":{"type":"Point","coordinates":[121.519508,31.134033]},"properties":{"town":"浦东新区","published_address":"南阜村高树队油车头","geocoded_address":"上海市浦东新区油车头","date":1648396800000}},{"type":"Feature","geometry":{"type":"Point","coordinates":[121.599153,31.101361]},"properties":{"town":"浦东新区","published_address":"牛桥村","geocoded_address":"上海市浦东新区牛桥村","date":1648396800000}},