{"2022-06-27":{"type":"FeatureCollection","features":[{"type":"Feature","geometry":{"type":"Point","coordinates":[121.469016,31.250452]},"properties":{"town":"静安区","published_address":"西藏北路新赵家宅","geocoded_address":"上海市静安区西藏北路","date":1656259200000}},{"type":"Feature","geometry":{"type":"Point","coordinates":[121.597016,30.990492]},"properties":{"town":"奉贤区","published_address":"梅园村","geocoded_address":"上海市奉贤区梅园村","date":1656259200000}}]},"2022-06-26":{"type":"FeatureCollection","features":[{"type":"Feature","geometry":{"type":"Point","coordinates":[121.611931,31.032484]},"properties":{"town":"浦东新区","published_address":"航川路18号","geocoded_address":"上海市浦东新区航川路18号","date":1656172800000}},{"type":"Feature","geometry":{"type":"Point","coordinates":[121.466238,31.266552]},"properties":{"town":"静安区","published_address":"俞泾港路11号","geocoded_address":"上海市静安区俞泾港路11号","date":1656172800000}},{"type":"Feature","geometry":{"type":"Point","coordinates":[121.477157,31.245303]},"properties":{"town":"静安区","published_address":"七浦路488号","geocoded_address":"上海市静安区七浦路488号","date":1656172800000}},{"type":"Feature","geometry":{"type":"Point","coordinates":[121.474977,31.254645]},"properties":{"town":"静安区","published_address":"永兴路105号","geocoded_address":"上海市静安区永兴路105号","date":1656172800000}},{"type":"Feature","geometry":{"type":"Point","coordinates":[121.469938,31.26844]},"properties":{"town":"虹口区","published_address":"西宝兴路833号","geocoded_address":"上海市虹口区西宝兴路833号","date":1656172800000}},{"type":"Feature","geometry":{"type":"Point","coordinates":[121.570025,30.917447]},"properties":{"town":"奉贤区","published_address":"泰青公路1552号","geocoded_address":"上海市奉贤区泰青公路","date":1656172800000}},{"type":"Feature","geometry":{"type":"Point","coordinates":[121.596791,30.994644]},"properties":{"town":"奉贤区","published_address":"航塘公路1239号","geocoded_address":"上海市奉贤区航塘公路1239号","date":1656172800000}}]},"2022-06-24":{"type":"FeatureCollection","features":[{"type":"Feature","geometry":{"type":"Point","coordinates":[121.420472,31.278873]},"properties":{"town":"宝山区","published_address":"华灵路1180弄","geocoded_address":"上海市宝山区华灵路1180弄","date":1656000000000}},{"type":"Feature","geometry":{"type":"Point","coordinates":[121.357443,31.173516]},"properties":{"town":"闵行区","published_address":"航北路123弄","geocoded_address":"上海市闵行区航北路123弄","date":1656000000000}}]}}