{"2022-07-18":{"type":"FeatureCollection","features":[{"type":"Feature","geometry":{"type":"Point","coordinates":[121.468976,31.25999]},"properties":{"town":"静安区","published_address":"止园路383号","geocoded_address":"上海市静安区止园路|383","date":1658073600000}},{"type":"Feature","geometry":{"type":"Point","coordinates":[121.437098,31.318317]},"properties":{"town":"静安区","published_address":"长临路380弄","geocoded_address":"上海市静安区长临路380弄","date":1658073600000}},{"type":"Feature","geometry":{"type":"Point","coordinates":[121.46129,31.314016]},"properties":{"town":"静安区","published_address":"阳曲路470弄","geocoded_address":"上海市静安区阳曲路470弄","date":1658073600000}},{"type":"Feature","geometry":{"type":"Point","coordinates":[121.459382,31.315625]},"properties":{"town":"静安区","published_address":"阳曲路555弄","geocoded_address":"上海市静安区阳曲路555弄","date":1658073600000}},{"type":"Feature","geometry":{"type":"Point","coordinates":[121.462916,31.252445]},"properties":{"town":"静安区","published_address":"虬江路1499号","geocoded_address":"上海市静安区虬江路1499号","date":1658073600000}},{"type":"Feature","geometry":{"type":"Point","coordinates":[121.471119,31.248945]},"properties":{"town":"静安区","published_address":"虬江路1150号","geocoded_address":"上海市静安区虬江路1150号","date":1658073600000}},{"type":"Feature","geometry":{"type":"Point","coordinates":[121.420006,31.194173]},"properties":{"town":"长宁区","published_address":"虹桥路996弄","geocoded_address":"上海市长宁区虹桥路996弄","date":1658073600000}},{"type":"Feature","geometry":{"type":"Point","coordinates":[121.431109,31.207557]},"properties":{"town":"长宁区","published_address":"幸福路211弄","geocoded_address":"上海市长宁区幸福路211弄","date":1658073600000}},{"type":"Feature","geometry":{"type":"Point","coordinates":[121.555402,31.283876]},"properties":{"town":"杨浦区","published_address":"顺平路60弄","geocoded_address":"上海市杨浦区顺平路60弄","date":1658073600000}},{"type":"Feature","geometry":{"type":"Point","coordinates":[121.447644,31.322004]},"properties":{"town":"宝山区","published_address":"共和新路4739弄","geocoded_address":"上海市宝山区共和新路4739弄","date":1658073600000}},{"type":"Feature","geometry":{"type":"Point","coordinates":[121.291655,31.221578]},"properties":{"town":"闵行区","published_address":"开兴路199弄","geocoded_address":"上海市闵行区开兴路199弄","date":1658073600000}},{"type":"Feature","geometry":{"type":"Point","coordinates":[121.503465,31.096371]},"properties":{"town":"闵行区","published_address":"浦晓路112弄","geocoded_address":"上海市闵行区浦晓路112弄","date":1658073600000}},{"type":"Feature","geometry":{"type":"Point","coordinates":[121.242381,31.179481]},"properties":{"town":"青浦区","published_address":"乐天路208弄","geocoded_address":"上海市青浦区乐天路208弄","date":1658073600000}}]},"2022-07-17":{"type":"FeatureCollection","features":[{"type":"Feature","geometry":{"type":"Point","coordinates":[121.559399,31.259106]},"properties":{"town":"浦东新区","published_address":"金杨新村街道浦东大道2511弄19-5号","geocoded_address":"上海市浦东新区金杨新村街道浦东大道2511弄19号","date":1657987200000}},{"type":"Feature","geometry":{"type":"Point","coordinates":[121.657374,31.257982]},"properties":{"town":"浦东新区","published_address":"唐镇新虹村陆家宅","geocoded_address":"上海市浦东新区唐镇新虹村陆家宅","date":1657987200000}},{"type":"Feature","geometry":{"type":"Point","coordinates":[121.528058,31.219147]},"properties":{"town":"浦东新区","published_address":"潍坊新村街道浦电路331弄","geocoded_address":"上海市浦东新区潍坊新村浦电路331弄","date":1657987200000}},{"type":"Feature","geometry":{"type":"Point","coordinates":[121.442646,31.311434]},"properties":{"town":"静安区","published_address":"临汾路1244弄","geocoded_address":"上海市静安区临汾路1244弄","date":1657987200000}},{"type":"Feature","geometry":{"type":"Point","coordinates":[121.454962,31.316275]},"properties":{"town":"静安区","published_address":"保德路641弄","geocoded_address":"上海市静安区保德路641弄","date":1657987200000}},{"type":"Feature","geometry":{"type":"Point","coordinates":[121.490964,31.291892]},"properties":{"town":"虹口区","published_address":"曲阳路990弄","geocoded_address":"上海市虹口区曲阳路990弄","date":1657987200000}},{"type":"Feature","geometry":{"type":"Point","coordinates":[121.464754,31.276367]},"properties":{"town":"虹口区","published_address":"株洲路258弄","geocoded_address":"上海市虹口区株洲路258弄","date":1657987200000}},{"type":"Feature","geometry":{"type":"Point","coordinates":[121.490157,31.271459]},"properties":{"town":"虹口区","published_address":"祥德路274弄","geocoded_address":"上海市虹口区祥德路274弄","date":1657987200000}},{"type":"Feature","geometry":{"type":"Point","coordinates":[121.542131,31.287259]},"properties":{"town":"杨浦区","published_address":"敦化路2弄","geocoded_address":"上海市杨浦区敦化路2弄","date":1657987200000}},{"type":"Feature","geometry":{"type":"Point","coordinates":[121.519228,31.288677]},"properties":{"town":"杨浦区","published_address":"国权路29号","geocoded_address":"上海市杨浦区国权路29号","date":1657987200000}},{"type":"Feature","geometry":{"type":"Point","coordinates":[121.519329,31.270933]},"properties":{"town":"杨浦区","published_address":"江浦路1275弄","geocoded_address":"上海市杨浦区江浦路1275弄","date":1657987200000}},{"type":"Feature","geometry":{"type":"Point","coordinates":[121.550249,31.268738]},"properties":{"town":"杨浦区","published_address":"隆昌路88弄","geocoded_address":"上海市杨浦区隆昌路88弄","date":1657987200000}},{"type":"Feature","geometry":{"type":"Point","coordinates":[121.547494,31.269973]},"properties":{"town":"杨浦区","published_address":"隆昌路235号","geocoded_address":"上海市杨浦区隆昌路235号","date":1657987200000}},{"type":"Feature","geometry":{"type":"Point","coordinates":[121.52354,31.252877]},"properties":{"town":"杨浦区","published_address":"通北路24号","geocoded_address":"上海市杨浦区通北路24号","date":1657987200000}},{"type":"Feature","geometry":{"type":"Point","coordinates":[121.530016,31.275694]},"properties":{"town":"杨浦区","published_address":"周家嘴路3055号","geocoded_address":"上海市杨浦区周家嘴路3055号","date":1657987200000}},{"type":"Feature","geometry":{"type":"Point","coordinates":[121.382883,31.31162]},"properties":{"town":"宝山区","published_address":"祁连三村","geocoded_address":"上海市宝山区祁连三村","date":1657987200000}},{"type":"Feature","geometry":{"type":"Point","coordinates":[121.494249,31.31407]},"properties":{"town":"宝山区","published_address":"三门路485弄","geocoded_address":"上海市宝山区三门路485弄","date":1657987200000}},{"type":"Feature","geometry":{"type":"Point","coordinates":[121.317956,31.10939]},"properties":{"town":"松江区","published_address":"同利路19号","geocoded_address":"上海市松江区同利路19号","date":1657987200000}},{"type":"Feature","geometry":{"type":"Point","coordinates":[121.317019,31.109457]},"properties":{"town":"松江区","published_address":"同利路36号","geocoded_address":"上海市松江区同利路|36号","date":1657987200000}},{"type":"Feature","geometry":{"type":"Point","coordinates":[121.392176,31.657047]},"properties":{"town":"崇明区","published_address":"利民路518号","geocoded_address":"上海市崇明区利民路518号","date":1657987200000}},{"type":"Feature","geometry":{"type":"Point","coordinates":[121.547097,31.674222]},"properties":{"town":"崇明区","published_address":"平悦路80弄","geocoded_address":"上海市崇明区平悦路80弄","date":1657987200000}}]},"2022-07-16":{"type":"FeatureCollection","features":[{"type":"Feature","geometry":{"type":"Point","coordinates":[121.509846,31.201541]},"properties":{"town":"浦东新区","published_address":"南码头路街道东三小区","geocoded_address":"上海市浦东新区东三小区","date":1657900800000}},{"type":"Feature","geometry":{"type":"Point","coordinates":[121.510702,31.19976]},"properties":{"town":"浦东新区","published_address":"南码头路街道胶南小区","geocoded_address":"上海市浦东新区胶南小区","date":1657900800000}},{"type":"Feature","geometry":{"type":"Point","coordinates":[121.569063,31.103063]},"properties":{"town":"浦东新区","published_address":"周浦镇里仁村1101号-1118号区域","geocoded_address":"上海市浦东新区里仁村|1101号","date":1657900800000}},{"type":"Feature","geometry":{"type":"Point","coordinates":[121.462916,31.252445]},"properties":{"town":"静安区","published_address":"虬江路1499号","geocoded_address":"上海市静安区虬江路1499号","date":1657900800000}},{"type":"Feature","geometry":{"type":"Point","coordinates":[121.454962,31.316275]},"properties":{"town":"静安区","published_address":"保德路641弄","geocoded_address":"上海市静安区保德路641弄","date":1657900800000}},{"type":"Feature","geometry":{"type":"Point","coordinates":[121.453018,31.276717]},"properties":{"town":"静安区","published_address":"共和新路2205弄","geocoded_address":"上海市静安区共和新路2205弄","date":1657900800000}},{"type":"Feature","geometry":{"type":"Point","coordinates":[121.455311,31.235265]},"properties":{"town":"静安区","published_address":"武定路801弄","geocoded_address":"上海市静安区武定路","date":1657900800000}},{"type":"Feature","geometry":{"type":"Point","coordinates":[121.399867,31.214525]},"properties":{"town":"长宁区","published_address":"古北路181弄","geocoded_address":"上海市长宁区古北路181弄","date":1657900800000}},{"type":"Feature","geometry":{"type":"Point","coordinates":[121.420607,31.207477]},"properties":{"town":"长宁区","published_address":"延安西路1558弄","geocoded_address":"上海市长宁区延安西路1558弄","date":1657900800000}},{"type":"Feature","geometry":{"type":"Point","coordinates":[121.397725,31.233468]},"properties":{"town":"普陀区","published_address":"长风二村风荷苑小区150-157号","geocoded_address":"上海市普陀区长风二村风荷苑","date":1657900800000}},{"type":"Feature","geometry":{"type":"Point","coordinates":[121.397725,31.233468]},"properties":{"town":"普陀区","published_address":"长风二村风荷苑小区163-186号","geocoded_address":"上海市普陀区长风二村风荷苑","date":1657900800000}},{"type":"Feature","geometry":{"type":"Point","coordinates":[121.47637,31.280853]},"properties":{"town":"虹口区","published_address":"水电路583弄","geocoded_address":"上海市虹口区水电路583弄","date":1657900800000}},{"type":"Feature","geometry":{"type":"Point","coordinates":[121.484299,31.262015]},"properties":{"town":"虹口区","published_address":"四川北路1906弄","geocoded_address":"上海市虹口区四川北路1906弄","date":1657900800000}},{"type":"Feature","geometry":{"type":"Point","coordinates":[121.490553,31.251984]},"properties":{"town":"虹口区","published_address":"海宁路55号","geocoded_address":"上海市虹口区海宁路55号","date":1657900800000}},{"type":"Feature","geometry":{"type":"Point","coordinates":[121.492507,31.272928]},"properties":{"town":"虹口区","published_address":"天宝西路252弄","geocoded_address":"上海市虹口区天宝西路252弄","date":1657900800000}},{"type":"Feature","geometry":{"type":"Point","coordinates":[121.4881,31.258999]},"properties":{"town":"虹口区","published_address":"四平路95号","geocoded_address":"上海市虹口区四平路95号","date":1657900800000}},{"type":"Feature","geometry":{"type":"Point","coordinates":[121.510115,31.292606]},"properties":{"town":"杨浦区","published_address":"国顺路388号","geocoded_address":"上海市杨浦区国顺路388号楼","date":1657900800000}},{"type":"Feature","geometry":{"type":"Point","coordinates":[121.526077,31.259541]},"properties":{"town":"杨浦区","published_address":"195街坊","geocoded_address":"上海市杨浦区","date":1657900800000}},{"type":"Feature","geometry":{"type":"Point","coordinates":[121.519228,31.288677]},"properties":{"town":"杨浦区","published_address":"国权路29号","geocoded_address":"上海市杨浦区国权路29号","date":1657900800000}},{"type":"Feature","geometry":{"type":"Point","coordinates":[121.544013,31.266443]},"properties":{"town":"杨浦区","published_address":"杭州路741号","geocoded_address":"上海市杨浦区杭州路741号","date":1657900800000}},{"type":"Feature","geometry":{"type":"Point","coordinates":[121.515277,31.265212]},"properties":{"town":"杨浦区","published_address":"通北路888号","geocoded_address":"上海市杨浦区通北路888号","date":1657900800000}},{"type":"Feature","geometry":{"type":"Point","coordinates":[121.472196,31.331135]},"properties":{"town":"宝山区","published_address":"新二路1088弄","geocoded_address":"上海市宝山区新二路1088弄","date":1657900800000}},{"type":"Feature","geometry":{"type":"Point","coordinates":[121.446934,31.319983]},"properties":{"town":"宝山区","published_address":"共和新路4733号","geocoded_address":"上海市宝山区共和新路4733号","date":1657900800000}},{"type":"Feature","geometry":{"type":"Point","coordinates":[121.479865,31.320906]},"properties":{"town":"宝山区","published_address":"殷高西路215号","geocoded_address":"上海市宝山区殷高西路215号","date":1657900800000}},{"type":"Feature","geometry":{"type":"Point","coordinates":[121.316463,31.109211]},"properties":{"town":"松江区","published_address":"九亭镇同利路48号","geocoded_address":"上海市松江区九亭镇同利路48号","date":1657900800000}},{"type":"Feature","geometry":{"type":"Point","coordinates":[121.313727,31.108219]},"properties":{"town":"松江区","published_address":"九亭镇同利路114号","geocoded_address":"上海市松江区九亭镇同利路114号","date":1657900800000}},{"type":"Feature","geometry":{"type":"Point","coordinates":[121.392176,31.657047]},"properties":{"town":"崇明区","published_address":"利民路518号","geocoded_address":"上海市崇明区利民路518号","date":1657900800000}}]},"2022-07-15":{"type":"FeatureCollection","features":[{"type":"Feature","geometry":{"type":"Point","coordinates":[121.575057,31.293424]},"properties":{"town":"浦东新区","published_address":"高行镇东沟三村","geocoded_address":"上海市浦东新区高行镇东沟三村","date":1657814400000}},{"type":"Feature","geometry":{"type":"Point","coordinates":[121.509846,31.201541]},"properties":{"town":"浦东新区","published_address":"南码头路街道东三小区","geocoded_address":"上海市浦东新区东三小区","date":1657814400000}},{"type":"Feature","geometry":{"type":"Point","coordinates":[121.544011,31.137681]},"properties":{"town":"浦东新区","published_address":"三林镇同济村果园队","geocoded_address":"上海市浦东新区同济村果园","date":1657814400000}},{"type":"Feature","geometry":{"type":"Point","coordinates":[121.53147,31.15233]},"properties":{"town":"浦东新区","published_address":"三林镇西泰林路158弄","geocoded_address":"上海市浦东新区三林镇西泰林路158弄","date":1657814400000}},{"type":"Feature","geometry":{"type":"Point","coordinates":[121.454962,31.316275]},"properties":{"town":"静安区","published_address":"保德路641弄","geocoded_address":"上海市静安区保德路641弄","date":1657814400000}},{"type":"Feature","geometry":{"type":"Point","coordinates":[121.423966,31.139043]},"properties":{"town":"徐汇区","published_address":"梅陇七村","geocoded_address":"上海市徐汇区梅陇七村","date":1657814400000}},{"type":"Feature","geometry":{"type":"Point","coordinates":[121.431109,31.207557]},"properties":{"town":"长宁区","published_address":"幸福路211弄","geocoded_address":"上海市长宁区幸福路211弄","date":1657814400000}},{"type":"Feature","geometry":{"type":"Point","coordinates":[121.428943,31.264012]},"properties":{"town":"普陀区","published_address":"黄陵路200弄","geocoded_address":"上海市普陀区黄陵路200弄","date":1657814400000}},{"type":"Feature","geometry":{"type":"Point","coordinates":[121.402648,31.245055]},"properties":{"town":"普陀区","published_address":"南石二路135号兰溪公寓","geocoded_address":"上海市普陀区兰溪公寓","date":1657814400000}},{"type":"Feature","geometry":{"type":"Point","coordinates":[121.464675,31.291977]},"properties":{"town":"虹口区","published_address":"广粤路439弄","geocoded_address":"上海市虹口区广粤路439弄","date":1657814400000}},{"type":"Feature","geometry":{"type":"Point","coordinates":[121.469755,31.279537]},"properties":{"town":"虹口区","published_address":"广中路460号","geocoded_address":"上海市虹口区广中路|460","date":1657814400000}},{"type":"Feature","geometry":{"type":"Point","coordinates":[121.495277,31.283072]},"properties":{"town":"虹口区","published_address":"密云路471弄","geocoded_address":"上海市虹口区密云路471弄","date":1657814400000}},{"type":"Feature","geometry":{"type":"Point","coordinates":[121.47637,31.280853]},"properties":{"town":"虹口区","published_address":"水电路583弄","geocoded_address":"上海市虹口区水电路583弄","date":1657814400000}},{"type":"Feature","geometry":{"type":"Point","coordinates":[121.491407,31.267561]},"properties":{"town":"虹口区","published_address":"四达路58弄","geocoded_address":"上海市虹口区四达路58弄","date":1657814400000}},{"type":"Feature","geometry":{"type":"Point","coordinates":[121.492507,31.272928]},"properties":{"town":"虹口区","published_address":"天宝西路252弄","geocoded_address":"上海市虹口区天宝西路252弄","date":1657814400000}},{"type":"Feature","geometry":{"type":"Point","coordinates":[121.483373,31.287812]},"properties":{"town":"虹口区","published_address":"中山北一路865弄","geocoded_address":"上海市虹口区中山北一路865弄","date":1657814400000}},{"type":"Feature","geometry":{"type":"Point","coordinates":[121.526077,31.259541]},"properties":{"town":"杨浦区","published_address":"195街坊","geocoded_address":"上海市杨浦区","date":1657814400000}},{"type":"Feature","geometry":{"type":"Point","coordinates":[121.529106,31.316385]},"properties":{"town":"杨浦区","published_address":"国和一村","geocoded_address":"上海市杨浦区国和一村","date":1657814400000}},{"type":"Feature","geometry":{"type":"Point","coordinates":[121.510115,31.292606]},"properties":{"town":"杨浦区","published_address":"国顺路388号","geocoded_address":"上海市杨浦区国顺路388号楼","date":1657814400000}},{"type":"Feature","geometry":{"type":"Point","coordinates":[121.54875,31.289846]},"properties":{"town":"杨浦区","published_address":"控江路34号","geocoded_address":"上海市杨浦区控江路|34号小区","date":1657814400000}},{"type":"Feature","geometry":{"type":"Point","coordinates":[121.523026,31.27144]},"properties":{"town":"杨浦区","published_address":"兰州路1333弄","geocoded_address":"上海市杨浦区兰州路1333弄","date":1657814400000}},{"type":"Feature","geometry":{"type":"Point","coordinates":[121.547494,31.269973]},"properties":{"town":"杨浦区","published_address":"隆昌路235号","geocoded_address":"上海市杨浦区隆昌路235号","date":1657814400000}},{"type":"Feature","geometry":{"type":"Point","coordinates":[121.532094,31.307792]},"properties":{"town":"杨浦区","published_address":"中原路28弄","geocoded_address":"上海市杨浦区中原路28弄","date":1657814400000}},{"type":"Feature","geometry":{"type":"Point","coordinates":[121.407596,31.309332]},"properties":{"town":"宝山区","published_address":"环镇北路417弄","geocoded_address":"上海市宝山区环镇北路417弄","date":1657814400000}},{"type":"Feature","geometry":{"type":"Point","coordinates":[121.485536,31.343385]},"properties":{"town":"宝山区","published_address":"长江路860弄","geocoded_address":"上海市宝山区长江路860弄","date":1657814400000}},{"type":"Feature","geometry":{"type":"Point","coordinates":[121.445306,31.361931]},"properties":{"town":"宝山区","published_address":"莲花山路517弄","geocoded_address":"上海市宝山区莲花山路517弄","date":1657814400000}},{"type":"Feature","geometry":{"type":"Point","coordinates":[121.479286,31.341217]},"properties":{"town":"宝山区","published_address":"长江南路932号","geocoded_address":"上海市宝山区长江南路932号","date":1657814400000}},{"type":"Feature","geometry":{"type":"Point","coordinates":[121.366975,31.354908]},"properties":{"town":"宝山区","published_address":"陆翔路698弄","geocoded_address":"上海市宝山区陆翔路698弄","date":1657814400000}},{"type":"Feature","geometry":{"type":"Point","coordinates":[121.471481,31.343358]},"properties":{"town":"宝山区","published_address":"长江西路755号","geocoded_address":"上海市宝山区长江西路755号","date":1657814400000}},{"type":"Feature","geometry":{"type":"Point","coordinates":[121.492709,31.332493]},"properties":{"town":"宝山区","published_address":"逸仙路2571号","geocoded_address":"上海市宝山区逸仙路|2571","date":1657814400000}},{"type":"Feature","geometry":{"type":"Point","coordinates":[121.48507,31.339085]},"properties":{"town":"宝山区","published_address":"淞南五村","geocoded_address":"上海市宝山区淞南五村","date":1657814400000}},{"type":"Feature","geometry":{"type":"Point","coordinates":[121.484184,31.40397]},"properties":{"town":"宝山区","published_address":"宝钢二村","geocoded_address":"上海市宝山区宝钢二村","date":1657814400000}},{"type":"Feature","geometry":{"type":"Point","coordinates":[121.34983,31.36454]},"properties":{"town":"宝山区","published_address":"沈宅村","geocoded_address":"上海市宝山区沈宅村","date":1657814400000}},{"type":"Feature","geometry":{"type":"Point","coordinates":[121.422777,30.99959]},"properties":{"town":"闵行区","published_address":"华坪路69弄","geocoded_address":"上海市闵行区华坪路69弄","date":1657814400000}},{"type":"Feature","geometry":{"type":"Point","coordinates":[121.253032,31.329151]},"properties":{"town":"嘉定区","published_address":"云屏路388弄","geocoded_address":"上海市嘉定区云屏路388弄","date":1657814400000}}]}}