{"2022-04-03":{"type":"FeatureCollection","features":[{"type":"Feature","geometry":{"type":"Point","coordinates":[121.705554,31.140287]},"properties":{"town":"浦东新区","published_address":"八灶村北张家宅","geocoded_address":"上海市浦东新区北张家宅","date":1648915200000}},{"type":"Feature","geometry":{"type":"Point","coordinates":[121.531224,31.165656]},"properties":{"town":"浦东新区","published_address":"板泉路2000弄","geocoded_address":"上海市浦东新区板泉路2000弄","date":1648915200000}},{"type":"Feature","geometry":{"type":"Point","coordinates":[121.494624,31.157819]},"properties":{"town":"浦东新区","published_address":"板泉路50号","geocoded_address":"上海市浦东新区板泉路50号","date":1648915200000}},{"type":"Feature","geometry":{"type":"Point","coordinates":[121.536244,31.181118]},"properties":{"town":"浦东新区","published_address":"北艾路1077弄","geocoded_address":"上海市浦东新区北艾路1077弄","date":1648915200000}},{"type":"Feature","geometry":{"type":"Point","coordinates":[121.542909,31.185863]},"properties":{"town":"浦东新区","published_address":"北艾路155弄","geocoded_address":"上海市浦东新区北艾路155弄","date":1648915200000}},{"type":"Feature","geometry":{"type":"Point","coordinates":[121.523338,31.177993]},"properties":{"town":"浦东新区","published_address":"北艾路1765弄","geocoded_address":"上海市浦东新区北艾路1765弄","date":1648915200000}},{"type":"Feature","geometry":{"type":"Point","coordinates":[121.602075,31.159292]},"properties":{"town":"浦东新区","published_address":"北蔡秦家宅","geocoded_address":"上海市浦东新区北蔡秦家宅","date":1648915200000}},{"type":"Feature","geometry":{"type":"Point","coordinates":[121.626674,31.320014]},"properties":{"town":"浦东新区","published_address":"北新园路460弄","geocoded_address":"上海市浦东新区北新园路460弄","date":1648915200000}},{"type":"Feature","geometry":{"type":"Point","coordinates":[121.523879,31.202854]},"properties":{"town":"浦东新区","published_address":"北园路258弄","geocoded_address":"上海市浦东新区北园路258弄","date":1648915200000}},{"type":"Feature","geometry":{"type":"Point","coordinates":[121.525098,31.216296]},"properties":{"town":"浦东新区","published_address":"北张家浜路170弄","geocoded_address":"上海市浦东新区北张家浜路170弄","date":1648915200000}},{"type":"Feature","geometry":{"type":"Point","coordinates":[121.525183,31.216405]},"properties":{"town":"浦东新区","published_address":"北张家浜路188弄","geocoded_address":"上海市浦东新区北张家浜路188弄","date":1648915200000}},{"type":"Feature","geometry":{"type":"Point","coordinates":[121.657244,31.093989]},"properties":{"town":"浦东新区","published_address":"北庄村","geocoded_address":"上海市浦东新区北庄村","date":1648915200000}},{"type":"Feature","geometry":{"type":"Point","coordinates":[121.576465,31.235968]},"properties":{"town":"浦东新区","published_address":"碧云路86弄","geocoded_address":"上海市浦东新区碧云路86弄","date":1648915200000}},{"type":"Feature","geometry":{"type":"Point","coordinates":[121.551217,31.17073]},"properties":{"town":"浦东新区","published_address":"博华路1018弄","geocoded_address":"上海市浦东新区博华路1018弄","date":1648915200000}},{"type":"Feature","geometry":{"type":"Point","coordinates":[121.549868,31.170129]},"properties":{"town":"浦东新区","published_address":"博华路999弄","geocoded_address":"上海市浦东新区博华路999弄","date":1648915200000}},{"type":"Feature","geometry":{"type":"Point","coordinates":[121.556038,31.185364]},"properties":{"town":"浦东新区","published_address":"博华路莲园路交界口工地生活区","geocoded_address":"上海市浦东新区博华路莲园路","date":1648915200000}},{"type":"Feature","geometry":{"type":"Point","coordinates":[121.563344,31.25078]},"properties":{"town":"浦东新区","published_address":"博山东路111弄","geocoded_address":"上海市浦东新区博山东路111弄","date":1648915200000}},{"type":"Feature","geometry":{"type":"Point","coordinates":[121.564794,31.249387]},"properties":{"town":"浦东新区","published_address":"博山东路136弄","geocoded_address":"上海市浦东新区博山东路136弄","date":1648915200000}},{"type":"Feature","geometry":{"type":"Point","coordinates":[121.55887,31.247869]},"properties":{"town":"浦东新区","published_address":"博山东路41弄","geocoded_address":"上海市浦东新区博山东路41弄","date":1648915200000}},{"type":"Feature","geometry":{"type":"Point","coordinates":[121.568457,31.252103]},"properties":{"town":"浦东新区","published_address":"博山东路440弄","geocoded_address":"上海市浦东新区博山东路440弄","date":1648915200000}},{"type":"Feature","geometry":{"type":"Point","coordinates":[121.567859,31.253536]},"properties":{"town":"浦东新区","published_address":"博山东路459弄","geocoded_address":"上海市浦东新区博山东路459弄","date":1648915200000}},{"type":"Feature","geometry":{"type":"Point","coordinates":[121.570464,31.256209]},"properties":{"town":"浦东新区","published_address":"博山东路555弄","geocoded_address":"上海市浦东新区博山东路555弄","date":1648915200000}},{"type":"Feature","geometry":{"type":"Point","coordinates":[121.575692,31.2574]},"properties":{"town":"浦东新区","published_address":"博山东路811弄","geocoded_address":"上海市浦东新区博山东路811弄","date":1648915200000}},{"type":"Feature","geometry":{"type":"Point","coordinates":[121.561392,31.248623]},"properties":{"town":"浦东新区","published_address":"博山东路81弄","geocoded_address":"上海市浦东新区博山东路81弄","date":1648915200000}},{"type":"Feature","geometry":{"type":"Point","coordinates":[121.552681,31.244804]},"properties":{"town":"浦东新区","published_address":"博山路200弄","geocoded_address":"上海市浦东新区博山路200弄","date":1648915200000}},{"type":"Feature","geometry":{"type":"Point","coordinates":[121.362206,31.359091]},"properties":{"town":"浦东新区","published_address":"博山路50弄","geocoded_address":"上海市宝山区50弄","date":1648915200000}},{"type":"Feature","geometry":{"type":"Point","coordinates":[121.594806,31.267441]},"properties":{"town":"浦东新区","published_address":"博兴路1185弄","geocoded_address":"上海市浦东新区博兴路1185弄","date":1648915200000}},{"type":"Feature","geometry":{"type":"Point","coordinates":[121.602122,31.275607]},"properties":{"town":"浦东新区","published_address":"博兴路1676弄","geocoded_address":"上海市浦东新区博兴路1676弄","date":1648915200000}},{"type":"Feature","geometry":{"type":"Point","coordinates":[121.578757,31.269007]},"properties":{"town":"浦东新区","published_address":"博兴路250弄","geocoded_address":"上海市浦东新区博兴路250弄","date":1648915200000}},{"type":"Feature","geometry":{"type":"Point","coordinates":[121.58544,31.266009]},"properties":{"town":"浦东新区","published_address":"博兴路465弄","geocoded_address":"上海市浦东新区博兴路465弄","date":1648915200000}},{"type":"Feature","geometry":{"type":"Point","coordinates":[121.58504,31.263282]},"properties":{"town":"浦东新区","published_address":"博兴路616弄","geocoded_address":"上海市浦东新区博兴路616弄","date":1648915200000}},{"type":"Feature","geometry":{"type":"Point","coordinates":[121.593422,31.265394]},"properties":{"town":"浦东新区","published_address":"博兴路986弄","geocoded_address":"上海市浦东新区博兴路986弄","date":1648915200000}},{"type":"Feature","geometry":{"type":"Point","coordinates":[121.398941,31.300546]},"properties":{"town":"浦东新区","published_address":"昌里东路190弄","geocoded_address":"上海市宝山区190弄","date":1648915200000}},{"type":"Feature","geometry":{"type":"Point","coordinates":[121.510589,31.177694]},"properties":{"town":"浦东新区","published_address":"昌里东路333弄","geocoded_address":"上海市浦东新区昌里东路333弄","date":1648915200000}},{"type":"Feature","geometry":{"type":"Point","coordinates":[121.513844,31.178088]},"properties":{"town":"浦东新区","published_address":"昌里东路500弄","geocoded_address":"上海市浦东新区昌里东路500弄","date":1648915200000}},{"type":"Feature","geometry":{"type":"Point","coordinates":[121.506203,31.176316]},"properties":{"town":"浦东新区","published_address":"昌里东路71弄","geocoded_address":"上海市浦东新区昌里东路71弄","date":1648915200000}},{"type":"Feature","geometry":{"type":"Point","coordinates":[121.497553,31.175154]},"properties":{"town":"浦东新区","published_address":"昌里路167弄","geocoded_address":"上海市浦东新区昌里路167弄","date":1648915200000}},{"type":"Feature","geometry":{"type":"Point","coordinates":[121.491798,31.171967]},"properties":{"town":"浦东新区","published_address":"昌里路340弄","geocoded_address":"上海市浦东新区昌里路340弄","date":1648915200000}},{"type":"Feature","geometry":{"type":"Point","coordinates":[121.835936,31.097051]},"properties":{"town":"浦东新区","published_address":"朝农新村","geocoded_address":"上海市浦东新区朝农新村","date":1648915200000}},{"type":"Feature","geometry":{"type":"Point","coordinates":[121.685171,31.235432]},"properties":{"town":"浦东新区","published_address":"朝阳新村","geocoded_address":"上海市浦东新区朝阳新村","date":1648915200000}},{"type":"Feature","geometry":{"type":"Point","coordinates":[121.596555,31.076109]},"properties":{"town":"浦东新区","published_address":"沉香村","geocoded_address":"上海市浦东新区沉香村","date":1648915200000}},{"type":"Feature","geometry":{"type":"Point","coordinates":[121.559609,31.175139]},"properties":{"town":"浦东新区","published_address":"陈春东路88弄","geocoded_address":"上海市浦东新区陈春东路88弄","date":1648915200000}},{"type":"Feature","geometry":{"type":"Point","coordinates":[121.560259,31.175747]},"properties":{"town":"浦东新区","published_address":"陈春东路99弄","geocoded_address":"上海市浦东新区陈春东路99弄","date":1648915200000}},{"type":"Feature","geometry":{"type":"Point","coordinates":[121.54571,31.172849]},"properties":{"town":"浦东新区","published_address":"陈春路620弄","geocoded_address":"上海市浦东新区陈春路620弄","date":1648915200000}},{"type":"Feature","geometry":{"type":"Point","coordinates":[121.556697,31.174692]},"properties":{"town":"浦东新区","published_address":"陈桥村","geocoded_address":"上海市浦东新区陈桥村","date":1648915200000}},{"type":"Feature","geometry":{"type":"Point","coordinates":[121.502274,31.17158]},"properties":{"town":"浦东新区","published_address":"成山路300弄","geocoded_address":"上海市浦东新区成山路300弄","date":1648915200000}},{"type":"Feature","geometry":{"type":"Point","coordinates":[121.511762,31.170349]},"properties":{"town":"浦东新区","published_address":"成山路668弄","geocoded_address":"上海市浦东新区成山路668弄","date":1648915200000}},{"type":"Feature","geometry":{"type":"Point","coordinates":[121.686216,31.188996]},"properties":{"town":"浦东新区","published_address":"城丰路245弄","geocoded_address":"上海市浦东新区城丰路245弄","date":1648915200000}},{"type":"Feature","geometry":{"type":"Point","coordinates":[121.689285,31.191183]},"properties":{"town":"浦东新区","published_address":"城丰路70弄","geocoded_address":"上海市浦东新区城丰路70弄","date":1648915200000}},{"type":"Feature","geometry":{"type":"Point","coordinates":[121.750908,31.041618]},"properties":{"town":"浦东新区","published_address":"城南路303弄","geocoded_address":"上海市浦东新区城南路303弄","date":1648915200000}},{"type":"Feature","geometry":{"type":"Point","coordinates":[121.696932,31.18988]},"properties":{"town":"浦东新区","published_address":"城南路497弄","geocoded_address":"上海市浦东新区城南路497弄","date":1648915200000}},{"type":"Feature","geometry":{"type":"Point","coordinates":[121.69696,31.19167]},"properties":{"town":"浦东新区","published_address":"城南路550弄","geocoded_address":"上海市浦东新区城南路550弄","date":1648915200000}},{"type":"Feature","geometry":{"type":"Point","coordinates":[121.612187,31.181297]},"properties":{"town":"浦东新区","published_address":"川和路333弄","geocoded_address":"上海市浦东新区川和路333弄","date":1648915200000}},{"type":"Feature","geometry":{"type":"Point","coordinates":[121.697442,31.194811]},"properties":{"town":"浦东新区","published_address":"川沙路4850弄","geocoded_address":"上海市浦东新区川沙路4850弄","date":1648915200000}},{"type":"Feature","geometry":{"type":"Point","coordinates":[121.688127,31.192689]},"properties":{"town":"浦东新区","published_address":"川银路150弄","geocoded_address":"上海市浦东新区川银路150弄","date":1648915200000}},{"type":"Feature","geometry":{"type":"Point","coordinates":[121.61548,31.143079]},"properties":{"town":"浦东新区","published_address":"川周公路2824号","geocoded_address":"上海市浦东新区川周公路|2824号","date":1648915200000}},{"type":"Feature","geometry":{"type":"Point","coordinates":[121.579924,31.12192]},"properties":{"town":"浦东新区","published_address":"川周公路4318弄","geocoded_address":"上海市浦东新区川周公路4318弄","date":1648915200000}},{"type":"Feature","geometry":{"type":"Point","coordinates":[121.70862,31.183258]},"properties":{"town":"浦东新区","published_address":"川周路8682弄","geocoded_address":"上海市浦东新区川周路8682弄","date":1648915200000}},{"type":"Feature","geometry":{"type":"Point","coordinates":[121.653096,31.203425]},"properties":{"town":"浦东新区","published_address":"创新西路300弄","geocoded_address":"上海市浦东新区创新西路300弄","date":1648915200000}},{"type":"Feature","geometry":{"type":"Point","coordinates":[121.66886,31.211369]},"properties":{"town":"浦东新区","published_address":"创新中路593弄","geocoded_address":"上海市浦东新区创新中路593弄","date":1648915200000}},{"type":"Feature","geometry":{"type":"Point","coordinates":[121.612661,31.142188]},"properties":{"town":"浦东新区","published_address":"创业路87弄","geocoded_address":"上海市浦东新区创业路87弄","date":1648915200000}},{"type":"Feature","geometry":{"type":"Point","coordinates":[121.60296,31.200911]},"properties":{"town":"浦东新区","published_address":"大众村","geocoded_address":"上海市浦东新区大众村","date":1648915200000}},{"type":"Feature","geometry":{"type":"Point","coordinates":[121.586184,31.300336]},"properties":{"town":"浦东新区","published_address":"德爱路380弄","geocoded_address":"上海市浦东新区德爱路380弄","date":1648915200000}},{"type":"Feature","geometry":{"type":"Point","coordinates":[121.666725,31.228564]},"properties":{"town":"浦东新区","published_address":"德淳路99弄","geocoded_address":"上海市浦东新区德淳路99弄","date":1648915200000}},{"type":"Feature","geometry":{"type":"Point","coordinates":[121.566648,31.242748]},"properties":{"town":"浦东新区","published_address":"德平路1060弄","geocoded_address":"上海市浦东新区德平路1060弄","date":1648915200000}},{"type":"Feature","geometry":{"type":"Point","coordinates":[121.567796,31.24265]},"properties":{"town":"浦东新区","published_address":"德平路1065弄","geocoded_address":"上海市浦东新区德平路1065弄","date":1648915200000}},{"type":"Feature","geometry":{"type":"Point","coordinates":[121.56719,31.241991]},"properties":{"town":"浦东新区","published_address":"德平路1066弄","geocoded_address":"上海市浦东新区德平路1066弄","date":1648915200000}},{"type":"Feature","geometry":{"type":"Point","coordinates":[121.569775,31.241866]},"properties":{"town":"浦东新区","published_address":"德平路1125弄","geocoded_address":"上海市浦东新区德平路1125弄","date":1648915200000}},{"type":"Feature","geometry":{"type":"Point","coordinates":[121.569817,31.239195]},"properties":{"town":"浦东新区","published_address":"德平路1134弄","geocoded_address":"上海市浦东新区德平路1134弄","date":1648915200000}},{"type":"Feature","geometry":{"type":"Point","coordinates":[121.571492,31.240149]},"properties":{"town":"浦东新区","published_address":"德平路1189弄","geocoded_address":"上海市浦东新区德平路1189弄","date":1648915200000}},{"type":"Feature","geometry":{"type":"Point","coordinates":[121.504653,31.169023]},"properties":{"town":"浦东新区","published_address":"德州路20弄","geocoded_address":"上海市浦东新区德州路20弄","date":1648915200000}},{"type":"Feature","geometry":{"type":"Point","coordinates":[121.495389,31.16841]},"properties":{"town":"浦东新区","published_address":"德州路223弄","geocoded_address":"上海市浦东新区德州路223弄","date":1648915200000}},{"type":"Feature","geometry":{"type":"Point","coordinates":[121.492316,31.168652]},"properties":{"town":"浦东新区","published_address":"德州路255弄","geocoded_address":"上海市浦东新区德州路255弄","date":1648915200000}},{"type":"Feature","geometry":{"type":"Point","coordinates":[121.485974,31.164638]},"properties":{"town":"浦东新区","published_address":"德州路380弄","geocoded_address":"上海市浦东新区德州路380弄","date":1648915200000}},{"type":"Feature","geometry":{"type":"Point","coordinates":[121.502598,31.168886]},"properties":{"town":"浦东新区","published_address":"德州路60弄","geocoded_address":"上海市浦东新区德州路60弄","date":1648915200000}},{"type":"Feature","geometry":{"type":"Point","coordinates":[121.554606,31.228857]},"properties":{"town":"浦东新区","published_address":"丁香路1089弄","geocoded_address":"上海市浦东新区丁香路1089弄","date":1648915200000}},{"type":"Feature","geometry":{"type":"Point","coordinates":[121.564242,31.229547]},"properties":{"town":"浦东新区","published_address":"丁香路1399弄","geocoded_address":"上海市浦东新区丁香路1399弄","date":1648915200000}},{"type":"Feature","geometry":{"type":"Point","coordinates":[121.541974,31.222328]},"properties":{"town":"浦东新区","published_address":"丁香路1400弄","geocoded_address":"上海市浦东新区丁香路","date":1648915200000}},{"type":"Feature","geometry":{"type":"Point","coordinates":[121.56547,31.228431]},"properties":{"town":"浦东新区","published_address":"丁香路1599弄","geocoded_address":"上海市浦东新区丁香路1599弄","date":1648915200000}},{"type":"Feature","geometry":{"type":"Point","coordinates":[121.581686,31.115594]},"properties":{"town":"浦东新区","published_address":"东八灶115弄","geocoded_address":"上海市浦东新区东八灶","date":1648915200000}},{"type":"Feature","geometry":{"type":"Point","coordinates":[121.579925,31.285102]},"properties":{"town":"浦东新区","published_address":"东波路195弄","geocoded_address":"上海市浦东新区东波路195弄","date":1648915200000}},{"type":"Feature","geometry":{"type":"Point","coordinates":[121.586701,31.28507]},"properties":{"town":"浦东新区","published_address":"东波路585弄","geocoded_address":"上海市浦东新区东波路585弄","date":1648915200000}},{"type":"Feature","geometry":{"type":"Point","coordinates":[121.521789,31.199175]},"properties":{"town":"浦东新区","published_address":"东方路1881弄","geocoded_address":"上海市浦东新区东方路1881弄","date":1648915200000}},{"type":"Feature","geometry":{"type":"Point","coordinates":[121.521432,31.196903]},"properties":{"town":"浦东新区","published_address":"东方路1957弄","geocoded_address":"上海市浦东新区东方路1957弄","date":1648915200000}},{"type":"Feature","geometry":{"type":"Point","coordinates":[121.524899,31.231944]},"properties":{"town":"浦东新区","published_address":"东方路573弄","geocoded_address":"上海市浦东新区东方路573弄","date":1648915200000}},{"type":"Feature","geometry":{"type":"Point","coordinates":[121.540389,31.200227]},"properties":{"town":"浦东新区","published_address":"东建路670弄","geocoded_address":"上海市浦东新区东建路670弄","date":1648915200000}},{"type":"Feature","geometry":{"type":"Point","coordinates":[121.57665,31.291986]},"properties":{"town":"浦东新区","published_address":"东靖路247弄","geocoded_address":"上海市浦东新区东靖路247弄","date":1648915200000}},{"type":"Feature","geometry":{"type":"Point","coordinates":[121.586456,31.293936]},"properties":{"town":"浦东新区","published_address":"东靖路669弄","geocoded_address":"上海市浦东新区东靖路669弄","date":1648915200000}},{"type":"Feature","geometry":{"type":"Point","coordinates":[121.592675,31.27294]},"properties":{"town":"浦东新区","published_address":"东陆路1018弄","geocoded_address":"上海市浦东新区东陆路1018弄","date":1648915200000}},{"type":"Feature","geometry":{"type":"Point","coordinates":[121.596251,31.268468]},"properties":{"town":"浦东新区","published_address":"东陆路1268弄","geocoded_address":"上海市浦东新区东陆路1268弄","date":1648915200000}},{"type":"Feature","geometry":{"type":"Point","coordinates":[121.586703,31.280783]},"properties":{"town":"浦东新区","published_address":"东陆路429弄","geocoded_address":"上海市浦东新区东陆路429弄","date":1648915200000}},{"type":"Feature","geometry":{"type":"Point","coordinates":[121.591536,31.273345]},"properties":{"town":"浦东新区","published_address":"东陆路898弄","geocoded_address":"上海市浦东新区东陆路898弄","date":1648915200000}},{"type":"Feature","geometry":{"type":"Point","coordinates":[121.509851,31.201489]},"properties":{"town":"浦东新区","published_address":"东三街102弄","geocoded_address":"上海市浦东新区东三街102弄","date":1648915200000}},{"type":"Feature","geometry":{"type":"Point","coordinates":[121.535069,31.198824]},"properties":{"town":"浦东新区","published_address":"东绣路1155弄","geocoded_address":"上海市浦东新区东绣路1155弄","date":1648915200000}},{"type":"Feature","geometry":{"type":"Point","coordinates":[121.6678,31.195983]},"properties":{"town":"浦东新区","published_address":"对面村曹家宅","geocoded_address":"上海市浦东新区对面村","date":1648915200000}},{"type":"Feature","geometry":{"type":"Point","coordinates":[121.584624,31.306133]},"properties":{"town":"浦东新区","published_address":"繁锦路1288弄","geocoded_address":"上海市浦东新区繁锦路1288弄","date":1648915200000}},{"type":"Feature","geometry":{"type":"Point","coordinates":[121.587666,31.105874]},"properties":{"town":"浦东新区","published_address":"繁荣东路150弄","geocoded_address":"上海市浦东新区繁荣东路150弄","date":1648915200000}},{"type":"Feature","geometry":{"type":"Point","coordinates":[121.585843,31.107723]},"properties":{"town":"浦东新区","published_address":"繁荣东路159弄","geocoded_address":"上海市浦东新区繁荣东路159弄","date":1648915200000}},{"type":"Feature","geometry":{"type":"Point","coordinates":[121.557688,31.192759]},"properties":{"town":"浦东新区","published_address":"芳草路352弄","geocoded_address":"上海市浦东新区芳草路352弄","date":1648915200000}},{"type":"Feature","geometry":{"type":"Point","coordinates":[121.554708,31.195695]},"properties":{"town":"浦东新区","published_address":"芳华路229弄","geocoded_address":"上海市浦东新区芳华路229弄","date":1648915200000}},{"type":"Feature","geometry":{"type":"Point","coordinates":[121.556233,31.194601]},"properties":{"town":"浦东新区","published_address":"芳华路268弄","geocoded_address":"上海市浦东新区芳华路268弄","date":1648915200000}},{"type":"Feature","geometry":{"type":"Point","coordinates":[121.557784,31.196189]},"properties":{"town":"浦东新区","published_address":"芳华路371弄","geocoded_address":"上海市浦东新区芳华路371弄","date":1648915200000}},{"type":"Feature","geometry":{"type":"Point","coordinates":[121.562045,31.196908]},"properties":{"town":"浦东新区","published_address":"芳华路573弄","geocoded_address":"上海市浦东新区芳华路573弄","date":1648915200000}},{"type":"Feature","geometry":{"type":"Point","coordinates":[121.593064,31.013016]},"properties":{"town":"浦东新区","published_address":"丰桥村","geocoded_address":"上海市浦东新区丰桥村","date":1648915200000}},{"type":"Feature","geometry":{"type":"Point","coordinates":[121.527233,31.232532]},"properties":{"town":"浦东新区","published_address":"福山路100弄","geocoded_address":"上海市浦东新区福山路100弄","date":1648915200000}},{"type":"Feature","geometry":{"type":"Point","coordinates":[121.526618,31.231097]},"properties":{"town":"浦东新区","published_address":"福山路102弄","geocoded_address":"上海市浦东新区福山路102弄","date":1648915200000}},{"type":"Feature","geometry":{"type":"Point","coordinates":[121.52703,31.233109]},"properties":{"town":"浦东新区","published_address":"福山路98号","geocoded_address":"上海市浦东新区福山路|98号","date":1648915200000}},{"type":"Feature","geometry":{"type":"Point","coordinates":[121.688409,31.219385]},"properties":{"town":"浦东新区","published_address":"高科东路1870号","geocoded_address":"上海市浦东新区高科东路1870号","date":1648915200000}},{"type":"Feature","geometry":{"type":"Point","coordinates":[121.535798,31.188135]},"properties":{"town":"浦东新区","published_address":"高科西路2111弄","geocoded_address":"上海市浦东新区高科西路2111弄","date":1648915200000}},{"type":"Feature","geometry":{"type":"Point","coordinates":[121.554296,31.189313]},"properties":{"town":"浦东新区","published_address":"高科西路2757弄","geocoded_address":"上海市浦东新区高科西路2757弄","date":1648915200000}},{"type":"Feature","geometry":{"type":"Point","coordinates":[121.724395,31.166991]},"properties":{"town":"浦东新区","published_address":"高桥村","geocoded_address":"上海市浦东新区高桥村","date":1648915200000}},{"type":"Feature","geometry":{"type":"Point","coordinates":[121.561787,31.171069]},"properties":{"town":"浦东新区","published_address":"高青路4567弄","geocoded_address":"上海市浦东新区高青路4567弄","date":1648915200000}},{"type":"Feature","geometry":{"type":"Point","coordinates":[121.57555,31.12175]},"properties":{"town":"浦东新区","published_address":"公元一村","geocoded_address":"上海市浦东新区公元一村","date":1648915200000}},{"type":"Feature","geometry":{"type":"Point","coordinates":[121.679968,31.266509]},"properties":{"town":"浦东新区","published_address":"龚华路35号","geocoded_address":"上海市浦东新区龚华路|35","date":1648915200000}},{"type":"Feature","geometry":{"type":"Point","coordinates":[121.685816,31.260781]},"properties":{"town":"浦东新区","published_address":"龚华路406弄","geocoded_address":"上海市浦东新区龚华路406弄","date":1648915200000}},{"type":"Feature","geometry":{"type":"Point","coordinates":[121.683747,31.266927]},"properties":{"town":"浦东新区","published_address":"龚华路50弄","geocoded_address":"上海市浦东新区龚华路50弄","date":1648915200000}},{"type":"Feature","geometry":{"type":"Point","coordinates":[121.744071,31.05489]},"properties":{"town":"浦东新区","published_address":"拱极路4100弄","geocoded_address":"上海市浦东新区拱极路4100弄","date":1648915200000}},{"type":"Feature","geometry":{"type":"Point","coordinates":[121.664456,31.293083]},"properties":{"town":"浦东新区","published_address":"顾曹路589号","geocoded_address":"上海市浦东新区顾曹路|589号","date":1648915200000}},{"type":"Feature","geometry":{"type":"Point","coordinates":[121.661376,31.293138]},"properties":{"town":"浦东新区","published_address":"顾东村","geocoded_address":"上海市浦东新区顾东村","date":1648915200000}},{"type":"Feature","geometry":{"type":"Point","coordinates":[121.553675,31.245927]},"properties":{"town":"浦东新区","published_address":"崮山路251弄","geocoded_address":"上海市浦东新区崮山路251弄","date":1648915200000}},{"type":"Feature","geometry":{"type":"Point","coordinates":[121.554656,31.246169]},"properties":{"town":"浦东新区","published_address":"崮山路311号","geocoded_address":"上海市浦东新区崮山路311号","date":1648915200000}},{"type":"Feature","geometry":{"type":"Point","coordinates":[121.554843,31.244461]},"properties":{"town":"浦东新区","published_address":"崮山路322弄","geocoded_address":"上海市浦东新区崮山路322弄","date":1648915200000}},{"type":"Feature","geometry":{"type":"Point","coordinates":[121.588281,31.120879]},"properties":{"town":"浦东新区","published_address":"关岳路229弄","geocoded_address":"上海市浦东新区关岳路229弄","date":1648915200000}},{"type":"Feature","geometry":{"type":"Point","coordinates":[121.374479,31.427947]},"properties":{"town":"浦东新区","published_address":"光明村","geocoded_address":"上海市宝山区光明村","date":1648915200000}},{"type":"Feature","geometry":{"type":"Point","coordinates":[121.614304,31.334878]},"properties":{"town":"浦东新区","published_address":"光明路61弄","geocoded_address":"上海市浦东新区光明路61弄","date":1648915200000}},{"type":"Feature","geometry":{"type":"Point","coordinates":[121.613423,31.334284]},"properties":{"town":"浦东新区","published_address":"光明路62弄","geocoded_address":"上海市浦东新区光明路62弄","date":1648915200000}},{"type":"Feature","geometry":{"type":"Point","coordinates":[121.764693,31.109369]},"properties":{"town":"浦东新区","published_address":"广益路15弄","geocoded_address":"上海市浦东新区广益路15弄","date":1648915200000}},{"type":"Feature","geometry":{"type":"Point","coordinates":[121.672473,31.28274]},"properties":{"town":"浦东新区","published_address":"海鸣路98弄","geocoded_address":"上海市浦东新区海鸣路98弄","date":1648915200000}},{"type":"Feature","geometry":{"type":"Point","coordinates":[121.67424,31.289495]},"properties":{"town":"浦东新区","published_address":"海鹏路301弄","geocoded_address":"上海市浦东新区海鹏路301弄","date":1648915200000}},{"type":"Feature","geometry":{"type":"Point","coordinates":[121.610459,31.010373]},"properties":{"town":"浦东新区","published_address":"海桥村","geocoded_address":"上海市浦东新区海桥村","date":1648915200000}},{"type":"Feature","geometry":{"type":"Point","coordinates":[121.673785,31.280018]},"properties":{"town":"浦东新区","published_address":"海容路99弄","geocoded_address":"上海市浦东新区海容路99弄","date":1648915200000}},{"type":"Feature","geometry":{"type":"Point","coordinates":[121.680712,31.27919]},"properties":{"town":"浦东新区","published_address":"海松路421弄","geocoded_address":"上海市浦东新区海松路421弄","date":1648915200000}},{"type":"Feature","geometry":{"type":"Point","coordinates":[121.675991,31.274775]},"properties":{"town":"浦东新区","published_address":"海松路52弄","geocoded_address":"上海市浦东新区海松路52弄","date":1648915200000}},{"type":"Feature","geometry":{"type":"Point","coordinates":[121.746375,31.170293]},"properties":{"town":"浦东新区","published_address":"海霞路685弄","geocoded_address":"上海市浦东新区海霞路685弄","date":1648915200000}},{"type":"Feature","geometry":{"type":"Point","coordinates":[121.505373,31.15926]},"properties":{"town":"浦东新区","published_address":"海阳路1065弄","geocoded_address":"上海市浦东新区海阳路1065弄","date":1648915200000}},{"type":"Feature","geometry":{"type":"Point","coordinates":[121.506616,31.157235]},"properties":{"town":"浦东新区","published_address":"海阳路1080弄","geocoded_address":"上海市浦东新区海阳路1080弄","date":1648915200000}},{"type":"Feature","geometry":{"type":"Point","coordinates":[121.502278,31.157815]},"properties":{"town":"浦东新区","published_address":"海阳路841号","geocoded_address":"上海市浦东新区海阳路841号","date":1648915200000}},{"type":"Feature","geometry":{"type":"Point","coordinates":[121.756176,31.149228]},"properties":{"town":"浦东新区","published_address":"航城四路616弄","geocoded_address":"上海市浦东新区航城四路616弄","date":1648915200000}},{"type":"Feature","geometry":{"type":"Point","coordinates":[121.599392,31.028466]},"properties":{"town":"浦东新区","published_address":"航东村","geocoded_address":"上海市浦东新区航东村","date":1648915200000}},{"type":"Feature","geometry":{"type":"Point","coordinates":[121.574216,31.024454]},"properties":{"town":"浦东新区","published_address":"航梅路525弄","geocoded_address":"上海市浦东新区航梅路525弄","date":1648915200000}},{"type":"Feature","geometry":{"type":"Point","coordinates":[121.582159,31.0239]},"properties":{"town":"浦东新区","published_address":"航梅路526弄","geocoded_address":"上海市浦东新区航梅路526弄","date":1648915200000}},{"type":"Feature","geometry":{"type":"Point","coordinates":[121.592596,31.07109]},"properties":{"town":"浦东新区","published_address":"航瑞路175弄","geocoded_address":"上海市浦东新区航瑞路175弄","date":1648915200000}},{"type":"Feature","geometry":{"type":"Point","coordinates":[121.590017,31.032418]},"properties":{"town":"浦东新区","published_address":"航头路1257弄","geocoded_address":"上海市浦东新区航头路1257弄","date":1648915200000}},{"type":"Feature","geometry":{"type":"Point","coordinates":[121.603109,31.035194]},"properties":{"town":"浦东新区","published_address":"航头路166号","geocoded_address":"上海市浦东新区航头路166号","date":1648915200000}},{"type":"Feature","geometry":{"type":"Point","coordinates":[121.600664,31.037206]},"properties":{"town":"浦东新区","published_address":"航头路988弄","geocoded_address":"上海市浦东新区航头路988弄","date":1648915200000}},{"type":"Feature","geometry":{"type":"Point","coordinates":[121.646935,31.205135]},"properties":{"town":"浦东新区","published_address":"和平村龚家宅","geocoded_address":"上海市浦东新区龚家宅","date":1648915200000}},{"type":"Feature","geometry":{"type":"Point","coordinates":[121.593835,31.268924]},"properties":{"town":"浦东新区","published_address":"菏泽路287弄","geocoded_address":"上海市浦东新区菏泽路287弄","date":1648915200000}},{"type":"Feature","geometry":{"type":"Point","coordinates":[121.593016,31.266881]},"properties":{"town":"浦东新区","published_address":"菏泽路418弄","geocoded_address":"上海市浦东新区菏泽路418弄","date":1648915200000}},{"type":"Feature","geometry":{"type":"Point","coordinates":[121.594833,31.079089]},"properties":{"town":"浦东新区","published_address":"鹤驰路99弄","geocoded_address":"上海市浦东新区鹤驰路99弄","date":1648915200000}},{"type":"Feature","geometry":{"type":"Point","coordinates":[121.586552,31.054961]},"properties":{"town":"浦东新区","published_address":"鹤立西路183号","geocoded_address":"上海市浦东新区鹤立西路|183","date":1648915200000}},{"type":"Feature","geometry":{"type":"Point","coordinates":[121.58823,31.045703]},"properties":{"town":"浦东新区","published_address":"鹤鸣村","geocoded_address":"上海市浦东新区鹤鸣村","date":1648915200000}},{"type":"Feature","geometry":{"type":"Point","coordinates":[121.585712,31.047551]},"properties":{"town":"浦东新区","published_address":"鹤鸣新苑-二村","geocoded_address":"上海市浦东新区鹤鸣新苑","date":1648915200000}},{"type":"Feature","geometry":{"type":"Point","coordinates":[121.590902,31.081406]},"properties":{"town":"浦东新区","published_address":"鹤沙路699弄","geocoded_address":"上海市浦东新区鹤沙路699弄","date":1648915200000}},{"type":"Feature","geometry":{"type":"Point","coordinates":[121.60283,31.074415]},"properties":{"town":"浦东新区","published_address":"鹤永路600弄","geocoded_address":"上海市浦东新区鹤永路600弄","date":1648915200000}},{"type":"Feature","geometry":{"type":"Point","coordinates":[121.603457,31.072021]},"properties":{"town":"浦东新区","published_address":"鹤永路750弄","geocoded_address":"上海市浦东新区鹤永路750弄","date":1648915200000}},{"type":"Feature","geometry":{"type":"Point","coordinates":[121.587904,31.243796]},"properties":{"town":"浦东新区","published_address":"红枫路108弄","geocoded_address":"上海市浦东新区红枫路108弄","date":1648915200000}},{"type":"Feature","geometry":{"type":"Point","coordinates":[121.326506,31.487458]},"properties":{"town":"浦东新区","published_address":"红旗村东桥队毛家塘","geocoded_address":"上海市宝山区毛家塘","date":1648915200000}},{"type":"Feature","geometry":{"type":"Point","coordinates":[121.493708,31.121384]},"properties":{"town":"浦东新区","published_address":"红旗村姜胡宅队江湖宅","geocoded_address":"上海市浦东新区红旗村姜胡宅队江湖宅","date":1648915200000}},{"type":"Feature","geometry":{"type":"Point","coordinates":[121.494144,31.121282]},"properties":{"town":"浦东新区","published_address":"红旗村镇南队江湖宅","geocoded_address":"上海市浦东新区江湖宅","date":1648915200000}},{"type":"Feature","geometry":{"type":"Point","coordinates":[121.673202,31.253705]},"properties":{"town":"浦东新区","published_address":"红三村","geocoded_address":"上海市浦东新区红三村","date":1648915200000}},{"type":"Feature","geometry":{"type":"Point","coordinates":[121.674101,31.239126]},"properties":{"town":"浦东新区","published_address":"宏雅路150弄","geocoded_address":"上海市浦东新区宏雅路150弄","date":1648915200000}},{"type":"Feature","geometry":{"type":"Point","coordinates":[121.680677,31.235958]},"properties":{"town":"浦东新区","published_address":"虹二村","geocoded_address":"上海市浦东新区虹二村","date":1648915200000}},{"type":"Feature","geometry":{"type":"Point","coordinates":[121.528135,31.133263]},"properties":{"town":"浦东新区","published_address":"虹桥村四队南王家宅","geocoded_address":"上海市浦东新区南王家宅","date":1648915200000}},{"type":"Feature","geometry":{"type":"Point","coordinates":[121.39691,31.342166]},"properties":{"town":"浦东新区","published_address":"虹三村赵家宅","geocoded_address":"上海市宝山区赵家宅","date":1648915200000}},{"type":"Feature","geometry":{"type":"Point","coordinates":[121.49913,31.178826]},"properties":{"town":"浦东新区","published_address":"洪山路121弄","geocoded_address":"上海市浦东新区洪山路121弄","date":1648915200000}},{"type":"Feature","geometry":{"type":"Point","coordinates":[121.586719,31.125041]},"properties":{"town":"浦东新区","published_address":"胡巷村金家宅","geocoded_address":"上海市浦东新区金家宅","date":1648915200000}},{"type":"Feature","geometry":{"type":"Point","coordinates":[121.548341,31.166473]},"properties":{"town":"浦东新区","published_address":"胡巷村张家宅","geocoded_address":"上海市浦东新区张家宅","date":1648915200000}},{"type":"Feature","geometry":{"type":"Point","coordinates":[121.582569,31.268686]},"properties":{"town":"浦东新区","published_address":"沪二小区","geocoded_address":"上海市浦东新区沪二小区","date":1648915200000}},{"type":"Feature","geometry":{"type":"Point","coordinates":[121.565412,31.113877]},"properties":{"town":"浦东新区","published_address":"沪南公路3468弄","geocoded_address":"上海市浦东新区沪南公路3468弄","date":1648915200000}},{"type":"Feature","geometry":{"type":"Point","coordinates":[121.653933,31.028558]},"properties":{"town":"浦东新区","published_address":"沪南公路7518号","geocoded_address":"上海市浦东新区沪南公路7518号","date":1648915200000}},{"type":"Feature","geometry":{"type":"Point","coordinates":[121.564914,31.150375]},"properties":{"town":"浦东新区","published_address":"沪南路2518弄","geocoded_address":"上海市浦东新区沪南路2518弄","date":1648915200000}},{"type":"Feature","geometry":{"type":"Point","coordinates":[121.56355,31.137773]},"properties":{"town":"浦东新区","published_address":"沪南路2688弄","geocoded_address":"上海市浦东新区沪南路2688弄","date":1648915200000}},{"type":"Feature","geometry":{"type":"Point","coordinates":[121.565375,31.122198]},"properties":{"town":"浦东新区","published_address":"沪南路3150弄","geocoded_address":"上海市浦东新区沪南路3150弄","date":1648915200000}},{"type":"Feature","geometry":{"type":"Point","coordinates":[121.568387,31.123555]},"properties":{"town":"浦东新区","published_address":"沪南路3219弄","geocoded_address":"上海市浦东新区沪南路3219弄","date":1648915200000}},{"type":"Feature","geometry":{"type":"Point","coordinates":[121.566928,31.156877]},"properties":{"town":"浦东新区","published_address":"沪南路7688号工地生活区","geocoded_address":"上海市浦东新区五建工地生活区","date":1648915200000}},{"type":"Feature","geometry":{"type":"Point","coordinates":[121.549112,31.148377]},"properties":{"town":"浦东新区","published_address":"花墙村","geocoded_address":"上海市浦东新区花墙村","date":1648915200000}},{"type":"Feature","geometry":{"type":"Point","coordinates":[121.571815,31.347624]},"properties":{"town":"浦东新区","published_address":"花山路481弄","geocoded_address":"上海市浦东新区花山路481弄","date":1648915200000}},{"type":"Feature","geometry":{"type":"Point","coordinates":[121.700585,31.176092]},"properties":{"town":"浦东新区","published_address":"华戴路599弄","geocoded_address":"上海市浦东新区华戴路599弄","date":1648915200000}},{"type":"Feature","geometry":{"type":"Point","coordinates":[121.693076,31.198336]},"properties":{"town":"浦东新区","published_address":"华夏东路2110弄","geocoded_address":"上海市浦东新区华夏东路2110弄","date":1648915200000}},{"type":"Feature","geometry":{"type":"Point","coordinates":[121.697991,31.201149]},"properties":{"town":"浦东新区","published_address":"华夏东路2345弄","geocoded_address":"上海市浦东新区华夏东路2345弄","date":1648915200000}},{"type":"Feature","geometry":{"type":"Point","coordinates":[121.715716,31.204104]},"properties":{"town":"浦东新区","published_address":"华夏东路3179号","geocoded_address":"上海市浦东新区华夏东路3179号","date":1648915200000}},{"type":"Feature","geometry":{"type":"Point","coordinates":[121.691773,31.173152]},"properties":{"town":"浦东新区","published_address":"华夏二路1500弄","geocoded_address":"上海市浦东新区华夏二路1500弄","date":1648915200000}},{"type":"Feature","geometry":{"type":"Point","coordinates":[121.684912,31.193922]},"properties":{"town":"浦东新区","published_address":"华夏二路201弄","geocoded_address":"上海市浦东新区华夏二路201弄","date":1648915200000}},{"type":"Feature","geometry":{"type":"Point","coordinates":[121.526538,31.149139]},"properties":{"town":"浦东新区","published_address":"环林东路271弄","geocoded_address":"上海市浦东新区环林东路271弄","date":1648915200000}},{"type":"Feature","geometry":{"type":"Point","coordinates":[121.529765,31.139706]},"properties":{"town":"浦东新区","published_address":"环林东路879弄","geocoded_address":"上海市浦东新区环林东路879弄","date":1648915200000}},{"type":"Feature","geometry":{"type":"Point","coordinates":[121.525845,31.140553]},"properties":{"town":"浦东新区","published_address":"环林西路777弄","geocoded_address":"上海市浦东新区环林西路777弄","date":1648915200000}},{"type":"Feature","geometry":{"type":"Point","coordinates":[121.602303,31.135994]},"properties":{"town":"浦东新区","published_address":"环桥路1137弄","geocoded_address":"上海市浦东新区环桥路1137弄","date":1648915200000}},{"type":"Feature","geometry":{"type":"Point","coordinates":[121.600955,31.140934]},"properties":{"town":"浦东新区","published_address":"环桥路1481弄","geocoded_address":"上海市浦东新区环桥路1481弄","date":1648915200000}},{"type":"Feature","geometry":{"type":"Point","coordinates":[121.603498,31.141829]},"properties":{"town":"浦东新区","published_address":"环桥路1488弄","geocoded_address":"上海市浦东新区环桥路1488弄","date":1648915200000}},{"type":"Feature","geometry":{"type":"Point","coordinates":[121.721329,31.233345]},"properties":{"town":"浦东新区","published_address":"环庆中路168弄","geocoded_address":"上海市浦东新区环庆中路168弄","date":1648915200000}},{"type":"Feature","geometry":{"type":"Point","coordinates":[121.666435,31.172247]},"properties":{"town":"浦东新区","published_address":"黄楼村奚家宅","geocoded_address":"上海市浦东新区黄楼村奚家宅","date":1648915200000}},{"type":"Feature","geometry":{"type":"Point","coordinates":[121.557468,31.203037]},"properties":{"town":"浦东新区","published_address":"机场一村","geocoded_address":"上海市浦东新区区机场","date":1648915200000}},{"type":"Feature","geometry":{"type":"Point","coordinates":[121.661269,31.214942]},"properties":{"town":"浦东新区","published_address":"机口村","geocoded_address":"上海市浦东新区机口村","date":1648915200000}},{"type":"Feature","geometry":{"type":"Point","coordinates":[121.362206,31.359091]},"properties":{"town":"浦东新区","published_address":"佳虹路50弄","geocoded_address":"上海市宝山区50弄","date":1648915200000}},{"type":"Feature","geometry":{"type":"Point","coordinates":[121.61587,31.272584]},"properties":{"town":"浦东新区","published_address":"佳京路455弄","geocoded_address":"上海市浦东新区佳京路455弄","date":1648915200000}},{"type":"Feature","geometry":{"type":"Point","coordinates":[121.61519,31.269524]},"properties":{"town":"浦东新区","published_address":"佳乐路255弄","geocoded_address":"上海市浦东新区佳乐路255弄","date":1648915200000}},{"type":"Feature","geometry":{"type":"Point","coordinates":[121.606774,31.268295]},"properties":{"town":"浦东新区","published_address":"佳林路82弄","geocoded_address":"上海市浦东新区佳林路82弄","date":1648915200000}},{"type":"Feature","geometry":{"type":"Point","coordinates":[121.840879,31.0303]},"properties":{"town":"浦东新区","published_address":"建港村","geocoded_address":"上海市浦东新区建港村","date":1648915200000}},{"type":"Feature","geometry":{"type":"Point","coordinates":[121.738309,31.174398]},"properties":{"town":"浦东新区","published_address":"江晖路296弄","geocoded_address":"上海市浦东新区江晖路296弄","date":1648915200000}},{"type":"Feature","geometry":{"type":"Point","coordinates":[121.738024,31.171045]},"properties":{"town":"浦东新区","published_address":"江晖路436弄","geocoded_address":"上海市浦东新区江晖路436弄","date":1648915200000}},{"type":"Feature","geometry":{"type":"Point","coordinates":[121.733423,31.172957]},"properties":{"town":"浦东新区","published_address":"江绣路300弄","geocoded_address":"上海市浦东新区江绣路300弄","date":1648915200000}},{"type":"Feature","geometry":{"type":"Point","coordinates":[121.661042,31.047168]},"properties":{"town":"浦东新区","published_address":"蒋桥村","geocoded_address":"上海市浦东新区蒋桥村","date":1648915200000}},{"type":"Feature","geometry":{"type":"Point","coordinates":[121.601752,31.260078]},"properties":{"town":"浦东新区","published_address":"胶东路818弄","geocoded_address":"上海市浦东新区胶东路818弄","date":1648915200000}},{"type":"Feature","geometry":{"type":"Point","coordinates":[121.648774,31.113046]},"properties":{"town":"浦东新区","published_address":"界浜村","geocoded_address":"上海市浦东新区界浜村","date":1648915200000}},{"type":"Feature","geometry":{"type":"Point","coordinates":[121.851381,30.999036]},"properties":{"town":"浦东新区","published_address":"界龙村孙家宅","geocoded_address":"上海市浦东新区孙家宅","date":1648915200000}},{"type":"Feature","geometry":{"type":"Point","coordinates":[121.60957,31.261501]},"properties":{"town":"浦东新区","published_address":"金高路2131弄","geocoded_address":"上海市浦东新区金高路2131弄","date":1648915200000}},{"type":"Feature","geometry":{"type":"Point","coordinates":[121.610652,31.257335]},"properties":{"town":"浦东新区","published_address":"金沪路99弄","geocoded_address":"上海市浦东新区金沪路99弄","date":1648915200000}},{"type":"Feature","geometry":{"type":"Point","coordinates":[121.579489,31.247402]},"properties":{"town":"浦东新区","published_address":"金口路411弄","geocoded_address":"上海市浦东新区金口路411弄","date":1648915200000}},{"type":"Feature","geometry":{"type":"Point","coordinates":[121.635223,31.240326]},"properties":{"town":"浦东新区","published_address":"金葵路1315弄","geocoded_address":"上海市浦东新区金葵路1315弄","date":1648915200000}},{"type":"Feature","geometry":{"type":"Point","coordinates":[121.62744,31.240301]},"properties":{"town":"浦东新区","published_address":"金葵路945弄","geocoded_address":"上海市浦东新区金葵路945弄","date":1648915200000}},{"type":"Feature","geometry":{"type":"Point","coordinates":[121.588829,31.247802]},"properties":{"town":"浦东新区","published_address":"金桥路1510弄","geocoded_address":"上海市浦东新区金桥路1510弄","date":1648915200000}},{"type":"Feature","geometry":{"type":"Point","coordinates":[121.57276,31.266294]},"properties":{"town":"浦东新区","published_address":"金桥路301弄","geocoded_address":"上海市浦东新区金桥路301弄","date":1648915200000}},{"type":"Feature","geometry":{"type":"Point","coordinates":[121.496331,31.315352]},"properties":{"town":"浦东新区","published_address":"金桥路351弄","geocoded_address":"上海市宝山区351弄","date":1648915200000}},{"type":"Feature","geometry":{"type":"Point","coordinates":[121.577754,31.260499]},"properties":{"town":"浦东新区","published_address":"金桥路715号","geocoded_address":"上海市浦东新区金桥路715号","date":1648915200000}},{"type":"Feature","geometry":{"type":"Point","coordinates":[121.578372,31.259141]},"properties":{"town":"浦东新区","published_address":"金桥路835弄","geocoded_address":"上海市浦东新区金桥路835弄","date":1648915200000}},{"type":"Feature","geometry":{"type":"Point","coordinates":[121.785641,30.959516]},"properties":{"town":"浦东新区","published_address":"金石村","geocoded_address":"上海市浦东新区金石村","date":1648915200000}},{"type":"Feature","geometry":{"type":"Point","coordinates":[121.58343,31.250224]},"properties":{"town":"浦东新区","published_address":"金台路115弄","geocoded_address":"上海市浦东新区金台路115弄","date":1648915200000}},{"type":"Feature","geometry":{"type":"Point","coordinates":[121.58824,31.25087]},"properties":{"town":"浦东新区","published_address":"金台路200弄","geocoded_address":"上海市浦东新区金台路200弄","date":1648915200000}},{"type":"Feature","geometry":{"type":"Point","coordinates":[121.613284,31.256122]},"properties":{"town":"浦东新区","published_address":"金湘路199号","geocoded_address":"上海市浦东新区金湘路199号","date":1648915200000}},{"type":"Feature","geometry":{"type":"Point","coordinates":[121.610237,31.254079]},"properties":{"town":"浦东新区","published_address":"金湘路345号","geocoded_address":"上海市浦东新区金湘路345号","date":1648915200000}},{"type":"Feature","geometry":{"type":"Point","coordinates":[121.609403,31.253554]},"properties":{"town":"浦东新区","published_address":"金湘路399弄","geocoded_address":"上海市浦东新区金湘路399弄","date":1648915200000}},{"type":"Feature","geometry":{"type":"Point","coordinates":[121.770484,31.112784]},"properties":{"town":"浦东新区","published_address":"金星村","geocoded_address":"上海市浦东新区金星村","date":1648915200000}},{"type":"Feature","geometry":{"type":"Point","coordinates":[121.581982,31.251171]},"properties":{"town":"浦东新区","published_address":"金杨路660弄","geocoded_address":"上海市浦东新区金杨路660弄","date":1648915200000}},{"type":"Feature","geometry":{"type":"Point","coordinates":[121.58128,31.253034]},"properties":{"town":"浦东新区","published_address":"金杨路757弄","geocoded_address":"上海市浦东新区金杨路757弄","date":1648915200000}},{"type":"Feature","geometry":{"type":"Point","coordinates":[121.538933,31.199148]},"properties":{"town":"浦东新区","published_address":"锦安东路593弄","geocoded_address":"上海市浦东新区锦安东路593弄","date":1648915200000}},{"type":"Feature","geometry":{"type":"Point","coordinates":[121.540261,31.204001]},"properties":{"town":"浦东新区","published_address":"锦安东路88弄","geocoded_address":"上海市浦东新区锦安东路88弄","date":1648915200000}},{"type":"Feature","geometry":{"type":"Point","coordinates":[121.53905,31.181208]},"properties":{"town":"浦东新区","published_address":"锦绣路3088弄","geocoded_address":"上海市浦东新区锦绣路3088弄","date":1648915200000}},{"type":"Feature","geometry":{"type":"Point","coordinates":[121.692059,31.193837]},"properties":{"town":"浦东新区","published_address":"进贤路250弄","geocoded_address":"上海市浦东新区进贤路250弄","date":1648915200000}},{"type":"Feature","geometry":{"type":"Point","coordinates":[121.568052,31.153236]},"properties":{"town":"浦东新区","published_address":"京浦路160弄","geocoded_address":"上海市浦东新区京浦路160弄","date":1648915200000}},{"type":"Feature","geometry":{"type":"Point","coordinates":[121.5621,31.260843]},"properties":{"town":"浦东新区","published_address":"居家桥路151弄","geocoded_address":"上海市浦东新区居家桥路151弄","date":1648915200000}},{"type":"Feature","geometry":{"type":"Point","coordinates":[121.54667,31.235059]},"properties":{"town":"浦东新区","published_address":"巨野路482弄","geocoded_address":"上海市浦东新区巨野路482弄","date":1648915200000}},{"type":"Feature","geometry":{"type":"Point","coordinates":[121.542936,31.244102]},"properties":{"town":"浦东新区","published_address":"巨野路大陆家宅","geocoded_address":"上海市浦东新区巨野路","date":1648915200000}},{"type":"Feature","geometry":{"type":"Point","coordinates":[121.598803,31.127174]},"properties":{"town":"浦东新区","published_address":"康弘路580弄","geocoded_address":"上海市浦东新区康弘路580弄","date":1648915200000}},{"type":"Feature","geometry":{"type":"Point","coordinates":[121.575385,31.150157]},"properties":{"town":"浦东新区","published_address":"康桥路1259弄","geocoded_address":"上海市浦东新区康桥路1259弄","date":1648915200000}},{"type":"Feature","geometry":{"type":"Point","coordinates":[121.572956,31.150475]},"properties":{"town":"浦东新区","published_address":"康桥路1558弄","geocoded_address":"上海市浦东新区康桥路1558弄","date":1648915200000}},{"type":"Feature","geometry":{"type":"Point","coordinates":[121.580467,31.15281]},"properties":{"town":"浦东新区","published_address":"康桥路御秀路交界口工地生活区","geocoded_address":"上海市浦东新区康桥路御秀路","date":1648915200000}},{"type":"Feature","geometry":{"type":"Point","coordinates":[121.561527,31.151713]},"properties":{"town":"浦东新区","published_address":"康杉路359弄","geocoded_address":"上海市浦东新区康杉路359弄","date":1648915200000}},{"type":"Feature","geometry":{"type":"Point","coordinates":[121.576337,31.121742]},"properties":{"town":"浦东新区","published_address":"康沈公路1300弄","geocoded_address":"上海市浦东新区康沈公路1300弄","date":1648915200000}},{"type":"Feature","geometry":{"type":"Point","coordinates":[121.580257,31.098082]},"properties":{"town":"浦东新区","published_address":"康沈公路2588弄","geocoded_address":"上海市浦东新区2588弄","date":1648915200000}},{"type":"Feature","geometry":{"type":"Point","coordinates":[121.57502,31.125299]},"properties":{"town":"浦东新区","published_address":"康沈路1199弄","geocoded_address":"上海市浦东新区康沈路1199弄","date":1648915200000}},{"type":"Feature","geometry":{"type":"Point","coordinates":[121.576945,31.120859]},"properties":{"town":"浦东新区","published_address":"康沈路1445弄","geocoded_address":"上海市浦东新区康沈路1445弄","date":1648915200000}},{"type":"Feature","geometry":{"type":"Point","coordinates":[121.578464,31.113767]},"properties":{"town":"浦东新区","published_address":"康沈路1758弄","geocoded_address":"上海市浦东新区康沈路1758弄","date":1648915200000}},{"type":"Feature","geometry":{"type":"Point","coordinates":[121.57862,31.111353]},"properties":{"town":"浦东新区","published_address":"康沈路1870弄","geocoded_address":"上海市浦东新区康沈路1870弄","date":1648915200000}},{"type":"Feature","geometry":{"type":"Point","coordinates":[121.580692,31.109913]},"properties":{"town":"浦东新区","published_address":"康沈路1929弄","geocoded_address":"上海市浦东新区康沈路1929弄","date":1648915200000}},{"type":"Feature","geometry":{"type":"Point","coordinates":[121.571366,31.139676]},"properties":{"town":"浦东新区","published_address":"康沈路465弄","geocoded_address":"上海市浦东新区康沈路465弄","date":1648915200000}},{"type":"Feature","geometry":{"type":"Point","coordinates":[121.573089,31.135642]},"properties":{"town":"浦东新区","published_address":"康沈路633弄","geocoded_address":"上海市浦东新区康沈路633弄","date":1648915200000}},{"type":"Feature","geometry":{"type":"Point","coordinates":[121.563172,31.149112]},"properties":{"town":"浦东新区","published_address":"康士路15弄","geocoded_address":"上海市浦东新区康士路15弄","date":1648915200000}},{"type":"Feature","geometry":{"type":"Point","coordinates":[121.551369,31.135598]},"properties":{"town":"浦东新区","published_address":"康梧路189号工地生活区","geocoded_address":"上海市浦东新区康梧路189号","date":1648915200000}},{"type":"Feature","geometry":{"type":"Point","coordinates":[121.578075,31.273086]},"properties":{"town":"浦东新区","published_address":"莱阳路111弄","geocoded_address":"上海市浦东新区莱阳路111弄","date":1648915200000}},{"type":"Feature","geometry":{"type":"Point","coordinates":[121.57937,31.273815]},"properties":{"town":"浦东新区","published_address":"莱阳路201弄","geocoded_address":"上海市浦东新区莱阳路201弄","date":1648915200000}},{"type":"Feature","geometry":{"type":"Point","coordinates":[121.579385,31.27257]},"properties":{"town":"浦东新区","published_address":"莱阳路218号","geocoded_address":"上海市浦东新区莱阳路|218","date":1648915200000}},{"type":"Feature","geometry":{"type":"Point","coordinates":[121.579687,31.275019]},"properties":{"town":"浦东新区","published_address":"莱阳路301弄","geocoded_address":"上海市浦东新区莱阳路301弄","date":1648915200000}},{"type":"Feature","geometry":{"type":"Point","coordinates":[121.582551,31.275762]},"properties":{"town":"浦东新区","published_address":"莱阳路451弄","geocoded_address":"上海市浦东新区莱阳路451弄","date":1648915200000}},{"type":"Feature","geometry":{"type":"Point","coordinates":[121.581664,31.281571]},"properties":{"town":"浦东新区","published_address":"莱阳路817弄","geocoded_address":"上海市浦东新区莱阳路817弄","date":1648915200000}},{"type":"Feature","geometry":{"type":"Point","coordinates":[121.584303,31.282248]},"properties":{"town":"浦东新区","published_address":"莱阳路880弄","geocoded_address":"上海市浦东新区莱阳路880弄","date":1648915200000}},{"type":"Feature","geometry":{"type":"Point","coordinates":[121.582735,31.283813]},"properties":{"town":"浦东新区","published_address":"莱阳路881弄","geocoded_address":"上海市浦东新区莱阳路881弄","date":1648915200000}},{"type":"Feature","geometry":{"type":"Point","coordinates":[121.580518,31.263736]},"properties":{"town":"浦东新区","published_address":"兰城路108弄","geocoded_address":"上海市浦东新区兰城路108弄","date":1648915200000}},{"type":"Feature","geometry":{"type":"Point","coordinates":[121.579883,31.266453]},"properties":{"town":"浦东新区","published_address":"兰城路115弄","geocoded_address":"上海市浦东新区兰城路115弄","date":1648915200000}},{"type":"Feature","geometry":{"type":"Point","coordinates":[121.516963,31.195267]},"properties":{"town":"浦东新区","published_address":"兰陵路23弄","geocoded_address":"上海市浦东新区兰陵路23弄","date":1648915200000}},{"type":"Feature","geometry":{"type":"Point","coordinates":[121.517012,31.194396]},"properties":{"town":"浦东新区","published_address":"兰陵路24弄","geocoded_address":"上海市浦东新区兰陵路24弄","date":1648915200000}},{"type":"Feature","geometry":{"type":"Point","coordinates":[121.527281,31.212312]},"properties":{"town":"浦东新区","published_address":"蓝村路471弄","geocoded_address":"上海市浦东新区蓝村路471弄","date":1648915200000}},{"type":"Feature","geometry":{"type":"Point","coordinates":[121.64169,31.098314]},"properties":{"town":"浦东新区","published_address":"蓝靛路1688弄","geocoded_address":"上海市浦东新区蓝靛路1688弄","date":1648915200000}},{"type":"Feature","geometry":{"type":"Point","coordinates":[121.633854,31.172757]},"properties":{"town":"浦东新区","published_address":"劳动村看鸟浜宅","geocoded_address":"上海市浦东新区劳动村看鸟浜宅","date":1648915200000}},{"type":"Feature","geometry":{"type":"Point","coordinates":[121.517237,31.23719]},"properties":{"town":"浦东新区","published_address":"崂山路502号","geocoded_address":"上海市浦东新区崂山路502号","date":1648915200000}},{"type":"Feature","geometry":{"type":"Point","coordinates":[121.52303,31.226273]},"properties":{"town":"浦东新区","published_address":"崂山路571弄","geocoded_address":"上海市浦东新区崂山路571弄","date":1648915200000}},{"type":"Feature","geometry":{"type":"Point","coordinates":[121.523638,31.223046]},"properties":{"town":"浦东新区","published_address":"崂山路645弄","geocoded_address":"上海市浦东新区崂山路645弄","date":1648915200000}},{"type":"Feature","geometry":{"type":"Point","coordinates":[121.518632,31.234973]},"properties":{"town":"浦东新区","published_address":"崂山三村","geocoded_address":"上海市浦东新区崂山三村","date":1648915200000}},{"type":"Feature","geometry":{"type":"Point","coordinates":[121.518257,31.235026]},"properties":{"town":"浦东新区","published_address":"崂山四村","geocoded_address":"上海市浦东新区崂山四村","date":1648915200000}},{"type":"Feature","geometry":{"type":"Point","coordinates":[121.568675,31.107483]},"properties":{"town":"浦东新区","published_address":"里仁村","geocoded_address":"上海市浦东新区里仁村","date":1648915200000}},{"type":"Feature","geometry":{"type":"Point","coordinates":[121.586719,31.125041]},"properties":{"town":"浦东新区","published_address":"立新村金家宅","geocoded_address":"上海市浦东新区金家宅","date":1648915200000}},{"type":"Feature","geometry":{"type":"Point","coordinates":[121.580527,31.279649]},"properties":{"town":"浦东新区","published_address":"利津路185弄","geocoded_address":"上海市浦东新区利津路185弄","date":1648915200000}},{"type":"Feature","geometry":{"type":"Point","coordinates":[121.582511,31.278813]},"properties":{"town":"浦东新区","published_address":"利津路215弄","geocoded_address":"上海市浦东新区利津路215弄","date":1648915200000}},{"type":"Feature","geometry":{"type":"Point","coordinates":[121.586097,31.277587]},"properties":{"town":"浦东新区","published_address":"利津路385弄","geocoded_address":"上海市浦东新区利津路385弄","date":1648915200000}},{"type":"Feature","geometry":{"type":"Point","coordinates":[121.579341,31.28128]},"properties":{"town":"浦东新区","published_address":"利津路51弄","geocoded_address":"上海市浦东新区利津路51弄","date":1648915200000}},{"type":"Feature","geometry":{"type":"Point","coordinates":[121.553648,31.179218]},"properties":{"town":"浦东新区","published_address":"莲安西路125弄","geocoded_address":"上海市浦东新区莲安西路125弄","date":1648915200000}},{"type":"Feature","geometry":{"type":"Point","coordinates":[121.559846,31.186811]},"properties":{"town":"浦东新区","published_address":"莲溪路126弄","geocoded_address":"上海市浦东新区莲溪路126弄","date":1648915200000}},{"type":"Feature","geometry":{"type":"Point","coordinates":[121.561427,31.176805]},"properties":{"town":"浦东新区","published_address":"莲溪路780弄","geocoded_address":"上海市浦东新区莲溪路780弄","date":1648915200000}},{"type":"Feature","geometry":{"type":"Point","coordinates":[121.548138,31.183565]},"properties":{"town":"浦东新区","published_address":"莲园路100弄","geocoded_address":"上海市浦东新区莲园路100弄","date":1648915200000}},{"type":"Feature","geometry":{"type":"Point","coordinates":[121.557833,31.185284]},"properties":{"town":"浦东新区","published_address":"莲园路488号","geocoded_address":"上海市浦东新区莲园路488号","date":1648915200000}},{"type":"Feature","geometry":{"type":"Point","coordinates":[121.558098,31.185577]},"properties":{"town":"浦东新区","published_address":"莲园路498号","geocoded_address":"上海市浦东新区莲园路|498号","date":1648915200000}},{"type":"Feature","geometry":{"type":"Point","coordinates":[121.557831,31.185783]},"properties":{"town":"浦东新区","published_address":"莲园路505弄","geocoded_address":"上海市浦东新区莲园路505弄","date":1648915200000}},{"type":"Feature","geometry":{"type":"Point","coordinates":[121.558539,31.185647]},"properties":{"town":"浦东新区","published_address":"莲园路518号","geocoded_address":"上海市浦东新区莲园路|518","date":1648915200000}},{"type":"Feature","geometry":{"type":"Point","coordinates":[121.567856,31.16797]},"properties":{"town":"浦东新区","published_address":"莲振路269号","geocoded_address":"上海市浦东新区莲振路269号","date":1648915200000}},{"type":"Feature","geometry":{"type":"Point","coordinates":[121.548341,31.166473]},"properties":{"town":"浦东新区","published_address":"联勤村冯桥队张家宅","geocoded_address":"上海市浦东新区张家宅","date":1648915200000}},{"type":"Feature","geometry":{"type":"Point","coordinates":[121.551071,31.161785]},"properties":{"town":"浦东新区","published_address":"联勤村李家队李家宅","geocoded_address":"上海市浦东新区联勤村李家队李家宅","date":1648915200000}},{"type":"Feature","geometry":{"type":"Point","coordinates":[121.547802,31.164159]},"properties":{"town":"浦东新区","published_address":"联勤村麦家宅","geocoded_address":"上海市浦东新区麦家宅","date":1648915200000}},{"type":"Feature","geometry":{"type":"Point","coordinates":[121.548341,31.166473]},"properties":{"town":"浦东新区","published_address":"联勤村张家队张家宅","geocoded_address":"上海市浦东新区张家宅","date":1648915200000}},{"type":"Feature","geometry":{"type":"Point","coordinates":[121.509853,31.129501]},"properties":{"town":"浦东新区","published_address":"林德路718弄","geocoded_address":"上海市浦东新区林德路718弄","date":1648915200000}},{"type":"Feature","geometry":{"type":"Point","coordinates":[121.476399,31.126494]},"properties":{"town":"浦东新区","published_address":"林浦路1240号","geocoded_address":"上海市浦东新区林浦路1240号","date":1648915200000}},{"type":"Feature","geometry":{"type":"Point","coordinates":[121.507993,31.12787]},"properties":{"town":"浦东新区","published_address":"林展路267弄","geocoded_address":"上海市浦东新区林展路267弄","date":1648915200000}},{"type":"Feature","geometry":{"type":"Point","coordinates":[121.50587,31.12737]},"properties":{"town":"浦东新区","published_address":"林展路278弄","geocoded_address":"上海市浦东新区林展路278弄","date":1648915200000}},{"type":"Feature","geometry":{"type":"Point","coordinates":[121.50841,31.12214]},"properties":{"town":"浦东新区","published_address":"林展路422弄","geocoded_address":"上海市浦东新区林展路422弄","date":1648915200000}},{"type":"Feature","geometry":{"type":"Point","coordinates":[121.4818,31.12607]},"properties":{"town":"浦东新区","published_address":"临江村西新队罗汉松","geocoded_address":"上海市浦东新区罗汉松","date":1648915200000}},{"type":"Feature","geometry":{"type":"Point","coordinates":[121.479116,31.123789]},"properties":{"town":"浦东新区","published_address":"临江村西新队石河圈","geocoded_address":"上海市浦东新区石河圈","date":1648915200000}},{"type":"Feature","geometry":{"type":"Point","coordinates":[121.727256,31.242803]},"properties":{"town":"浦东新区","published_address":"临江村益民队陈家宅","geocoded_address":"上海市浦东新区益民村陈家宅","date":1648915200000}},{"type":"Feature","geometry":{"type":"Point","coordinates":[121.514092,31.195399]},"properties":{"town":"浦东新区","published_address":"临沂路101弄","geocoded_address":"上海市浦东新区临沂路101弄","date":1648915200000}},{"type":"Feature","geometry":{"type":"Point","coordinates":[121.510659,31.195735]},"properties":{"town":"浦东新区","published_address":"临沂路200号","geocoded_address":"上海市浦东新区临沂路200号","date":1648915200000}},{"type":"Feature","geometry":{"type":"Point","coordinates":[121.513951,31.196972]},"properties":{"town":"浦东新区","published_address":"临沂路98弄","geocoded_address":"上海市浦东新区临沂路98号","date":1648915200000}},{"type":"Feature","geometry":{"type":"Point","coordinates":[121.562475,31.238864]},"properties":{"town":"浦东新区","published_address":"灵山路1415弄","geocoded_address":"上海市浦东新区灵山路1415弄","date":1648915200000}},{"type":"Feature","geometry":{"type":"Point","coordinates":[121.57201,31.242865]},"properties":{"town":"浦东新区","published_address":"灵山路1799弄","geocoded_address":"上海市浦东新区灵山路1799弄","date":1648915200000}},{"type":"Feature","geometry":{"type":"Point","coordinates":[121.571334,31.241708]},"properties":{"town":"浦东新区","published_address":"灵山路1840弄","geocoded_address":"上海市浦东新区灵山路1840弄","date":1648915200000}},{"type":"Feature","geometry":{"type":"Point","coordinates":[121.499765,31.143006]},"properties":{"town":"浦东新区","published_address":"灵岩南路1065号","geocoded_address":"上海市浦东新区灵岩南路1065号","date":1648915200000}},{"type":"Feature","geometry":{"type":"Point","coordinates":[121.501209,31.139233]},"properties":{"town":"浦东新区","published_address":"灵岩南路1313号","geocoded_address":"上海市浦东新区灵岩南路1313号","date":1648915200000}},{"type":"Feature","geometry":{"type":"Point","coordinates":[121.494731,31.158407]},"properties":{"town":"浦东新区","published_address":"灵岩南路208弄","geocoded_address":"上海市浦东新区灵岩南路208弄","date":1648915200000}},{"type":"Feature","geometry":{"type":"Point","coordinates":[121.498355,31.15141]},"properties":{"town":"浦东新区","published_address":"灵岩南路499弄","geocoded_address":"上海市浦东新区灵岩南路499弄","date":1648915200000}},{"type":"Feature","geometry":{"type":"Point","coordinates":[121.918161,30.919538]},"properties":{"town":"浦东新区","published_address":"铃兰路508弄","geocoded_address":"上海市浦东新区铃兰路508弄","date":1648915200000}},{"type":"Feature","geometry":{"type":"Point","coordinates":[121.599636,31.272951]},"properties":{"town":"浦东新区","published_address":"凌河路420弄","geocoded_address":"上海市浦东新区凌河路420弄","date":1648915200000}},{"type":"Feature","geometry":{"type":"Point","coordinates":[121.603031,31.273889]},"properties":{"town":"浦东新区","published_address":"凌河路777弄","geocoded_address":"上海市浦东新区凌河路777弄","date":1648915200000}},{"type":"Feature","geometry":{"type":"Point","coordinates":[121.499253,31.142463]},"properties":{"town":"浦东新区","published_address":"凌兆路396弄","geocoded_address":"上海市浦东新区凌兆路396弄","date":1648915200000}},{"type":"Feature","geometry":{"type":"Point","coordinates":[121.502212,31.143009]},"properties":{"town":"浦东新区","published_address":"凌兆路586弄","geocoded_address":"上海市浦东新区凌兆路586弄","date":1648915200000}},{"type":"Feature","geometry":{"type":"Point","coordinates":[121.58407,31.26168]},"properties":{"town":"浦东新区","published_address":"柳埠路135弄","geocoded_address":"上海市浦东新区柳埠路135弄","date":1648915200000}},{"type":"Feature","geometry":{"type":"Point","coordinates":[121.766216,31.014665]},"properties":{"town":"浦东新区","published_address":"六灶湾村","geocoded_address":"上海市浦东新区六灶湾村","date":1648915200000}},{"type":"Feature","geometry":{"type":"Point","coordinates":[121.662935,31.007444]},"properties":{"town":"浦东新区","published_address":"龙桥村","geocoded_address":"上海市浦东新区龙桥村","date":1648915200000}},{"type":"Feature","geometry":{"type":"Point","coordinates":[121.549254,31.195904]},"properties":{"town":"浦东新区","published_address":"龙王庙村","geocoded_address":"上海市浦东新区龙王庙村","date":1648915200000}},{"type":"Feature","geometry":{"type":"Point","coordinates":[121.552376,31.248465]},"properties":{"town":"浦东新区","published_address":"罗山路108弄","geocoded_address":"上海市浦东新区罗山路108弄","date":1648915200000}},{"type":"Feature","geometry":{"type":"Point","coordinates":[121.569265,31.228514]},"properties":{"town":"浦东新区","published_address":"罗山路1502弄","geocoded_address":"上海市浦东新区罗山路1502弄","date":1648915200000}},{"type":"Feature","geometry":{"type":"Point","coordinates":[121.568261,31.225587]},"properties":{"town":"浦东新区","published_address":"罗山路1700弄","geocoded_address":"上海市浦东新区罗山路1700弄","date":1648915200000}},{"type":"Feature","geometry":{"type":"Point","coordinates":[121.642694,31.216973]},"properties":{"town":"浦东新区","published_address":"吕三村","geocoded_address":"上海市浦东新区吕三村","date":1648915200000}},{"type":"Feature","geometry":{"type":"Point","coordinates":[121.547503,31.170084]},"properties":{"town":"浦东新区","published_address":"绿林路320弄","geocoded_address":"上海市浦东新区绿林路320弄","date":1648915200000}},{"type":"Feature","geometry":{"type":"Point","coordinates":[121.551879,31.238433]},"properties":{"town":"浦东新区","published_address":"苗圃路438弄","geocoded_address":"上海市浦东新区苗圃路438弄","date":1648915200000}},{"type":"Feature","geometry":{"type":"Point","coordinates":[121.622679,31.141287]},"properties":{"town":"浦东新区","published_address":"苗桥路935弄","geocoded_address":"上海市浦东新区苗桥路935弄","date":1648915200000}},{"type":"Feature","geometry":{"type":"Point","coordinates":[121.714951,31.179926]},"properties":{"town":"浦东新区","published_address":"妙川路1000弄","geocoded_address":"上海市浦东新区妙川路1000弄","date":1648915200000}},{"type":"Feature","geometry":{"type":"Point","coordinates":[121.697346,31.176238]},"properties":{"town":"浦东新区","published_address":"妙川路300弄","geocoded_address":"上海市浦东新区妙川路300弄","date":1648915200000}},{"type":"Feature","geometry":{"type":"Point","coordinates":[121.687688,31.204092]},"properties":{"town":"浦东新区","published_address":"妙境北路318号","geocoded_address":"上海市浦东新区妙境北路318号","date":1648915200000}},{"type":"Feature","geometry":{"type":"Point","coordinates":[121.687104,31.204546]},"properties":{"town":"浦东新区","published_address":"妙境北路323号","geocoded_address":"上海市浦东新区妙境北路323号","date":1648915200000}},{"type":"Feature","geometry":{"type":"Point","coordinates":[121.68907,31.19706]},"properties":{"town":"浦东新区","published_address":"妙境路124弄","geocoded_address":"上海市浦东新区妙境路124弄","date":1648915200000}},{"type":"Feature","geometry":{"type":"Point","coordinates":[121.689366,31.198488]},"properties":{"town":"浦东新区","published_address":"妙境路55弄","geocoded_address":"上海市浦东新区妙境路55弄","date":1648915200000}},{"type":"Feature","geometry":{"type":"Point","coordinates":[121.691149,31.189019]},"properties":{"town":"浦东新区","published_address":"妙境路600弄","geocoded_address":"上海市浦东新区妙境路600弄","date":1648915200000}},{"type":"Feature","geometry":{"type":"Point","coordinates":[121.769721,30.950612]},"properties":{"town":"浦东新区","published_address":"庙西村","geocoded_address":"上海市浦东新区庙西村","date":1648915200000}},{"type":"Feature","geometry":{"type":"Point","coordinates":[121.663714,31.274635]},"properties":{"town":"浦东新区","published_address":"民春路361号","geocoded_address":"上海市浦东新区民春路361号","date":1648915200000}},{"type":"Feature","geometry":{"type":"Point","coordinates":[121.649894,31.272754]},"properties":{"town":"浦东新区","published_address":"民建村","geocoded_address":"上海市浦东新区民建村","date":1648915200000}},{"type":"Feature","geometry":{"type":"Point","coordinates":[121.543117,31.240174]},"properties":{"town":"浦东新区","published_address":"民生路423号","geocoded_address":"上海市浦东新区民生路423号","date":1648915200000}},{"type":"Feature","geometry":{"type":"Point","coordinates":[121.651025,31.272825]},"properties":{"town":"浦东新区","published_address":"民同路40弄","geocoded_address":"上海市浦东新区民同路40弄","date":1648915200000}},{"type":"Feature","geometry":{"type":"Point","coordinates":[121.654187,31.270841]},"properties":{"town":"浦东新区","published_address":"民耀路293弄","geocoded_address":"上海市浦东新区民耀路","date":1648915200000}},{"type":"Feature","geometry":{"type":"Point","coordinates":[121.653042,31.274576]},"properties":{"town":"浦东新区","published_address":"民耀路97弄","geocoded_address":"上海市浦东新区民耀路97弄","date":1648915200000}},{"type":"Feature","geometry":{"type":"Point","coordinates":[121.595337,31.266578]},"properties":{"town":"浦东新区","published_address":"牟平路154弄","geocoded_address":"上海市浦东新区牟平路154弄","date":1648915200000}},{"type":"Feature","geometry":{"type":"Point","coordinates":[121.600369,31.263517]},"properties":{"town":"浦东新区","published_address":"牟平路304弄","geocoded_address":"上海市浦东新区牟平路304弄","date":1648915200000}},{"type":"Feature","geometry":{"type":"Point","coordinates":[121.549881,31.208407]},"properties":{"town":"浦东新区","published_address":"牡丹路259弄","geocoded_address":"上海市浦东新区牡丹路259弄","date":1648915200000}},{"type":"Feature","geometry":{"type":"Point","coordinates":[121.519052,31.132346]},"properties":{"town":"浦东新区","published_address":"南阜村高树队西汤家宅","geocoded_address":"上海市浦东新区南阜村高树队西汤家宅","date":1648915200000}},{"type":"Feature","geometry":{"type":"Point","coordinates":[121.512214,31.184017]},"properties":{"town":"浦东新区","published_address":"南码头路1136弄","geocoded_address":"上海市浦东新区南码头路1136弄","date":1648915200000}},{"type":"Feature","geometry":{"type":"Point","coordinates":[121.514591,31.183945]},"properties":{"town":"浦东新区","published_address":"南码头路1187弄","geocoded_address":"上海市浦东新区南码头路1187弄","date":1648915200000}},{"type":"Feature","geometry":{"type":"Point","coordinates":[121.50782,31.20021]},"properties":{"town":"浦东新区","published_address":"南码头路119弄","geocoded_address":"上海市浦东新区南码头路119弄","date":1648915200000}},{"type":"Feature","geometry":{"type":"Point","coordinates":[121.516431,31.182053]},"properties":{"town":"浦东新区","published_address":"南码头路1349弄","geocoded_address":"上海市浦东新区南码头路1349弄","date":1648915200000}},{"type":"Feature","geometry":{"type":"Point","coordinates":[121.514519,31.175947]},"properties":{"town":"浦东新区","published_address":"南码头路1696弄","geocoded_address":"上海市浦东新区南码头路1696弄","date":1648915200000}},{"type":"Feature","geometry":{"type":"Point","coordinates":[121.506246,31.19981]},"properties":{"town":"浦东新区","published_address":"南码头路56号","geocoded_address":"上海市浦东新区南码头路56号","date":1648915200000}},{"type":"Feature","geometry":{"type":"Point","coordinates":[121.708744,31.19165]},"properties":{"town":"浦东新区","published_address":"南桥路237弄","geocoded_address":"上海市浦东新区南桥路237弄","date":1648915200000}},{"type":"Feature","geometry":{"type":"Point","coordinates":[121.701731,31.187911]},"properties":{"town":"浦东新区","published_address":"南桥路459弄","geocoded_address":"上海市浦东新区南桥路459弄","date":1648915200000}},{"type":"Feature","geometry":{"type":"Point","coordinates":[121.696546,31.188887]},"properties":{"town":"浦东新区","published_address":"南桥路707弄","geocoded_address":"上海市浦东新区南桥路707弄","date":1648915200000}},{"type":"Feature","geometry":{"type":"Point","coordinates":[121.51498,31.237445]},"properties":{"town":"浦东新区","published_address":"南泉北路101弄","geocoded_address":"上海市浦东新区南泉北路101弄","date":1648915200000}},{"type":"Feature","geometry":{"type":"Point","coordinates":[121.523518,31.214409]},"properties":{"town":"浦东新区","published_address":"南泉路1111弄","geocoded_address":"上海市浦东新区南泉路1111弄","date":1648915200000}},{"type":"Feature","geometry":{"type":"Point","coordinates":[121.52259,31.213531]},"properties":{"town":"浦东新区","published_address":"南泉路1200弄","geocoded_address":"上海市浦东新区南泉路1200弄","date":1648915200000}},{"type":"Feature","geometry":{"type":"Point","coordinates":[121.52254,31.212562]},"properties":{"town":"浦东新区","published_address":"南泉路1250弄","geocoded_address":"上海市浦东新区南泉路1250弄","date":1648915200000}},{"type":"Feature","geometry":{"type":"Point","coordinates":[121.520123,31.210999]},"properties":{"town":"浦东新区","published_address":"南泉路1300弄","geocoded_address":"上海市浦东新区南泉路1300弄","date":1648915200000}},{"type":"Feature","geometry":{"type":"Point","coordinates":[121.70477,31.19435]},"properties":{"town":"浦东新区","published_address":"南市街49弄","geocoded_address":"上海市浦东新区南市街49弄","date":1648915200000}},{"type":"Feature","geometry":{"type":"Point","coordinates":[121.646935,31.205135]},"properties":{"town":"浦东新区","published_address":"南塘村龚家宅","geocoded_address":"上海市浦东新区龚家宅","date":1648915200000}},{"type":"Feature","geometry":{"type":"Point","coordinates":[121.542313,31.16645]},"properties":{"town":"浦东新区","published_address":"南新村东钟家宅","geocoded_address":"上海市浦东新区东钟家宅","date":1648915200000}},{"type":"Feature","geometry":{"type":"Point","coordinates":[121.482581,31.344727]},"properties":{"town":"浦东新区","published_address":"南新村西钟家宅","geocoded_address":"上海市宝山区南新村","date":1648915200000}},{"type":"Feature","geometry":{"type":"Point","coordinates":[121.543294,31.166024]},"properties":{"town":"浦东新区","published_address":"南新村赵家厍","geocoded_address":"上海市浦东新区南新村","date":1648915200000}},{"type":"Feature","geometry":{"type":"Point","coordinates":[121.756,31.117665]},"properties":{"town":"浦东新区","published_address":"南祝路258弄","geocoded_address":"上海市浦东新区南祝路258弄","date":1648915200000}},{"type":"Feature","geometry":{"type":"Point","coordinates":[121.593828,31.115432]},"properties":{"town":"浦东新区","published_address":"年家浜东路129弄","geocoded_address":"上海市浦东新区年家浜东路129弄","date":1648915200000}},{"type":"Feature","geometry":{"type":"Point","coordinates":[121.572555,31.112527]},"properties":{"town":"浦东新区","published_address":"年家浜路425弄","geocoded_address":"上海市浦东新区年家浜路425弄","date":1648915200000}},{"type":"Feature","geometry":{"type":"Point","coordinates":[121.571239,31.112385]},"properties":{"town":"浦东新区","published_address":"年家浜路461弄","geocoded_address":"上海市浦东新区年家浜路461弄","date":1648915200000}},{"type":"Feature","geometry":{"type":"Point","coordinates":[121.62009,31.253819]},"properties":{"town":"浦东新区","published_address":"宁桥路825号","geocoded_address":"上海市浦东新区宁桥路825号","date":1648915200000}},{"type":"Feature","geometry":{"type":"Point","coordinates":[121.599153,31.101361]},"properties":{"town":"浦东新区","published_address":"牛桥村","geocoded_address":"上海市浦东新区牛桥村","date":1648915200000}},{"type":"Feature","geometry":{"type":"Point","coordinates":[121.346259,31.475626]},"properties":{"town":"浦东新区","published_address":"牌楼村","geocoded_address":"上海市宝山区牌楼村","date":1648915200000}},{"type":"Feature","geometry":{"type":"Point","coordinates":[121.65591,31.025437]},"properties":{"town":"浦东新区","published_address":"牌楼东路528弄","geocoded_address":"上海市浦东新区牌楼东路528弄","date":1648915200000}},{"type":"Feature","geometry":{"type":"Point","coordinates":[121.557363,31.171562]},"properties":{"town":"浦东新区","published_address":"鹏飞路333弄","geocoded_address":"上海市浦东新区鹏飞路333弄","date":1648915200000}},{"type":"Feature","geometry":{"type":"Point","coordinates":[121.556073,31.171023]},"properties":{"town":"浦东新区","published_address":"鹏飞路411弄","geocoded_address":"上海市浦东新区鹏飞路411弄","date":1648915200000}},{"type":"Feature","geometry":{"type":"Point","coordinates":[121.553103,31.174258]},"properties":{"town":"浦东新区","published_address":"鹏岳路70弄","geocoded_address":"上海市浦东新区鹏岳路70弄","date":1648915200000}},{"type":"Feature","geometry":{"type":"Point","coordinates":[121.514838,31.224544]},"properties":{"town":"浦东新区","published_address":"浦城路580弄","geocoded_address":"上海市浦东新区浦城路580弄","date":1648915200000}},{"type":"Feature","geometry":{"type":"Point","coordinates":[121.521954,31.219119]},"properties":{"town":"浦东新区","published_address":"浦电路138弄","geocoded_address":"上海市浦东新区浦电路138弄","date":1648915200000}},{"type":"Feature","geometry":{"type":"Point","coordinates":[121.521332,31.217907]},"properties":{"town":"浦东新区","published_address":"浦电路149弄","geocoded_address":"上海市浦东新区浦电路149弄","date":1648915200000}},{"type":"Feature","geometry":{"type":"Point","coordinates":[121.52218,31.219058]},"properties":{"town":"浦东新区","published_address":"浦电路218弄","geocoded_address":"上海市浦东新区浦电路","date":1648915200000}},{"type":"Feature","geometry":{"type":"Point","coordinates":[121.523775,31.218517]},"properties":{"town":"浦东新区","published_address":"浦电路221号","geocoded_address":"上海市浦东新区浦电路221号","date":1648915200000}},{"type":"Feature","geometry":{"type":"Point","coordinates":[121.526399,31.218404]},"properties":{"town":"浦东新区","published_address":"浦电路305弄","geocoded_address":"上海市浦东新区浦电路305弄","date":1648915200000}},{"type":"Feature","geometry":{"type":"Point","coordinates":[121.526282,31.219891]},"properties":{"town":"浦东新区","published_address":"浦电路311号","geocoded_address":"上海市浦东新区浦电路311号","date":1648915200000}},{"type":"Feature","geometry":{"type":"Point","coordinates":[121.528058,31.219147]},"properties":{"town":"浦东新区","published_address":"浦电路331弄","geocoded_address":"上海市浦东新区浦电路331弄","date":1648915200000}},{"type":"Feature","geometry":{"type":"Point","coordinates":[121.517186,31.218112]},"properties":{"town":"浦东新区","published_address":"浦电路48弄","geocoded_address":"上海市浦东新区浦电路48弄","date":1648915200000}},{"type":"Feature","geometry":{"type":"Point","coordinates":[121.513638,31.237805]},"properties":{"town":"浦东新区","published_address":"浦东大道136弄","geocoded_address":"上海市浦东新区浦东大道136弄","date":1648915200000}},{"type":"Feature","geometry":{"type":"Point","coordinates":[121.544073,31.246264]},"properties":{"town":"浦东新区","published_address":"浦东大道1695弄","geocoded_address":"上海市浦东新区浦东大道1695弄","date":1648915200000}},{"type":"Feature","geometry":{"type":"Point","coordinates":[121.545572,31.247319]},"properties":{"town":"浦东新区","published_address":"浦东大道1819弄","geocoded_address":"上海市浦东新区浦东大道1819弄","date":1648915200000}},{"type":"Feature","geometry":{"type":"Point","coordinates":[121.559285,31.259507]},"properties":{"town":"浦东新区","published_address":"浦东大道2511弄","geocoded_address":"上海市浦东新区浦东大道2511弄","date":1648915200000}},{"type":"Feature","geometry":{"type":"Point","coordinates":[121.567533,31.263746]},"properties":{"town":"浦东新区","published_address":"浦东大道2639弄","geocoded_address":"上海市浦东新区浦东大道2639弄","date":1648915200000}},{"type":"Feature","geometry":{"type":"Point","coordinates":[121.566286,31.263607]},"properties":{"town":"浦东新区","published_address":"浦东大道2641弄","geocoded_address":"上海市浦东新区浦东大道2641弄","date":1648915200000}},{"type":"Feature","geometry":{"type":"Point","coordinates":[121.575599,31.269441]},"properties":{"town":"浦东新区","published_address":"浦东大道2778弄","geocoded_address":"上海市浦东新区浦东大道2778弄","date":1648915200000}},{"type":"Feature","geometry":{"type":"Point","coordinates":[121.576474,31.272561]},"properties":{"town":"浦东新区","published_address":"浦东大道2894号","geocoded_address":"上海市浦东新区浦东大道|2894","date":1648915200000}},{"type":"Feature","geometry":{"type":"Point","coordinates":[121.581109,31.276857]},"properties":{"town":"浦东新区","published_address":"浦东大道2970弄","geocoded_address":"上海市浦东新区浦东大道2970弄","date":1648915200000}},{"type":"Feature","geometry":{"type":"Point","coordinates":[121.577452,31.279311]},"properties":{"town":"浦东新区","published_address":"浦东大道3036弄","geocoded_address":"上海市浦东新区浦东大道3036弄","date":1648915200000}},{"type":"Feature","geometry":{"type":"Point","coordinates":[121.577509,31.282052]},"properties":{"town":"浦东新区","published_address":"浦东大道3080弄","geocoded_address":"上海市浦东新区浦东大道3080弄","date":1648915200000}},{"type":"Feature","geometry":{"type":"Point","coordinates":[121.522093,31.240401]},"properties":{"town":"浦东新区","published_address":"浦东大道604弄","geocoded_address":"上海市浦东新区浦东大道604弄","date":1648915200000}},{"type":"Feature","geometry":{"type":"Point","coordinates":[121.523506,31.241264]},"properties":{"town":"浦东新区","published_address":"浦东大道651弄","geocoded_address":"上海市浦东新区浦东大道651弄","date":1648915200000}},{"type":"Feature","geometry":{"type":"Point","coordinates":[121.52431,31.24145]},"properties":{"town":"浦东新区","published_address":"浦东大道691弄","geocoded_address":"上海市浦东新区浦东大道691弄","date":1648915200000}},{"type":"Feature","geometry":{"type":"Point","coordinates":[121.525405,31.241116]},"properties":{"town":"浦东新区","published_address":"浦东大道727弄","geocoded_address":"上海市浦东新区浦东大道727弄","date":1648915200000}},{"type":"Feature","geometry":{"type":"Point","coordinates":[121.51656,31.22523]},"properties":{"town":"浦东新区","published_address":"浦东南路1288号","geocoded_address":"上海市浦东新区浦东南路1288号","date":1648915200000}},{"type":"Feature","geometry":{"type":"Point","coordinates":[121.517338,31.223777]},"properties":{"town":"浦东新区","published_address":"浦东南路1380弄","geocoded_address":"上海市浦东新区浦东南路1380弄","date":1648915200000}},{"type":"Feature","geometry":{"type":"Point","coordinates":[121.518465,31.222214]},"properties":{"town":"浦东新区","published_address":"浦东南路1475弄","geocoded_address":"上海市浦东新区浦东南路1475弄","date":1648915200000}},{"type":"Feature","geometry":{"type":"Point","coordinates":[121.520808,31.220683]},"properties":{"town":"浦东新区","published_address":"浦东南路1533号","geocoded_address":"上海市浦东新区浦东南路1533号","date":1648915200000}},{"type":"Feature","geometry":{"type":"Point","coordinates":[121.518121,31.217659]},"properties":{"town":"浦东新区","published_address":"浦东南路1700弄","geocoded_address":"上海市浦东新区浦东南路1700弄","date":1648915200000}},{"type":"Feature","geometry":{"type":"Point","coordinates":[121.516615,31.207859]},"properties":{"town":"浦东新区","published_address":"浦东南路2159号","geocoded_address":"上海市浦东新区浦东南路2159号","date":1648915200000}},{"type":"Feature","geometry":{"type":"Point","coordinates":[121.512258,31.197332]},"properties":{"town":"浦东新区","published_address":"浦东南路2351弄","geocoded_address":"上海市浦东新区浦东南路2351弄","date":1648915200000}},{"type":"Feature","geometry":{"type":"Point","coordinates":[121.508838,31.193668]},"properties":{"town":"浦东新区","published_address":"浦东南路3405弄","geocoded_address":"上海市浦东新区浦东南路3405弄","date":1648915200000}},{"type":"Feature","geometry":{"type":"Point","coordinates":[121.537816,31.206108]},"properties":{"town":"浦东新区","published_address":"浦建路1086弄","geocoded_address":"上海市浦东新区浦建路1086弄","date":1648915200000}},{"type":"Feature","geometry":{"type":"Point","coordinates":[121.518322,31.210465]},"properties":{"town":"浦东新区","published_address":"浦建路15号","geocoded_address":"上海市浦东新区浦建路15号","date":1648915200000}},{"type":"Feature","geometry":{"type":"Point","coordinates":[121.514066,31.213581]},"properties":{"town":"浦东新区","published_address":"浦明路1228弄","geocoded_address":"上海市浦东新区浦明路1228弄","date":1648915200000}},{"type":"Feature","geometry":{"type":"Point","coordinates":[121.510709,31.226751]},"properties":{"town":"浦东新区","published_address":"浦明路233弄","geocoded_address":"上海市浦东新区浦明路233弄","date":1648915200000}},{"type":"Feature","geometry":{"type":"Point","coordinates":[121.508907,31.225884]},"properties":{"town":"浦东新区","published_address":"浦明路258弄","geocoded_address":"上海市浦东新区浦明路258弄","date":1648915200000}},{"type":"Feature","geometry":{"type":"Point","coordinates":[121.495178,31.063329]},"properties":{"town":"浦东新区","published_address":"浦瑞南路76弄","geocoded_address":"上海市闵行区浦瑞南路76弄","date":1648915200000}},{"type":"Feature","geometry":{"type":"Point","coordinates":[121.527641,31.178665]},"properties":{"town":"浦东新区","published_address":"浦三路1285号工地生活区","geocoded_address":"上海市浦东新区工地生活区","date":1648915200000}},{"type":"Feature","geometry":{"type":"Point","coordinates":[121.510577,31.196693]},"properties":{"town":"浦东新区","published_address":"浦三路12弄","geocoded_address":"上海市浦东新区浦三路12弄","date":1648915200000}},{"type":"Feature","geometry":{"type":"Point","coordinates":[121.514458,31.194003]},"properties":{"town":"浦东新区","published_address":"浦三路277弄","geocoded_address":"上海市浦东新区浦三路277弄","date":1648915200000}},{"type":"Feature","geometry":{"type":"Point","coordinates":[121.550478,31.121235]},"properties":{"town":"浦东新区","published_address":"浦三路4677弄","geocoded_address":"上海市浦东新区浦三路4677弄","date":1648915200000}},{"type":"Feature","geometry":{"type":"Point","coordinates":[121.495247,31.12628]},"properties":{"town":"浦东新区","published_address":"浦星公路71弄","geocoded_address":"上海市浦东新区浦星公路","date":1648915200000}},{"type":"Feature","geometry":{"type":"Point","coordinates":[121.558689,31.252723]},"properties":{"town":"浦东新区","published_address":"栖山路1088弄","geocoded_address":"上海市浦东新区栖山路1088弄","date":1648915200000}},{"type":"Feature","geometry":{"type":"Point","coordinates":[121.564501,31.257189]},"properties":{"town":"浦东新区","published_address":"栖山路1489弄","geocoded_address":"上海市浦东新区栖山路1489弄","date":1648915200000}},{"type":"Feature","geometry":{"type":"Point","coordinates":[121.570671,31.261926]},"properties":{"town":"浦东新区","published_address":"栖山路1861弄","geocoded_address":"上海市浦东新区栖山路1861弄","date":1648915200000}},{"type":"Feature","geometry":{"type":"Point","coordinates":[121.550865,31.246249]},"properties":{"town":"浦东新区","published_address":"栖山路400弄","geocoded_address":"上海市浦东新区栖山路400弄","date":1648915200000}},{"type":"Feature","geometry":{"type":"Point","coordinates":[121.398941,31.300546]},"properties":{"town":"浦东新区","published_address":"栖霞路190弄","geocoded_address":"上海市宝山区190弄","date":1648915200000}},{"type":"Feature","geometry":{"type":"Point","coordinates":[121.517731,31.236289]},"properties":{"town":"浦东新区","published_address":"栖霞路86号","geocoded_address":"上海市浦东新区栖霞路86号","date":1648915200000}},{"type":"Feature","geometry":{"type":"Point","coordinates":[121.49959,31.177465]},"properties":{"town":"浦东新区","published_address":"齐河路10弄","geocoded_address":"上海市浦东新区齐河路10弄","date":1648915200000}},{"type":"Feature","geometry":{"type":"Point","coordinates":[121.666663,31.113347]},"properties":{"town":"浦东新区","published_address":"棋杆村","geocoded_address":"上海市浦东新区棋杆村","date":1648915200000}},{"type":"Feature","geometry":{"type":"Point","coordinates":[121.696335,31.259873]},"properties":{"town":"浦东新区","published_address":"启明村陈家宅","geocoded_address":"上海市浦东新区启明村陈家宅","date":1648915200000}},{"type":"Feature","geometry":{"type":"Point","coordinates":[121.762103,31.127235]},"properties":{"town":"浦东新区","published_address":"千汇路1280弄","geocoded_address":"上海市浦东新区千汇路1280弄","date":1648915200000}},{"type":"Feature","geometry":{"type":"Point","coordinates":[121.768509,31.11001]},"properties":{"town":"浦东新区","published_address":"千汇路280弄","geocoded_address":"上海市浦东新区千汇路280弄","date":1648915200000}},{"type":"Feature","geometry":{"type":"Point","coordinates":[121.765251,31.113739]},"properties":{"town":"浦东新区","published_address":"千汇路581弄","geocoded_address":"上海市浦东新区千汇路581弄","date":1648915200000}},{"type":"Feature","geometry":{"type":"Point","coordinates":[121.657374,31.257982]},"properties":{"town":"浦东新区","published_address":"前锋村陆家宅","geocoded_address":"上海市浦东新区前锋村陆家宅","date":1648915200000}},{"type":"Feature","geometry":{"type":"Point","coordinates":[121.73093,31.24937]},"properties":{"town":"浦东新区","published_address":"勤奋村徐家宅","geocoded_address":"上海市浦东新区徐家宅","date":1648915200000}},{"type":"Feature","geometry":{"type":"Point","coordinates":[121.722233,31.226709]},"properties":{"town":"浦东新区","published_address":"青三村","geocoded_address":"上海市浦东新区青三村","date":1648915200000}},{"type":"Feature","geometry":{"type":"Point","coordinates":[121.574966,31.340923]},"properties":{"town":"浦东新区","published_address":"清溪路299弄","geocoded_address":"上海市浦东新区清溪路299弄","date":1648915200000}},{"type":"Feature","geometry":{"type":"Point","coordinates":[121.64085,31.058527]},"properties":{"town":"浦东新区","published_address":"仁义村","geocoded_address":"上海市浦东新区仁义村","date":1648915200000}},{"type":"Feature","geometry":{"type":"Point","coordinates":[121.668349,31.258444]},"properties":{"town":"浦东新区","published_address":"日新村北万家宅","geocoded_address":"上海市浦东新区日新村","date":1648915200000}},{"type":"Feature","geometry":{"type":"Point","coordinates":[121.517824,31.240934]},"properties":{"town":"浦东新区","published_address":"荣成路85弄","geocoded_address":"上海市浦东新区荣成路85弄","date":1648915200000}},{"type":"Feature","geometry":{"type":"Point","coordinates":[121.521646,31.234256]},"properties":{"town":"浦东新区","published_address":"乳山路114弄","geocoded_address":"上海市浦东新区乳山路114弄","date":1648915200000}},{"type":"Feature","geometry":{"type":"Point","coordinates":[121.523195,31.235176]},"properties":{"town":"浦东新区","published_address":"乳山路130弄","geocoded_address":"上海市浦东新区乳山路130弄","date":1648915200000}},{"type":"Feature","geometry":{"type":"Point","coordinates":[121.524106,31.235252]},"properties":{"town":"浦东新区","published_address":"乳山路138弄","geocoded_address":"上海市浦东新区乳山路138弄","date":1648915200000}},{"type":"Feature","geometry":{"type":"Point","coordinates":[121.520981,31.236217]},"properties":{"town":"浦东新区","published_address":"乳山路161弄","geocoded_address":"上海市浦东新区乳山路161弄","date":1648915200000}},{"type":"Feature","geometry":{"type":"Point","coordinates":[121.590102,31.091315]},"properties":{"town":"浦东新区","published_address":"瑞安路211弄","geocoded_address":"上海市浦东新区瑞安路211弄","date":1648915200000}},{"type":"Feature","geometry":{"type":"Point","coordinates":[121.58788,31.08914]},"properties":{"town":"浦东新区","published_address":"瑞安路80弄","geocoded_address":"上海市浦东新区瑞安路80弄","date":1648915200000}},{"type":"Feature","geometry":{"type":"Point","coordinates":[121.603064,31.08828]},"properties":{"town":"浦东新区","published_address":"瑞和路900弄","geocoded_address":"上海市浦东新区瑞和路900弄","date":1648915200000}},{"type":"Feature","geometry":{"type":"Point","coordinates":[121.584623,31.095628]},"properties":{"town":"浦东新区","published_address":"瑞浦路288弄","geocoded_address":"上海市浦东新区瑞浦路288弄","date":1648915200000}},{"type":"Feature","geometry":{"type":"Point","coordinates":[121.587598,31.097959]},"properties":{"town":"浦东新区","published_address":"瑞浦路77弄","geocoded_address":"上海市浦东新区瑞浦路77弄","date":1648915200000}},{"type":"Feature","geometry":{"type":"Point","coordinates":[121.585403,31.098711]},"properties":{"town":"浦东新区","published_address":"瑞浦路8弄","geocoded_address":"上海市浦东新区瑞浦路8弄","date":1648915200000}},{"type":"Feature","geometry":{"type":"Point","coordinates":[121.588456,31.098891]},"properties":{"town":"浦东新区","published_address":"瑞阳路81弄","geocoded_address":"上海市浦东新区瑞阳路81弄","date":1648915200000}},{"type":"Feature","geometry":{"type":"Point","coordinates":[121.587536,31.095878]},"properties":{"town":"浦东新区","published_address":"瑞意路399弄","geocoded_address":"上海市浦东新区瑞意路399弄","date":1648915200000}},{"type":"Feature","geometry":{"type":"Point","coordinates":[121.4973,31.12623]},"properties":{"town":"浦东新区","published_address":"三彩路52弄","geocoded_address":"上海市浦东新区三彩路52弄","date":1648915200000}},{"type":"Feature","geometry":{"type":"Point","coordinates":[121.503783,31.140439]},"properties":{"town":"浦东新区","published_address":"三林路618号","geocoded_address":"上海市浦东新区三林路|618","date":1648915200000}},{"type":"Feature","geometry":{"type":"Point","coordinates":[121.907584,30.953003]},"properties":{"town":"浦东新区","published_address":"三三公路5020弄","geocoded_address":"上海市浦东新区三三公路5020弄","date":1648915200000}},{"type":"Feature","geometry":{"type":"Point","coordinates":[121.504311,31.122646]},"properties":{"town":"浦东新区","published_address":"三舒路192弄","geocoded_address":"上海市浦东新区三舒路192弄","date":1648915200000}},{"type":"Feature","geometry":{"type":"Point","coordinates":[121.502621,31.119449]},"properties":{"town":"浦东新区","published_address":"三旋路506弄","geocoded_address":"上海市浦东新区三旋路506弄","date":1648915200000}},{"type":"Feature","geometry":{"type":"Point","coordinates":[121.642868,31.177589]},"properties":{"town":"浦东新区","published_address":"三灶路250弄","geocoded_address":"上海市浦东新区三灶路250弄","date":1648915200000}},{"type":"Feature","geometry":{"type":"Point","coordinates":[121.510382,31.227911]},"properties":{"town":"浦东新区","published_address":"商城路108弄","geocoded_address":"上海市浦东新区商城路108弄","date":1648915200000}},{"type":"Feature","geometry":{"type":"Point","coordinates":[121.530924,31.236357]},"properties":{"town":"浦东新区","published_address":"商城路1317弄","geocoded_address":"上海市浦东新区商城路1317弄","date":1648915200000}},{"type":"Feature","geometry":{"type":"Point","coordinates":[121.523151,31.23202]},"properties":{"town":"浦东新区","published_address":"商城路918弄","geocoded_address":"上海市浦东新区商城路918弄","date":1648915200000}},{"type":"Feature","geometry":{"type":"Point","coordinates":[121.648126,31.2738]},"properties":{"town":"浦东新区","published_address":"上川路620号","geocoded_address":"上海市浦东新区上川路620号","date":1648915200000}},{"type":"Feature","geometry":{"type":"Point","coordinates":[121.672442,31.243055]},"properties":{"town":"浦东新区","published_address":"上丰路1483弄","geocoded_address":"上海市浦东新区上丰路1483弄","date":1648915200000}},{"type":"Feature","geometry":{"type":"Point","coordinates":[121.494039,31.174694]},"properties":{"town":"浦东新区","published_address":"上南路1000弄","geocoded_address":"上海市浦东新区上南路1000弄","date":1648915200000}},{"type":"Feature","geometry":{"type":"Point","coordinates":[121.495114,31.172101]},"properties":{"town":"浦东新区","published_address":"上南路1200弄","geocoded_address":"上海市浦东新区上南路1200弄","date":1648915200000}},{"type":"Feature","geometry":{"type":"Point","coordinates":[121.497008,31.173428]},"properties":{"town":"浦东新区","published_address":"上南路1251弄","geocoded_address":"上海市浦东新区上南路1251弄","date":1648915200000}},{"type":"Feature","geometry":{"type":"Point","coordinates":[121.495052,31.170038]},"properties":{"town":"浦东新区","published_address":"上南路1500弄","geocoded_address":"上海市浦东新区上南路1500弄","date":1648915200000}},{"type":"Feature","geometry":{"type":"Point","coordinates":[121.497028,31.161369]},"properties":{"town":"浦东新区","published_address":"上南路3058弄","geocoded_address":"上海市浦东新区上南路3058弄","date":1648915200000}},{"type":"Feature","geometry":{"type":"Point","coordinates":[121.507075,31.160346]},"properties":{"town":"浦东新区","published_address":"上南路3339弄","geocoded_address":"上海市浦东新区上南路3339弄","date":1648915200000}},{"type":"Feature","geometry":{"type":"Point","coordinates":[121.503246,31.153061]},"properties":{"town":"浦东新区","published_address":"上南路3899弄","geocoded_address":"上海市浦东新区上南路3899弄","date":1648915200000}},{"type":"Feature","geometry":{"type":"Point","coordinates":[121.527175,31.124859]},"properties":{"town":"浦东新区","published_address":"上南路5588号","geocoded_address":"上海市浦东新区上南路5588号","date":1648915200000}},{"type":"Feature","geometry":{"type":"Point","coordinates":[121.549253,31.119396]},"properties":{"town":"浦东新区","published_address":"上南路6333弄","geocoded_address":"上海市浦东新区上南路6333弄","date":1648915200000}},{"type":"Feature","geometry":{"type":"Point","coordinates":[121.552047,31.120131]},"properties":{"town":"浦东新区","published_address":"上南路6555弄","geocoded_address":"上海市浦东新区上南路6555弄","date":1648915200000}},{"type":"Feature","geometry":{"type":"Point","coordinates":[121.562722,31.120148]},"properties":{"town":"浦东新区","published_address":"上南路6733弄","geocoded_address":"上海市浦东新区上南路6733弄","date":1648915200000}},{"type":"Feature","geometry":{"type":"Point","coordinates":[121.568234,31.116812]},"properties":{"town":"浦东新区","published_address":"上南路6932弄","geocoded_address":"上海市浦东新区上南路6932弄","date":1648915200000}},{"type":"Feature","geometry":{"type":"Point","coordinates":[121.495932,31.176684]},"properties":{"town":"浦东新区","published_address":"上南路929弄","geocoded_address":"上海市浦东新区上南路929弄","date":1648915200000}},{"type":"Feature","geometry":{"type":"Point","coordinates":[121.491707,31.14713]},"properties":{"town":"浦东新区","published_address":"上浦路201弄","geocoded_address":"上海市浦东新区上浦路201弄","date":1648915200000}},{"type":"Feature","geometry":{"type":"Point","coordinates":[121.494651,31.14502]},"properties":{"town":"浦东新区","published_address":"上浦路276弄","geocoded_address":"上海市浦东新区上浦路276弄","date":1648915200000}},{"type":"Feature","geometry":{"type":"Point","coordinates":[121.498612,31.146496]},"properties":{"town":"浦东新区","published_address":"上浦路480弄","geocoded_address":"上海市浦东新区上浦路480弄","date":1648915200000}},{"type":"Feature","geometry":{"type":"Point","coordinates":[121.500553,31.146787]},"properties":{"town":"浦东新区","published_address":"上浦路606弄","geocoded_address":"上海市浦东新区上浦路606弄","date":1648915200000}},{"type":"Feature","geometry":{"type":"Point","coordinates":[121.510341,31.146627]},"properties":{"town":"浦东新区","published_address":"尚博路129弄","geocoded_address":"上海市浦东新区尚博路129弄","date":1648915200000}},{"type":"Feature","geometry":{"type":"Point","coordinates":[121.774746,30.942938]},"properties":{"town":"浦东新区","published_address":"邵家村","geocoded_address":"上海市浦东新区邵家村","date":1648915200000}},{"type":"Feature","geometry":{"type":"Point","coordinates":[121.567585,31.192401]},"properties":{"town":"浦东新区","published_address":"申波路83弄","geocoded_address":"上海市浦东新区申波路83弄","date":1648915200000}},{"type":"Feature","geometry":{"type":"Point","coordinates":[121.655976,31.033733]},"properties":{"town":"浦东新区","published_address":"申江南路7777弄","geocoded_address":"上海市浦东新区申江南路7777弄","date":1648915200000}},{"type":"Feature","geometry":{"type":"Point","coordinates":[121.565602,31.090126]},"properties":{"town":"浦东新区","published_address":"沈西村","geocoded_address":"上海市浦东新区沈西村","date":1648915200000}},{"type":"Feature","geometry":{"type":"Point","coordinates":[121.5846,31.086049]},"properties":{"town":"浦东新区","published_address":"沈庄村","geocoded_address":"上海市浦东新区沈庄村","date":1648915200000}},{"type":"Feature","geometry":{"type":"Point","coordinates":[121.5846,31.086049]},"properties":{"town":"浦东新区","published_address":"沈庄大桥村","geocoded_address":"上海市浦东新区沈庄","date":1648915200000}},{"type":"Feature","geometry":{"type":"Point","coordinates":[121.757111,31.145853]},"properties":{"town":"浦东新区","published_address":"施镇路255弄","geocoded_address":"上海市浦东新区施镇路255弄","date":1648915200000}},{"type":"Feature","geometry":{"type":"Point","coordinates":[121.580967,31.344204]},"properties":{"town":"浦东新区","published_address":"石家街77号","geocoded_address":"上海市浦东新区石家街77号","date":1648915200000}},{"type":"Feature","geometry":{"type":"Point","coordinates":[121.634663,31.130989]},"properties":{"town":"浦东新区","published_address":"石门村","geocoded_address":"上海市浦东新区石门村","date":1648915200000}},{"type":"Feature","geometry":{"type":"Point","coordinates":[121.534966,31.163185]},"properties":{"town":"浦东新区","published_address":"世博家园大道站路94弄","geocoded_address":"上海市浦东新区世博家园","date":1648915200000}},{"type":"Feature","geometry":{"type":"Point","coordinates":[121.583951,31.274435]},"properties":{"town":"浦东新区","published_address":"寿光路161弄","geocoded_address":"上海市浦东新区寿光路161弄","date":1648915200000}},{"type":"Feature","geometry":{"type":"Point","coordinates":[121.584269,31.273303]},"properties":{"town":"浦东新区","published_address":"寿光路75弄","geocoded_address":"上海市浦东新区寿光路75弄","date":1648915200000}},{"type":"Feature","geometry":{"type":"Point","coordinates":[121.585964,31.272589]},"properties":{"town":"浦东新区","published_address":"寿光路78弄","geocoded_address":"上海市浦东新区寿光路78弄","date":1648915200000}},{"type":"Feature","geometry":{"type":"Point","coordinates":[121.690437,31.278179]},"properties":{"town":"浦东新区","published_address":"曙光村小秦家宅","geocoded_address":"上海市浦东新区小秦家宅","date":1648915200000}},{"type":"Feature","geometry":{"type":"Point","coordinates":[121.594621,31.284577]},"properties":{"town":"浦东新区","published_address":"双桥路180弄","geocoded_address":"上海市浦东新区双桥路180弄","date":1648915200000}},{"type":"Feature","geometry":{"type":"Point","coordinates":[121.597176,31.28628]},"properties":{"town":"浦东新区","published_address":"双桥路218弄","geocoded_address":"上海市浦东新区双桥路218弄","date":1648915200000}},{"type":"Feature","geometry":{"type":"Point","coordinates":[121.596128,31.285635]},"properties":{"town":"浦东新区","published_address":"双桥路220弄","geocoded_address":"上海市浦东新区双桥路220弄","date":1648915200000}},{"type":"Feature","geometry":{"type":"Point","coordinates":[121.629432,31.186633]},"properties":{"town":"浦东新区","published_address":"顺和路236弄","geocoded_address":"上海市浦东新区顺和路236弄","date":1648915200000}},{"type":"Feature","geometry":{"type":"Point","coordinates":[121.493161,31.159464]},"properties":{"town":"浦东新区","published_address":"思浦路13弄","geocoded_address":"上海市浦东新区思浦路13弄","date":1648915200000}},{"type":"Feature","geometry":{"type":"Point","coordinates":[121.493891,31.158101]},"properties":{"town":"浦东新区","published_address":"思浦路16弄","geocoded_address":"上海市浦东新区思浦路16弄","date":1648915200000}},{"type":"Feature","geometry":{"type":"Point","coordinates":[121.494441,31.158768]},"properties":{"town":"浦东新区","published_address":"思浦路6弄","geocoded_address":"上海市浦东新区思浦路6弄","date":1648915200000}},{"type":"Feature","geometry":{"type":"Point","coordinates":[121.581735,31.29848]},"properties":{"town":"浦东新区","published_address":"思学路165弄","geocoded_address":"上海市浦东新区思学路165弄","date":1648915200000}},{"type":"Feature","geometry":{"type":"Point","coordinates":[121.633725,31.18509]},"properties":{"town":"浦东新区","published_address":"孙耀路128弄","geocoded_address":"上海市浦东新区孙耀路128弄","date":1648915200000}},{"type":"Feature","geometry":{"type":"Point","coordinates":[121.643068,31.022927]},"properties":{"town":"浦东新区","published_address":"笋兴路10号","geocoded_address":"上海市浦东新区笋兴路10号","date":1648915200000}},{"type":"Feature","geometry":{"type":"Point","coordinates":[121.598211,31.255418]},"properties":{"town":"浦东新区","published_address":"台儿庄路663弄","geocoded_address":"上海市浦东新区台儿庄路663弄","date":1648915200000}},{"type":"Feature","geometry":{"type":"Point","coordinates":[121.553355,31.121927]},"properties":{"town":"浦东新区","published_address":"太平村","geocoded_address":"上海市浦东新区太平村","date":1648915200000}},{"type":"Feature","geometry":{"type":"Point","coordinates":[121.651899,31.071746]},"properties":{"town":"浦东新区","published_address":"坦南村","geocoded_address":"上海市浦东新区坦南村","date":1648915200000}},{"type":"Feature","geometry":{"type":"Point","coordinates":[121.633655,31.074112]},"properties":{"town":"浦东新区","published_address":"坦西村","geocoded_address":"上海市浦东新区坦西村","date":1648915200000}},{"type":"Feature","geometry":{"type":"Point","coordinates":[121.603787,31.147221]},"properties":{"town":"浦东新区","published_address":"汤巷村","geocoded_address":"上海市浦东新区汤巷村","date":1648915200000}},