{"type":"FeatureCollection","features":[{"type":"Feature","geometry":{"type":"Point","coordinates":[121.407826,31.223057]},"properties":{"type":"high","published_address":"普陀区长风新村街道光复西路2077弄","geocoded_address":"上海市普陀区长风新村街道光复西路2077弄"}},{"type":"Feature","geometry":{"type":"Point","coordinates":[121.404917,31.239925]},"properties":{"type":"high","published_address":"普陀区曹杨新村街道兰溪路148号","geocoded_address":"上海市普陀区曹杨新村街道兰溪路148号"}},{"type":"Feature","geometry":{"type":"Point","coordinates":[121.493867,31.17592]},"properties":{"type":"high","published_address":"浦东新区上钢新村街道上钢二村","geocoded_address":"上海市浦东新区上钢二村"}},{"type":"Feature","geometry":{"type":"Point","coordinates":[121.491625,31.252311]},"properties":{"type":"high","published_address":"虹口区北外滩街道九龙路515号","geocoded_address":"上海市虹口区北外滩街道九龙路515号"}},{"type":"Feature","geometry":{"type":"Point","coordinates":[121.139792,31.0355]},"properties":{"type":"high","published_address":"松江区小昆山镇平原街86弄平原新村","geocoded_address":"上海市松江区平原新村"}},{"type":"Feature","geometry":{"type":"Point","coordinates":[121.40255,31.205229]},"properties":{"type":"high","published_address":"长宁区虹桥街道娄山关路85号","geocoded_address":"上海市长宁区娄山关路|85号"}},{"type":"Feature","geometry":{"type":"Point","coordinates":[121.44462,31.266394]},"properties":{"type":"high","published_address":"静安区共和新路街道沪太路785号","geocoded_address":"上海市静安区沪太路|785号"}},{"type":"Feature","geometry":{"type":"Point","coordinates":[121.477199,31.23134]},"properties":{"type":"high","published_address":"黄浦区南京东路街道西藏中路180号","geocoded_address":"上海市黄浦区西藏中路|180"}},{"type":"Feature","geometry":{"type":"Point","coordinates":[121.456764,31.310652]},"properties":{"type":"medium","published_address":"静安区临汾路街道临汾路541号","geocoded_address":"上海市静安区临汾路|541"}},{"type":"Feature","geometry":{"type":"Point","coordinates":[121.456664,31.310616]},"properties":{"type":"medium","published_address":"静安区临汾路街道临汾路551号","geocoded_address":"上海市静安区临汾路|551"}},{"type":"Feature","geometry":{"type":"Point","coordinates":[121.456448,31.310648]},"properties":{"type":"medium","published_address":"静安区临汾路街道临汾路573号","geocoded_address":"上海市静安区临汾路|573"}},{"type":"Feature","geometry":{"type":"Point","coordinates":[121.456287,31.310651]},"properties":{"type":"medium","published_address":"静安区临汾路街道临汾路583号","geocoded_address":"上海市静安区临汾路|583"}},{"type":"Feature","geometry":{"type":"Point","coordinates":[121.427364,31.252165]},"properties":{"type":"medium","published_address":"普陀区石泉路街道石泉一村","geocoded_address":"上海市普陀区石泉一村"}},{"type":"Feature","geometry":{"type":"Point","coordinates":[121.409081,31.237288]},"properties":{"type":"medium","published_address":"普陀区曹杨新村街道芙蓉园小区","geocoded_address":"上海市普陀区芙蓉园"}},{"type":"Feature","geometry":{"type":"Point","coordinates":[121.472294,31.320703]},"properties":{"type":"medium","published_address":"宝山区高境镇殷高西路333号","geocoded_address":"上海市宝山区高境镇殷高西路333号"}},{"type":"Feature","geometry":{"type":"Point","coordinates":[121.462287,31.402005]},"properties":{"type":"medium","published_address":"宝山区杨行镇盘古路927弄35-36号","geocoded_address":"上海市宝山区盘古路927弄|35号楼"}},{"type":"Feature","geometry":{"type":"Point","coordinates":[121.475838,31.212098]},"properties":{"type":"medium","published_address":"黄浦区打浦桥街道建国东路391号","geocoded_address":"上海市黄浦区建国东路"}},{"type":"Feature","geometry":{"type":"Point","coordinates":[121.490619,31.23016]},"properties":{"type":"medium","published_address":"黄浦区外滩街道三和里小区","geocoded_address":"上海市黄浦区外滩街道三和里永胜小区"}},{"type":"Feature","geometry":{"type":"Point","coordinates":[121.437543,31.239154]},"properties":{"type":"medium","published_address":"普陀区长寿路街道长寿路393号","geocoded_address":"上海市普陀区长寿路|393号"}},{"type":"Feature","geometry":{"type":"Point","coordinates":[121.425687,31.269086]},"properties":{"type":"medium","published_address":"普陀区甘泉路街道西乡路91弄","geocoded_address":"上海市普陀区甘泉路街道街道西乡路91弄"}},{"type":"Feature","geometry":{"type":"Point","coordinates":[121.423142,31.245686]},"properties":{"type":"medium","published_address":"普陀区石泉路街道中山北路2451弄200支弄","geocoded_address":"上海市普陀区石泉路街道中山北路2451弄200支弄"}},{"type":"Feature","geometry":{"type":"Point","coordinates":[121.408768,31.246439]},"properties":{"type":"medium","published_address":"普陀区石泉路街道曹杨路1208号","geocoded_address":"上海市普陀区曹杨路|1208号"}},{"type":"Feature","geometry":{"type":"Point","coordinates":[121.42603,31.258412]},"properties":{"type":"medium","published_address":"普陀区石泉路街道管弄路61弄","geocoded_address":"上海市普陀区石泉路街道管弄路61弄"}},{"type":"Feature","geometry":{"type":"Point","coordinates":[121.398267,31.247333]},"properties":{"type":"medium","published_address":"普陀区真如镇街道真如西村116-119号文艺小院","geocoded_address":"上海市普陀区真如镇街道街道真如西村116号楼"}},{"type":"Feature","geometry":{"type":"Point","coordinates":[121.398329,31.188568]},"properties":{"type":"medium","published_address":"闵行区莘庄镇名都路20弄名都城三期","geocoded_address":"上海市闵行区名都城三期"}},{"type":"Feature","geometry":{"type":"Point","coordinates":[121.416412,31.019843]},"properties":{"type":"medium","published_address":"闵行区江川路街道景谷中路58弄凤凰景苑","geocoded_address":"上海市闵行区凤凰景苑"}},{"type":"Feature","geometry":{"type":"Point","coordinates":[121.215501,31.267986]},"properties":{"type":"medium","published_address":"嘉定区安亭镇绿苑路82弄绿苑二邨","geocoded_address":"上海市嘉定区绿苑二邨"}},{"type":"Feature","geometry":{"type":"Point","coordinates":[121.429608,31.292083]},"properties":{"type":"medium","published_address":"静安区彭浦镇永和二村","geocoded_address":"上海市静安区永和二村"}},{"type":"Feature","geometry":{"type":"Point","coordinates":[121.42304,31.28493]},"properties":{"type":"medium","published_address":"静安区彭浦镇阳城路388弄","geocoded_address":"上海市静安区彭浦镇阳城路388弄"}},{"type":"Feature","geometry":{"type":"Point","coordinates":[121.42828,31.225775]},"properties":{"type":"medium","published_address":"静安区曹家渡街道长宁路189号","geocoded_address":"上海市长宁区长宁路|189"}},{"type":"Feature","geometry":{"type":"Point","coordinates":[121.428089,31.22596]},"properties":{"type":"medium","published_address":"静安区曹家渡街道长宁路177号","geocoded_address":"上海市长宁区长宁路|177"}},{"type":"Feature","geometry":{"type":"Point","coordinates":[121.440437,31.226353]},"properties":{"type":"medium","published_address":"静安区曹家渡街道新闸路1990弄","geocoded_address":"上海市静安区曹家渡街道新闸路1990弄"}},{"type":"Feature","geometry":{"type":"Point","coordinates":[121.44004,31.22589]},"properties":{"type":"medium","published_address":"静安区曹家渡街道新闸路金家巷西弄","geocoded_address":"上海市静安区金家巷西弄"}},{"type":"Feature","geometry":{"type":"Point","coordinates":[121.449221,31.271442]},"properties":{"type":"medium","published_address":"静安区大宁路街道大宁路660弄","geocoded_address":"上海市静安区大宁路街道大宁路660弄"}},{"type":"Feature","geometry":{"type":"Point","coordinates":[121.559399,31.259106]},"properties":{"type":"medium","published_address":"浦东新区金杨新村街道浦东大道2511弄19号","geocoded_address":"上海市浦东新区金杨新村街道浦东大道2511弄19号"}},{"type":"Feature","geometry":{"type":"Point","coordinates":[121.586674,31.247609]},"properties":{"type":"medium","published_address":"浦东新区金杨新村街道金杨新村十一街坊","geocoded_address":"上海市浦东新区金杨新村十一街坊"}},{"type":"Feature","geometry":{"type":"Point","coordinates":[121.598916,31.251536]},"properties":{"type":"medium","published_address":"浦东新区金桥镇浙桥路99号","geocoded_address":"上海市浦东新区金桥镇浙桥路99号"}},{"type":"Feature","geometry":{"type":"Point","coordinates":[121.443323,31.16008]},"properties":{"type":"medium","published_address":"徐汇区漕河泾街道融水路99弄石龙春晓C区","geocoded_address":"上海市徐汇区漕河泾街道融水路99弄石龙春晓"}},{"type":"Feature","geometry":{"type":"Point","coordinates":[121.45532,31.198513]},"properties":{"type":"medium","published_address":"徐汇区枫林街道医学院路110弄中山新村","geocoded_address":"上海市徐汇区中山新村"}},{"type":"Feature","geometry":{"type":"Point","coordinates":[121.463108,31.191463]},"properties":{"type":"medium","published_address":"徐汇区斜土街道大木桥路600弄江南新村","geocoded_address":"上海市徐汇区江南新村"}},{"type":"Feature","geometry":{"type":"Point","coordinates":[121.545857,31.271618]},"properties":{"type":"medium","published_address":"杨浦区定海路街道隆昌路394号","geocoded_address":"上海市杨浦区隆昌路|394"}},{"type":"Feature","geometry":{"type":"Point","coordinates":[121.345142,31.414547]},"properties":{"type":"medium","published_address":"宝山区罗店镇市一路231-233号","geocoded_address":"上海市宝山区罗店镇市一路231-2号"}},{"type":"Feature","geometry":{"type":"Point","coordinates":[121.347879,31.413142]},"properties":{"type":"medium","published_address":"宝山区罗店镇竹巷街95弄","geocoded_address":"上海市宝山区竹巷街"}},{"type":"Feature","geometry":{"type":"Point","coordinates":[121.419305,31.361913]},"properties":{"type":"medium","published_address":"宝山区杨行镇红林路576弄和家欣苑B区东区","geocoded_address":"上海市宝山区和家欣苑"}},{"type":"Feature","geometry":{"type":"Point","coordinates":[121.423735,31.34867]},"properties":{"type":"medium","published_address":"宝山区顾村镇共富路379弄富成园","geocoded_address":"上海市宝山区富成园"}},{"type":"Feature","geometry":{"type":"Point","coordinates":[121.433627,31.377968]},"properties":{"type":"medium","published_address":"宝山区杨行镇月城路299弄同盛嘉园西区","geocoded_address":"上海市宝山区同盛嘉园西区"}},{"type":"Feature","geometry":{"type":"Point","coordinates":[121.419454,31.281683]},"properties":{"type":"medium","published_address":"宝山区大场镇华灵路1225弄华欣苑A区","geocoded_address":"上海市宝山区华欣苑"}},{"type":"Feature","geometry":{"type":"Point","coordinates":[121.346426,31.345353]},"properties":{"type":"medium","published_address":"宝山区顾村镇菊太路1755弄菊华苑","geocoded_address":"上海市宝山区顾村镇菊太路1755弄菊华苑(东门)"}},{"type":"Feature","geometry":{"type":"Point","coordinates":[121.491959,31.380304]},"properties":{"type":"medium","published_address":"宝山区吴淞街道海滨二村南区","geocoded_address":"上海市宝山区海滨二村南区"}},{"type":"Feature","geometry":{"type":"Point","coordinates":[121.370219,31.344472]},"properties":{"type":"medium","published_address":"宝山区顾村镇宝菊路22弄保利叶语一期","geocoded_address":"上海市宝山区保利叶语一期"}},{"type":"Feature","geometry":{"type":"Point","coordinates":[121.48507,31.339085]},"properties":{"type":"medium","published_address":"宝山区淞南镇淞南五村一居西片区","geocoded_address":"上海市宝山区淞南五村"}},{"type":"Feature","geometry":{"type":"Point","coordinates":[121.512244,30.962256]},"properties":{"type":"medium","published_address":"奉贤区金汇镇沿港河路350弄","geocoded_address":"上海市奉贤区金汇镇沿港河路350弄"}},{"type":"Feature","geometry":{"type":"Point","coordinates":[121.476454,31.238167]},"properties":{"type":"medium","published_address":"黄浦区南京东路街道广西北路528号","geocoded_address":"上海市黄浦区广西北路|528"}},{"type":"Feature","geometry":{"type":"Point","coordinates":[121.48775,31.208025]},"properties":{"type":"medium","published_address":"黄浦区半淞园路街道斜土东路197号","geocoded_address":"上海市黄浦区半淞园路街道斜土东路197号"}},{"type":"Feature","geometry":{"type":"Point","coordinates":[121.318182,31.321435]},"properties":{"type":"medium","published_address":"嘉定区南翔镇蕰北公路2371弄浏翔花苑三区","geocoded_address":"上海市嘉定区浏翔花苑"}},{"type":"Feature","geometry":{"type":"Point","coordinates":[121.42384,31.282093]},"properties":{"type":"medium","published_address":"静安区彭浦镇沪太路1329弄","geocoded_address":"上海市静安区彭浦镇沪太路1329弄"}},{"type":"Feature","geometry":{"type":"Point","coordinates":[121.465019,31.225598]},"properties":{"type":"medium","published_address":"静安区南京西路街道大沽路422号","geocoded_address":"上海市黄浦区大沽路|422"}},{"type":"Feature","geometry":{"type":"Point","coordinates":[121.429979,31.286862]},"properties":{"type":"medium","published_address":"静安区彭浦镇永和路880弄","geocoded_address":"上海市静安区彭浦镇永和路880弄"}},{"type":"Feature","geometry":{"type":"Point","coordinates":[121.455468,31.255985]},"properties":{"type":"medium","published_address":"静安区天目西路街道普善路128弄","geocoded_address":"上海市静安区普善路128弄"}},{"type":"Feature","geometry":{"type":"Point","coordinates":[121.45607,31.254824]},"properties":{"type":"medium","published_address":"静安区天目西路街道中华新路939弄","geocoded_address":"上海市静安区天目西路街道中华新路939弄"}},{"type":"Feature","geometry":{"type":"Point","coordinates":[121.459575,31.2566]},"properties":{"type":"medium","published_address":"静安区芷江西路街道大统路1033弄6-8号","geocoded_address":"上海市静安区大统路1033弄|6号"}},{"type":"Feature","geometry":{"type":"Point","coordinates":[121.493598,31.096089]},"properties":{"type":"medium","published_address":"闵行区浦锦街道浦驰路1335弄浦江华侨城四期","geocoded_address":"上海市闵行区华侨城"}},{"type":"Feature","geometry":{"type":"Point","coordinates":[121.364157,31.184628]},"properties":{"type":"medium","published_address":"闵行区虹桥镇黄桦路85弄龙柏城市花园","geocoded_address":"上海市闵行区龙柏城市花园"}},{"type":"Feature","geometry":{"type":"Point","coordinates":[121.384317,31.171629]},"properties":{"type":"medium","published_address":"闵行区虹桥镇万源路2289弄万源新城三期","geocoded_address":"上海市闵行区万源新城3期"}},{"type":"Feature","geometry":{"type":"Point","coordinates":[121.392468,31.179914]},"properties":{"type":"medium","published_address":"闵行区虹桥镇吴中路830弄","geocoded_address":"上海市闵行区虹桥镇吴中路830弄"}},{"type":"Feature","geometry":{"type":"Point","coordinates":[121.395491,31.093768]},"properties":{"type":"medium","published_address":"闵行区颛桥镇银都路3118弄银都苑","geocoded_address":"上海市闵行区银都苑"}},{"type":"Feature","geometry":{"type":"Point","coordinates":[121.517566,31.237051]},"properties":{"type":"medium","published_address":"浦东新区陆家嘴街道崂山五村","geocoded_address":"上海市浦东新区崂山五村"}},{"type":"Feature","geometry":{"type":"Point","coordinates":[121.516407,31.225244]},"properties":{"type":"medium","published_address":"浦东新区潍坊新村街道东南新村","geocoded_address":"上海市浦东新区东南新村"}},{"type":"Feature","geometry":{"type":"Point","coordinates":[121.668685,31.279895]},"properties":{"type":"medium","published_address":"浦东新区曹路镇上川路1755号 ","geocoded_address":"上海市浦东新区曹路镇上川路1755号"}},{"type":"Feature","geometry":{"type":"Point","coordinates":[121.54477,31.208064]},"properties":{"type":"medium","published_address":"浦东新区花木街道牡丹路145弄","geocoded_address":"上海市浦东新区花木街道牡丹路145弄"}},{"type":"Feature","geometry":{"type":"Point","coordinates":[121.762793,31.084523]},"properties":{"type":"medium","published_address":"浦东新区祝桥镇星火村","geocoded_address":"上海市浦东新区星火村"}},{"type":"Feature","geometry":{"type":"Point","coordinates":[121.588002,31.278563]},"properties":{"type":"medium","published_address":"浦东新区沪东新村街道沪新","geocoded_address":"上海市浦东新区沪东新村街道沪新村"}},{"type":"Feature","geometry":{"type":"Point","coordinates":[121.426557,31.263581]},"properties":{"type":"medium","published_address":"普陀区甘泉路街道双山","geocoded_address":"上海市普陀区甘泉路街道"}},{"type":"Feature","geometry":{"type":"Point","coordinates":[121.386521,31.252084]},"properties":{"type":"medium","published_address":"普陀区真如镇街道铜川路1781弄","geocoded_address":"上海市普陀区真如镇街道街道铜川路1781弄"}},{"type":"Feature","geometry":{"type":"Point","coordinates":[121.432365,31.23577]},"properties":{"type":"medium","published_address":"普陀区长寿路街道长寿路777号西部俊园","geocoded_address":"上海市普陀区西部俊园"}},{"type":"Feature","geometry":{"type":"Point","coordinates":[121.429101,31.245283]},"properties":{"type":"medium","published_address":"普陀区长寿路街道光复西路211弄","geocoded_address":"上海市普陀区长寿路街道光复西路211弄"}},{"type":"Feature","geometry":{"type":"Point","coordinates":[121.4223,31.251737]},"properties":{"type":"medium","published_address":"普陀区石泉路街道石岚三村","geocoded_address":"上海市普陀区石岚三村"}},{"type":"Feature","geometry":{"type":"Point","coordinates":[121.42296,31.256664]},"properties":{"type":"medium","published_address":"普陀区石泉路街道管弄路251弄","geocoded_address":"上海市普陀区石泉路街道管弄路251弄"}},{"type":"Feature","geometry":{"type":"Point","coordinates":[121.388892,31.261297]},"properties":{"type":"medium","published_address":"普陀区真如镇街道清涧路39弄","geocoded_address":"上海市普陀区真如镇街道街道清涧路39弄"}},{"type":"Feature","geometry":{"type":"Point","coordinates":[121.381141,31.250997]},"properties":{"type":"medium","published_address":"普陀区真如镇街道金汤路353弄","geocoded_address":"上海市普陀区真如镇街道街道金汤路353弄"}},{"type":"Feature","geometry":{"type":"Point","coordinates":[121.402124,31.249923]},"properties":{"type":"medium","published_address":"普陀区真如镇街道兰溪路436号","geocoded_address":"上海市普陀区真如镇街道街道兰溪路436号"}},{"type":"Feature","geometry":{"type":"Point","coordinates":[121.406582,31.259938]},"properties":{"type":"medium","published_address":"普陀区真如镇街道曹杨路2170弄恒力锦沧花园","geocoded_address":"上海市普陀区恒力锦沧花园"}},{"type":"Feature","geometry":{"type":"Point","coordinates":[121.402249,31.272853]},"properties":{"type":"medium","published_address":"普陀区万里街道紫颐园公寓","geocoded_address":"上海市普陀区万里街道紫颐园(东南2门)"}},{"type":"Feature","geometry":{"type":"Point","coordinates":[121.312613,31.146769]},"properties":{"type":"medium","published_address":"松江区九里亭街道涞寅路658弄绿庭尚城","geocoded_address":"上海市松江区绿庭尚城"}},{"type":"Feature","geometry":{"type":"Point","coordinates":[121.319089,31.129091]},"properties":{"type":"medium","published_address":"松江区九亭镇九新公路180弄云润家园","geocoded_address":"上海市松江区云润家园"}},{"type":"Feature","geometry":{"type":"Point","coordinates":[121.508966,31.271013]},"properties":{"type":"medium","published_address":"杨浦区江浦路街道打虎山路15弄","geocoded_address":"上海市杨浦区打虎山路15弄"}},{"type":"Feature","geometry":{"type":"Point","coordinates":[121.511289,31.26892]},"properties":{"type":"medium","published_address":"杨浦区江浦路街道打虎山路6弄","geocoded_address":"上海市杨浦区打虎山路6弄"}},{"type":"Feature","geometry":{"type":"Point","coordinates":[121.518423,31.28098]},"properties":{"type":"medium","published_address":"杨浦区控江路街道长岭路60弄","geocoded_address":"上海市杨浦区控江路街道长岭路60弄"}},{"type":"Feature","geometry":{"type":"Point","coordinates":[121.524898,31.28513]},"properties":{"type":"medium","published_address":"杨浦区控江路街道控江四村","geocoded_address":"上海市杨浦区控江四村"}},{"type":"Feature","geometry":{"type":"Point","coordinates":[121.4292,31.212724]},"properties":{"type":"medium","published_address":"长宁区华阳路街道昭化路55弄","geocoded_address":"上海市长宁区华阳路街道昭化路55弄"}},{"type":"Feature","geometry":{"type":"Point","coordinates":[121.429738,31.201053]},"properties":{"type":"medium","published_address":"长宁区新华路街道番禺路508号","geocoded_address":"上海市长宁区新华路街道番禺路508号"}}]}