{"type":"FeatureCollection","features":[{"type":"Feature","geometry":{"type":"Point","coordinates":[121.46665,31.041281]},"properties":{"published_address":"闵行区吴泾镇剑川路165号","geocoded_address":"上海市闵行区吴泾镇剑川路165号"}},{"type":"Feature","geometry":{"type":"Point","coordinates":[121.555815,31.22565]},"properties":{"published_address":"浦东新区花木街道丁香路910弄","geocoded_address":"上海市浦东新区花木街道丁香路910弄"}},{"type":"Feature","geometry":{"type":"Point","coordinates":[121.205715,31.041095]},"properties":{"published_address":"松江区方松街道滨湖路585弄","geocoded_address":"上海市松江区滨湖路585弄"}},{"type":"Feature","geometry":{"type":"Point","coordinates":[121.25944,31.40798]},"properties":{"published_address":"嘉定区菊园新区永靖路898弄北区","geocoded_address":"上海市嘉定区菊园新区永靖路898弄"}},{"type":"Feature","geometry":{"type":"Point","coordinates":[121.266398,31.173987]},"properties":{"published_address":"青浦区徐泾镇迮庵村杨巷西区","geocoded_address":"上海市青浦区杨巷西区"}},{"type":"Feature","geometry":{"type":"Point","coordinates":[121.330245,31.226634]},"properties":{"published_address":"闵行区华漕镇许浦村三队","geocoded_address":"上海市闵行区许浦村3队"}}]}