{"type":"FeatureCollection","features":[{"type":"Feature","geometry":{"type":"Point","coordinates":[121.455827,31.219029]},"properties":{"published_address":"徐汇区湖南路街道长乐路335号-339弄","geocoded_address":"上海市徐汇区长乐路339弄"}},{"type":"Feature","geometry":{"type":"Point","coordinates":[121.41758,31.13574]},"properties":{"published_address":"徐汇区凌云路街道梅陇三村","geocoded_address":"上海市徐汇区梅陇三村"}},{"type":"Feature","geometry":{"type":"Point","coordinates":[121.421239,31.137528]},"properties":{"published_address":"徐汇区凌云路街道梅陇四村","geocoded_address":"上海市徐汇区梅陇四村"}},{"type":"Feature","geometry":{"type":"Point","coordinates":[121.450611,31.259871]},"properties":{"published_address":"静安区共和新路街道谈家桥路163弄","geocoded_address":"上海市静安区谈家桥路163弄"}},{"type":"Feature","geometry":{"type":"Point","coordinates":[121.460996,31.257098]},"properties":{"published_address":"静安区芷江西路街道芷江西路270弄","geocoded_address":"上海市静安区芷江西路街道芷江西路270弄"}},{"type":"Feature","geometry":{"type":"Point","coordinates":[121.459453,31.263493]},"properties":{"published_address":"静安区共和新路街道共和新路1290号","geocoded_address":"上海市静安区共和新路|1290号"}},{"type":"Feature","geometry":{"type":"Point","coordinates":[121.449625,31.260752]},"properties":{"published_address":"静安区共和新路街道柳营路1059号-1069号","geocoded_address":"上海市静安区柳营路|1059"}},{"type":"Feature","geometry":{"type":"Point","coordinates":[121.460746,31.26563]},"properties":{"published_address":"静安区共和新路街道柳营路588弄","geocoded_address":"上海市静安区柳营路588弄"}},{"type":"Feature","geometry":{"type":"Point","coordinates":[121.493111,31.273739]},"properties":{"published_address":"虹口区欧阳路街道天宝西路248弄","geocoded_address":"上海市虹口区欧阳路街道天宝西路二四八弄"}},{"type":"Feature","geometry":{"type":"Point","coordinates":[121.383101,31.261828]},"properties":{"published_address":"普陀区真如镇街道桃浦路1028弄","geocoded_address":"上海市普陀区真如镇街道街道桃浦路1028弄"}},{"type":"Feature","geometry":{"type":"Point","coordinates":[121.35904,31.172088]},"properties":{"published_address":"闵行区七宝镇航华四村一二街坊","geocoded_address":"上海市闵行区一二街坊"}},{"type":"Feature","geometry":{"type":"Point","coordinates":[121.36836,31.353247]},"properties":{"published_address":"宝山区顾村镇陆翔路678弄","geocoded_address":"上海市宝山区顾村镇陆翔路678弄"}},{"type":"Feature","geometry":{"type":"Point","coordinates":[121.48938,31.34445]},"properties":{"published_address":"宝山区淞南镇淞南三村","geocoded_address":"上海市宝山区淞南三村"}},{"type":"Feature","geometry":{"type":"Point","coordinates":[121.42031,31.2766]},"properties":{"published_address":"宝山区大场镇文华苑","geocoded_address":"上海市宝山区文华苑"}},{"type":"Feature","geometry":{"type":"Point","coordinates":[121.518175,31.28959]},"properties":{"published_address":"杨浦区五角场街道国顺路81弄","geocoded_address":"上海市杨浦区五角场街道国顺路81弄"}},{"type":"Feature","geometry":{"type":"Point","coordinates":[121.51288,31.293694]},"properties":{"published_address":"杨浦区五角场街道四平路2100弄","geocoded_address":"上海市杨浦区五角场街道四平路2100弄"}},{"type":"Feature","geometry":{"type":"Point","coordinates":[121.254259,31.067399]},"properties":{"published_address":"松江区中山街道辰花路387号西侧C08-04号","geocoded_address":"上海市松江区中山街道辰花路387号"}},{"type":"Feature","geometry":{"type":"Point","coordinates":[121.088689,30.989699]},"properties":{"published_address":"青浦区练塘镇芦潼村芦花自然村","geocoded_address":"上海市青浦区芦潼村"}},{"type":"Feature","geometry":{"type":"Point","coordinates":[121.22168,31.818579]},"properties":{"published_address":"崇明区新海镇跃进新村65-68号","geocoded_address":"上海市崇明区跃进新村"}}]}