{"type":"FeatureCollection","features":[{"type":"Feature","geometry":{"type":"Point","coordinates":[121.438949,31.258117]},"properties":{"type":"medium","town":"普陀区","published_address":"宜川路街道交通路1913弄1-10号","geocoded_address":"上海市普陀区宜川路街道交通路1913弄1-18号"}},{"type":"Feature","geometry":{"type":"Point","coordinates":[121.440496,31.257144]},"properties":{"type":"medium","town":"普陀区","published_address":"宜川路街道交通路1913弄15-18号","geocoded_address":"上海市普陀区交通路1913弄|15号"}},{"type":"Feature","geometry":{"type":"Point","coordinates":[121.424928,31.027455]},"properties":{"type":"medium","town":"闵行区","published_address":"江川路街道剑川路901号","geocoded_address":"上海市闵行区剑川路|901"}},{"type":"Feature","geometry":{"type":"Point","coordinates":[121.592625,31.272845]},"properties":{"type":"high","town":"浦东新区","published_address":"浦兴路街道东荷小区","geocoded_address":"上海市浦东新区东荷小区"}},{"type":"Feature","geometry":{"type":"Point","coordinates":[121.457961,31.247992]},"properties":{"type":"high","town":"静安区","published_address":"天目西路街道秣陵路83号","geocoded_address":"上海市静安区秣陵路|83"}}]}