{"type":"FeatureCollection","features":[{"type":"Feature","geometry":{"type":"Point","coordinates":[121.592784,31.278712]},"properties":{"type":"medium","town":"浦东新区","published_address":"浦兴路街道东陆新村五街坊","geocoded_address":"上海市浦东新区东陆新村五街坊"}},{"type":"Feature","geometry":{"type":"Point","coordinates":[121.573876,31.236661]},"properties":{"type":"medium","town":"浦东新区","published_address":"花木街道碧云路199弄爱建园","geocoded_address":"上海市浦东新区爱建园"}},{"type":"Feature","geometry":{"type":"Point","coordinates":[121.5647,31.21776]},"properties":{"type":"medium","town":"浦东新区","published_address":"花木街道花木路1883弄御翠园","geocoded_address":"上海市浦东新区御翠园"}},{"type":"Feature","geometry":{"type":"Point","coordinates":[121.690152,31.17225]},"properties":{"type":"medium","town":"浦东新区","published_address":"川沙新镇心圆西苑","geocoded_address":"上海市浦东新区心圆西苑"}},{"type":"Feature","geometry":{"type":"Point","coordinates":[121.468143,31.248294]},"properties":{"type":"medium","town":"静安区","published_address":"芷江西路街道新马路258弄","geocoded_address":"上海市静安区芷江西路新马路258弄"}},{"type":"Feature","geometry":{"type":"Point","coordinates":[121.450748,31.309338]},"properties":{"type":"medium","town":"静安区","published_address":"彭浦新村街道彭三小区二期","geocoded_address":"上海市静安区彭三小区"}},{"type":"Feature","geometry":{"type":"Point","coordinates":[121.3856,31.286431]},"properties":{"type":"medium","town":"普陀区","published_address":"桃浦镇古浪路518弄396-402号安祁古浪新苑","geocoded_address":"上海市普陀区古浪路518弄|396号|-402"}},{"type":"Feature","geometry":{"type":"Point","coordinates":[121.414749,31.256393]},"properties":{"type":"medium","town":"普陀区","published_address":"石泉路街道礼泉路140号甲","geocoded_address":"上海市普陀区石泉路街道礼泉路140号甲"}},{"type":"Feature","geometry":{"type":"Point","coordinates":[121.425529,31.2395]},"properties":{"type":"medium","town":"普陀区","published_address":"长寿路街道东新路115弄武宁一村","geocoded_address":"上海市普陀区武宁一村"}},{"type":"Feature","geometry":{"type":"Point","coordinates":[121.480044,31.279559]},"properties":{"type":"medium","town":"虹口区","published_address":"广中路街道广秀路66号","geocoded_address":"上海市虹口区广中路街道广秀路66号"}},{"type":"Feature","geometry":{"type":"Point","coordinates":[121.486239,31.301344]},"properties":{"type":"medium","town":"虹口区","published_address":"江湾镇街道逸仙路446号","geocoded_address":"上海市宝山区逸仙路|446"}},{"type":"Feature","geometry":{"type":"Point","coordinates":[121.486229,31.301397]},"properties":{"type":"medium","town":"虹口区","published_address":"江湾镇街道逸仙路448号","geocoded_address":"上海市宝山区逸仙路|448"}},{"type":"Feature","geometry":{"type":"Point","coordinates":[121.479036,31.265239]},"properties":{"type":"medium","town":"虹口区","published_address":"广中路街道宝山路888弄","geocoded_address":"上海市虹口区广中路街道宝山路888弄"}},{"type":"Feature","geometry":{"type":"Point","coordinates":[121.474461,31.313071]},"properties":{"type":"medium","town":"虹口区","published_address":"江湾镇街道虹湾路86弄","geocoded_address":"上海市虹口区江湾镇虹湾路86弄"}},{"type":"Feature","geometry":{"type":"Point","coordinates":[121.540204,31.274392]},"properties":{"type":"medium","town":"杨浦区","published_address":"大桥街道双阳支路28弄","geocoded_address":"上海市杨浦区大桥街道双阳支路28弄"}},{"type":"Feature","geometry":{"type":"Point","coordinates":[121.538845,31.266902]},"properties":{"type":"medium","town":"杨浦区","published_address":"大桥街道锦州湾路169弄","geocoded_address":"上海市杨浦区大桥街道锦州湾路169弄"}},{"type":"Feature","geometry":{"type":"Point","coordinates":[121.534576,31.25961]},"properties":{"type":"medium","town":"杨浦区","published_address":"大桥街道沈阳路148号","geocoded_address":"上海市杨浦区沈阳路|148号"}},{"type":"Feature","geometry":{"type":"Point","coordinates":[121.535341,31.260207]},"properties":{"type":"medium","town":"杨浦区","published_address":"大桥街道沈阳路150号","geocoded_address":"上海市杨浦区沈阳路|150号"}},{"type":"Feature","geometry":{"type":"Point","coordinates":[121.535264,31.260221]},"properties":{"type":"medium","town":"杨浦区","published_address":"大桥街道沈阳路152号","geocoded_address":"上海市杨浦区大桥街道沈阳路152号"}},{"type":"Feature","geometry":{"type":"Point","coordinates":[121.524898,31.28513]},"properties":{"type":"medium","town":"杨浦区","published_address":"控江路街道控江四村","geocoded_address":"上海市杨浦区控江四村"}},{"type":"Feature","geometry":{"type":"Point","coordinates":[121.521925,31.280328]},"properties":{"type":"medium","town":"杨浦区","published_address":"控江路街道延吉西路81弄1号","geocoded_address":"上海市杨浦区延吉西路81弄|1号"}},{"type":"Feature","geometry":{"type":"Point","coordinates":[121.521699,31.28022]},"properties":{"type":"medium","town":"杨浦区","published_address":"控江路街道延吉西路81弄2号","geocoded_address":"上海市杨浦区控江路街道延吉西路81弄2号"}},{"type":"Feature","geometry":{"type":"Point","coordinates":[121.521562,31.28015]},"properties":{"type":"medium","town":"杨浦区","published_address":"控江路街道延吉西路81弄5号","geocoded_address":"上海市杨浦区控江路街道延吉西路81弄5号"}},{"type":"Feature","geometry":{"type":"Point","coordinates":[121.539625,31.328877]},"properties":{"type":"medium","town":"杨浦区","published_address":"殷行街道殷行路296弄","geocoded_address":"上海市杨浦区殷行街道殷行路296弄"}},{"type":"Feature","geometry":{"type":"Point","coordinates":[121.506131,31.305702]},"properties":{"type":"medium","town":"杨浦区","published_address":"五角场街道政立路580弄","geocoded_address":"上海市杨浦区五角场街道政立路580弄"}},{"type":"Feature","geometry":{"type":"Point","coordinates":[121.539378,31.258329]},"properties":{"type":"medium","town":"杨浦区","published_address":"大桥街道渭南路43-47号","geocoded_address":"上海市杨浦区大桥街道渭南路43号"}},{"type":"Feature","geometry":{"type":"Point","coordinates":[121.492738,31.309728]},"properties":{"type":"medium","town":"杨浦区","published_address":"五角场街道三门路358弄","geocoded_address":"上海市杨浦区三门路358弄"}},{"type":"Feature","geometry":{"type":"Point","coordinates":[121.524639,31.280769]},"properties":{"type":"medium","town":"杨浦区","published_address":"控江路街道黄兴小区","geocoded_address":"上海市杨浦区黄兴小区"}},{"type":"Feature","geometry":{"type":"Point","coordinates":[121.550725,31.26846]},"properties":{"type":"medium","town":"杨浦区","published_address":"定海路街道隆昌路66号","geocoded_address":"上海市杨浦区隆昌路|66"}},{"type":"Feature","geometry":{"type":"Point","coordinates":[121.423026,31.264293]},"properties":{"type":"medium","town":"宝山区","published_address":"大场镇涵青路100弄学府阳光","geocoded_address":"上海市普陀区学府阳光"}},{"type":"Feature","geometry":{"type":"Point","coordinates":[121.475323,31.317288]},"properties":{"type":"medium","town":"宝山区","published_address":"高境镇云西路168弄西区","geocoded_address":"上海市宝山区高境镇云西路168弄"}},{"type":"Feature","geometry":{"type":"Point","coordinates":[121.494502,31.317118]},"properties":{"type":"medium","town":"宝山区","published_address":"高境镇国权北路290弄","geocoded_address":"上海市宝山区高境镇国权北路290弄"}},{"type":"Feature","geometry":{"type":"Point","coordinates":[121.488842,31.349091]},"properties":{"type":"medium","town":"宝山区","published_address":"高境镇三门路555弄煤气公司自管房","geocoded_address":"上海市宝山区吴淞煤气制气有限公司"}},{"type":"Feature","geometry":{"type":"Point","coordinates":[121.33847,31.385902]},"properties":{"type":"medium","town":"宝山区","published_address":"罗店镇美平路745弄美罗家园宝欣苑二村","geocoded_address":"上海市宝山区宝欣苑"}},{"type":"Feature","geometry":{"type":"Point","coordinates":[121.470084,31.334804]},"properties":{"type":"medium","town":"宝山区","published_address":"淞南镇通南路368弄86号","geocoded_address":"上海市宝山区通南路368弄|86号"}},{"type":"Feature","geometry":{"type":"Point","coordinates":[121.425548,31.386923]},"properties":{"type":"medium","town":"宝山区","published_address":"杨行镇蕰川路2226号苏鑫仓库","geocoded_address":"上海市宝山区蕰川路|2226"}},{"type":"Feature","geometry":{"type":"Point","coordinates":[121.447326,31.320281]},"properties":{"type":"medium","town":"宝山区","published_address":"高境镇共和新路4719弄惠民公寓","geocoded_address":"上海市宝山区惠民公寓"}},{"type":"Feature","geometry":{"type":"Point","coordinates":[121.448701,31.318988]},"properties":{"type":"medium","town":"宝山区","published_address":"高境镇共和新路4703弄","geocoded_address":"上海市宝山区高境镇共和新路4703弄"}},{"type":"Feature","geometry":{"type":"Point","coordinates":[121.499156,31.401491]},"properties":{"type":"medium","town":"宝山区","published_address":"友谊路街道宝杨路250号宝杨市场","geocoded_address":"上海市宝山区宝杨市场"}},{"type":"Feature","geometry":{"type":"Point","coordinates":[121.481603,31.4041]},"properties":{"type":"medium","town":"宝山区","published_address":"友谊路街道密山路101号宝山市场","geocoded_address":"上海市宝山区宝山市场"}},{"type":"Feature","geometry":{"type":"Point","coordinates":[121.449431,31.319376]},"properties":{"type":"medium","town":"宝山区","published_address":"高境镇共和新路4719弄","geocoded_address":"上海市宝山区高境镇共和新路4719弄"}},{"type":"Feature","geometry":{"type":"Point","coordinates":[121.40908,31.36314]},"properties":{"type":"medium","town":"宝山区","published_address":"顾村镇宝安公路859号","geocoded_address":"上海市宝山区顾村镇宝安公路859号"}},{"type":"Feature","geometry":{"type":"Point","coordinates":[121.391,31.33987]},"properties":{"type":"medium","town":"宝山区","published_address":"顾村镇白杨村赵家宅1号-32号","geocoded_address":"上海市宝山区顾村镇白杨村"}},{"type":"Feature","geometry":{"type":"Point","coordinates":[121.391,31.33987]},"properties":{"type":"medium","town":"宝山区","published_address":"顾村镇白杨村赵家宅37号-42号","geocoded_address":"上海市宝山区顾村镇白杨村"}},{"type":"Feature","geometry":{"type":"Point","coordinates":[121.471977,31.323758]},"properties":{"type":"medium","town":"宝山区","published_address":"高境镇高境路477弄一期B区","geocoded_address":"上海市宝山区高境镇高境路477弄"}},{"type":"Feature","geometry":{"type":"Point","coordinates":[121.438351,31.373029]},"properties":{"type":"medium","town":"宝山区","published_address":"杨行镇杨桃路185弄杨泰苑","geocoded_address":"上海市宝山区杨泰苑"}},{"type":"Feature","geometry":{"type":"Point","coordinates":[121.461522,31.342461]},"properties":{"type":"medium","town":"宝山区","published_address":"淞南镇江杨南路2058号","geocoded_address":"上海市宝山区淞南镇江杨南路2058号"}},{"type":"Feature","geometry":{"type":"Point","coordinates":[121.439815,31.348929]},"properties":{"type":"medium","town":"宝山区","published_address":"杨行镇联谊路190号","geocoded_address":"上海市宝山区杨行镇联谊路190号"}},{"type":"Feature","geometry":{"type":"Point","coordinates":[121.346214,31.41707]},"properties":{"type":"medium","town":"宝山区","published_address":"罗店镇赵巷街96弄2-15号","geocoded_address":"上海市宝山区赵巷街96弄"}},{"type":"Feature","geometry":{"type":"Point","coordinates":[121.489261,31.311993]},"properties":{"type":"medium","town":"宝山区","published_address":"高境镇三门路555弄","geocoded_address":"上海市宝山区高境镇三门路555弄"}},{"type":"Feature","geometry":{"type":"Point","coordinates":[121.487598,31.315631]},"properties":{"type":"medium","town":"宝山区","published_address":"高境镇逸仙路1321弄","geocoded_address":"上海市宝山区高境镇逸仙路1321弄"}},{"type":"Feature","geometry":{"type":"Point","coordinates":[121.34678,31.329889]},"properties":{"type":"medium","town":"宝山区","published_address":"顾村镇陈家行村花家桥34号","geocoded_address":"上海市宝山区花家桥|34号"}},{"type":"Feature","geometry":{"type":"Point","coordinates":[121.346847,31.32991]},"properties":{"type":"medium","town":"宝山区","published_address":"顾村镇陈家行村花家桥35号","geocoded_address":"上海市宝山区花家桥|35号"}},{"type":"Feature","geometry":{"type":"Point","coordinates":[121.345426,31.329816]},"properties":{"type":"medium","town":"宝山区","published_address":"顾村镇陈家行村花家桥38号","geocoded_address":"上海市宝山区花家桥|38号"}},{"type":"Feature","geometry":{"type":"Point","coordinates":[121.346711,31.330031]},"properties":{"type":"medium","town":"宝山区","published_address":"顾村镇陈家行村花家桥42号","geocoded_address":"上海市宝山区花家桥|42号"}},{"type":"Feature","geometry":{"type":"Point","coordinates":[121.410947,31.389055]},"properties":{"type":"medium","town":"宝山区","published_address":"杨行镇北宗村严江巷","geocoded_address":"上海市宝山区杨行镇北宗村严江巷"}},{"type":"Feature","geometry":{"type":"Point","coordinates":[121.424253,31.387366]},"properties":{"type":"medium","town":"宝山区","published_address":"杨行镇湄浦村华宝五金厂","geocoded_address":"上海市宝山区华宝五金厂"}},{"type":"Feature","geometry":{"type":"Point","coordinates":[121.450319,31.333449]},"properties":{"type":"medium","town":"宝山区","published_address":"张庙街道长江西路1568号通河二村4号","geocoded_address":"上海市宝山区张庙街道长江西路1568号"}},{"type":"Feature","geometry":{"type":"Point","coordinates":[121.149872,31.30476]},"properties":{"type":"medium","town":"嘉定区","published_address":"安亭镇新源路1025弄澳丽映象嘉园","geocoded_address":"上海市嘉定区澳丽映象嘉园"}},{"type":"Feature","geometry":{"type":"Point","coordinates":[121.645233,31.063329]},"properties":{"type":"high","town":"浦东新区","published_address":"新场镇申江南路5700号","geocoded_address":"上海市浦东新区申江南路|5700"}},{"type":"Feature","geometry":{"type":"Point","coordinates":[121.388062,31.290925]},"properties":{"type":"high","town":"普陀区","published_address":"桃浦镇连亮路111弄","geocoded_address":"上海市普陀区连亮路111弄"}},{"type":"Feature","geometry":{"type":"Point","coordinates":[121.487782,31.25776]},"properties":{"type":"high","town":"虹口区","published_address":"四川北路街道四平路59号","geocoded_address":"上海市虹口区四川北路街道四平路59号"}},{"type":"Feature","geometry":{"type":"Point","coordinates":[121.509821,31.303988]},"properties":{"type":"high","town":"杨浦区","published_address":"五角场街道大学路","geocoded_address":"上海市杨浦区大学路"}},{"type":"Feature","geometry":{"type":"Point","coordinates":[121.481793,31.334987]},"properties":{"type":"high","town":"宝山区","published_address":"淞南镇淞南八村","geocoded_address":"上海市宝山区淞南八村"}},{"type":"Feature","geometry":{"type":"Point","coordinates":[121.493486,31.401912]},"properties":{"type":"high","town":"宝山区","published_address":"友谊路街道宝林路宝林三村","geocoded_address":"上海市宝山区宝林三村"}},{"type":"Feature","geometry":{"type":"Point","coordinates":[121.317814,31.109308]},"properties":{"type":"high","town":"松江区","published_address":"九亭镇同利路19-59号","geocoded_address":"上海市松江区同利路|19号"}},{"type":"Feature","geometry":{"type":"Point","coordinates":[121.317019,31.109457]},"properties":{"type":"high","town":"松江区","published_address":"九亭镇同利路36-68号","geocoded_address":"上海市松江区同利路|36号"}}]}