{"type":"FeatureCollection","features":[{"type":"Feature","geometry":{"type":"Point","coordinates":[121.455827,31.219029]},"properties":{"published_address":"徐汇区湖南路街道长乐路335号-339弄","geocoded_address":"上海市徐汇区长乐路339弄"}},{"type":"Feature","geometry":{"type":"Point","coordinates":[121.459453,31.263493]},"properties":{"published_address":"静安区共和新路街道共和新路1290号","geocoded_address":"上海市静安区共和新路|1290号"}},{"type":"Feature","geometry":{"type":"Point","coordinates":[121.449625,31.260752]},"properties":{"published_address":"静安区共和新路街道柳营路1059号-1069号","geocoded_address":"上海市静安区柳营路|1059"}},{"type":"Feature","geometry":{"type":"Point","coordinates":[121.460746,31.26563]},"properties":{"published_address":"静安区共和新路街道柳营路588弄","geocoded_address":"上海市静安区柳营路588弄"}},{"type":"Feature","geometry":{"type":"Point","coordinates":[121.469016,31.250452]},"properties":{"published_address":"静安区芷江西路街道西藏北路新赵家宅","geocoded_address":"上海市静安区西藏北路"}},{"type":"Feature","geometry":{"type":"Point","coordinates":[121.493111,31.273739]},"properties":{"published_address":"虹口区欧阳路街道天宝西路248弄","geocoded_address":"上海市虹口区欧阳路街道天宝西路二四八弄"}},{"type":"Feature","geometry":{"type":"Point","coordinates":[121.383101,31.261828]},"properties":{"published_address":"普陀区真如镇街道桃浦路1028弄","geocoded_address":"上海市普陀区真如镇街道街道桃浦路1028弄"}},{"type":"Feature","geometry":{"type":"Point","coordinates":[121.35904,31.172088]},"properties":{"published_address":"闵行区七宝镇航华四村一二街坊","geocoded_address":"上海市闵行区一二街坊"}},{"type":"Feature","geometry":{"type":"Point","coordinates":[121.42031,31.2766]},"properties":{"published_address":"宝山区大场镇文华苑","geocoded_address":"上海市宝山区文华苑"}},{"type":"Feature","geometry":{"type":"Point","coordinates":[121.597016,30.990492]},"properties":{"published_address":"奉贤区金汇镇梅园村","geocoded_address":"上海市奉贤区梅园村"}}]}