{"type":"FeatureCollection","features":[{"type":"Feature","geometry":{"type":"Point","coordinates":[121.587666,31.105874]},"properties":{"type":"medium","town":"浦东新区","published_address":"周浦镇繁荣东路150弄繁荣馨苑","geocoded_address":"上海市浦东新区周浦镇繁荣东路150弄繁荣馨苑"}},{"type":"Feature","geometry":{"type":"Point","coordinates":[121.499478,31.273724]},"properties":{"type":"medium","town":"虹口区","published_address":"欧阳路街道天宝路1008号","geocoded_address":"上海市虹口区天宝路|1008号"}},{"type":"Feature","geometry":{"type":"Point","coordinates":[121.499161,31.273774]},"properties":{"type":"medium","town":"虹口区","published_address":"欧阳路街道天宝路1012号","geocoded_address":"上海市虹口区天宝路|1012"}},{"type":"Feature","geometry":{"type":"Point","coordinates":[121.499117,31.273787]},"properties":{"type":"medium","town":"虹口区","published_address":"欧阳路街道天宝路1028号","geocoded_address":"上海市虹口区天宝路|1028"}},{"type":"Feature","geometry":{"type":"Point","coordinates":[121.498573,31.273874]},"properties":{"type":"medium","town":"虹口区","published_address":"欧阳路街道天宝路1038号","geocoded_address":"上海市虹口区天宝路|1038号"}},{"type":"Feature","geometry":{"type":"Point","coordinates":[121.497144,31.278871]},"properties":{"type":"medium","town":"杨浦区","published_address":"四平路街道密云小区","geocoded_address":"上海市虹口区密云小区"}},{"type":"Feature","geometry":{"type":"Point","coordinates":[121.419676,31.384264]},"properties":{"type":"medium","town":"宝山区","published_address":"杨行镇湄浦村南周宅","geocoded_address":"上海市宝山区杨行镇湄浦村南周宅"}},{"type":"Feature","geometry":{"type":"Point","coordinates":[121.389382,31.355068]},"properties":{"type":"medium","town":"宝山区","published_address":"顾村镇顾荻路311号","geocoded_address":"上海市宝山区顾村镇顾荻路311号"}},{"type":"Feature","geometry":{"type":"Point","coordinates":[121.457126,31.397604]},"properties":{"type":"medium","town":"宝山区","published_address":"杨行镇铁峰路2001弄54-67号","geocoded_address":"上海市宝山区铁峰路2001弄|54号楼"}},{"type":"Feature","geometry":{"type":"Point","coordinates":[121.457519,31.398376]},"properties":{"type":"medium","town":"宝山区","published_address":"杨行镇铁峰路2001弄77-84号","geocoded_address":"上海市宝山区铁峰路2001弄|77号"}},{"type":"Feature","geometry":{"type":"Point","coordinates":[121.457274,31.39862]},"properties":{"type":"medium","town":"宝山区","published_address":"杨行镇铁峰路2001弄87-105号","geocoded_address":"上海市宝山区铁峰路2001弄|87号"}},{"type":"Feature","geometry":{"type":"Point","coordinates":[121.455124,31.39814]},"properties":{"type":"medium","town":"宝山区","published_address":"杨行镇铁峰路2001弄107号","geocoded_address":"上海市宝山区铁峰路2001弄|107号"}},{"type":"Feature","geometry":{"type":"Point","coordinates":[121.316951,31.418176]},"properties":{"type":"medium","town":"嘉定区","published_address":"徐行镇和桥村施庙季宅村民组","geocoded_address":"上海市嘉定区施庙"}},{"type":"Feature","geometry":{"type":"Point","coordinates":[121.62745,31.11206]},"properties":{"type":"high","town":"浦东新区","published_address":"周浦镇忘忧路135弄梧桐国际公寓","geocoded_address":"上海市浦东新区周浦镇忘忧路135号"}},{"type":"Feature","geometry":{"type":"Point","coordinates":[121.415385,31.240225]},"properties":{"type":"high","town":"普陀区","published_address":"曹杨新村街道曹杨路710弄","geocoded_address":"上海市普陀区曹杨新村街道曹杨路710弄"}},{"type":"Feature","geometry":{"type":"Point","coordinates":[121.33,31.488066]},"properties":{"type":"high","town":"宝山区","published_address":"罗泾镇潘新路118弄宝通家园西区","geocoded_address":"上海市宝山区宝通家园"}},{"type":"Feature","geometry":{"type":"Point","coordinates":[121.315067,31.014986]},"properties":{"type":"high","town":"松江区","published_address":"车墩镇大官塘路180弄松南城善德苑","geocoded_address":"上海市松江区车墩镇"}}]}