{"type":"FeatureCollection","features":[{"type":"Feature","geometry":{"type":"Point","coordinates":[121.451693,31.11173]},"properties":{"type":"medium","town":"徐汇区","published_address":"华泾镇华展路107-125号","geocoded_address":"上海市徐汇区华泾镇华展路107号"}},{"type":"Feature","geometry":{"type":"Point","coordinates":[121.45168,31.11176]},"properties":{"type":"medium","town":"徐汇区","published_address":"华泾镇华展路113号","geocoded_address":"上海市徐汇区华展路|113"}},{"type":"Feature","geometry":{"type":"Point","coordinates":[121.456328,31.108276]},"properties":{"type":"medium","town":"徐汇区","published_address":"华泾镇龙吴路2888弄盛华景苑","geocoded_address":"上海市徐汇区盛华景苑"}},{"type":"Feature","geometry":{"type":"Point","coordinates":[121.420743,31.121572]},"properties":{"type":"medium","town":"闵行区","published_address":"梅陇镇莘朱路1866号-1884号","geocoded_address":"上海市闵行区梅陇镇莘朱路1866号"}},{"type":"Feature","geometry":{"type":"Point","coordinates":[121.43493,31.091856]},"properties":{"type":"medium","town":"闵行区","published_address":"梅陇镇虹梅南路3001号美琪花苑","geocoded_address":"上海市闵行区美琪花苑"}},{"type":"Feature","geometry":{"type":"Point","coordinates":[121.461001,31.119602]},"properties":{"type":"high","town":"徐汇区","published_address":"华泾镇龙吴路2418弄华欣家园","geocoded_address":"上海市徐汇区华欣家园"}},{"type":"Feature","geometry":{"type":"Point","coordinates":[121.448745,31.126711]},"properties":{"type":"high","town":"徐汇区","published_address":"华泾镇华发路329号","geocoded_address":"上海市徐汇区华泾镇华发路329号"}},{"type":"Feature","geometry":{"type":"Point","coordinates":[121.44711,31.128366]},"properties":{"type":"high","town":"徐汇区","published_address":"华泾镇华发路406弄","geocoded_address":"上海市徐汇区华泾镇华发路406弄"}},{"type":"Feature","geometry":{"type":"Point","coordinates":[121.448935,31.128711]},"properties":{"type":"high","town":"徐汇区","published_address":"华泾镇华发路368弄","geocoded_address":"上海市徐汇区华泾镇华发路368弄"}},{"type":"Feature","geometry":{"type":"Point","coordinates":[121.43386,31.11837]},"properties":{"type":"high","town":"闵行区","published_address":"梅陇镇虹梅南路1526弄","geocoded_address":"上海市闵行区梅陇镇虹梅南路1526弄"}},{"type":"Feature","geometry":{"type":"Point","coordinates":[121.433718,31.113112]},"properties":{"type":"high","town":"闵行区","published_address":"梅陇镇老沪闵路1351弄","geocoded_address":"上海市闵行区梅陇镇老沪闵路1351弄"}},{"type":"Feature","geometry":{"type":"Point","coordinates":[121.442908,31.102483]},"properties":{"type":"high","town":"闵行区","published_address":"梅陇镇永联村吴介巷","geocoded_address":"上海市闵行区梅陇镇永联村吴介巷"}},{"type":"Feature","geometry":{"type":"Point","coordinates":[121.441282,31.081499]},"properties":{"type":"high","town":"闵行区","published_address":"梅陇镇澄江路1290号","geocoded_address":"上海市闵行区梅陇镇澄江路1290号"}}]}