{"type":"FeatureCollection","features":[{"type":"Feature","geometry":{"type":"Point","coordinates":[121.479109,31.301643]},"properties":{"published_address":"虹口区江湾镇街道池沟路60弄","geocoded_address":"上海市虹口区江湾镇池沟路60弄"}},{"type":"Feature","geometry":{"type":"Point","coordinates":[121.50688,31.254752]},"properties":{"published_address":"虹口区北外滩街道昆明路56号","geocoded_address":"上海市虹口区昆明路|56"}},{"type":"Feature","geometry":{"type":"Point","coordinates":[121.456028,31.218306]},"properties":{"published_address":"徐汇区湖南路街道新乐路58弄","geocoded_address":"上海市徐汇区新乐路58弄"}},{"type":"Feature","geometry":{"type":"Point","coordinates":[121.446928,31.203789]},"properties":{"published_address":"徐汇区天平路街道永嘉路172弄","geocoded_address":"上海市徐汇区永嘉路"}},{"type":"Feature","geometry":{"type":"Point","coordinates":[121.42593,31.171479]},"properties":{"published_address":"徐汇区田林街道田林十一村","geocoded_address":"上海市徐汇区田林十一村"}},{"type":"Feature","geometry":{"type":"Point","coordinates":[121.449146,31.212266]},"properties":{"published_address":"徐汇区湖南路街道淮海中路1352号-1372号","geocoded_address":"上海市徐汇区淮海中路|1352"}},{"type":"Feature","geometry":{"type":"Point","coordinates":[121.408906,31.30257]},"properties":{"published_address":"宝山区大场镇乾溪一村","geocoded_address":"上海市宝山区大场镇乾溪一村"}},{"type":"Feature","geometry":{"type":"Point","coordinates":[121.425261,31.360868]},"properties":{"published_address":"宝山区杨行镇蕰川路1498弄","geocoded_address":"上海市宝山区蕰川路1498弄"}},{"type":"Feature","geometry":{"type":"Point","coordinates":[121.48376,31.322017]},"properties":{"published_address":"宝山区高境镇逸仙路1588弄","geocoded_address":"上海市宝山区高境镇逸仙路1588弄"}},{"type":"Feature","geometry":{"type":"Point","coordinates":[121.451776,31.337927]},"properties":{"published_address":"宝山区张庙街道泗塘一村四号地块","geocoded_address":"上海市宝山区张庙街道泗塘一村(西南门)"}},{"type":"Feature","geometry":{"type":"Point","coordinates":[121.37295,31.360813]},"properties":{"published_address":"黄浦区瑞金二路街道13街坊","geocoded_address":"上海市宝山区馨家园13街坊"}},{"type":"Feature","geometry":{"type":"Point","coordinates":[121.43573,31.226361]},"properties":{"published_address":"静安区曹家渡街道武定西路1189号","geocoded_address":"上海市静安区曹家渡街道武定西路1189号"}},{"type":"Feature","geometry":{"type":"Point","coordinates":[121.454844,31.256438]},"properties":{"published_address":"静安区天目西路街道芷江西路593弄","geocoded_address":"上海市静安区天目西路街道芷江西路593弄"}},{"type":"Feature","geometry":{"type":"Point","coordinates":[121.455026,31.291183]},"properties":{"published_address":"静安区大宁路街道广延路1188弄","geocoded_address":"上海市静安区大宁路街道广延路1188弄"}},{"type":"Feature","geometry":{"type":"Point","coordinates":[121.450611,31.259871]},"properties":{"published_address":"静安区共和新路街道谈家桥路163弄","geocoded_address":"上海市静安区谈家桥路163弄"}},{"type":"Feature","geometry":{"type":"Point","coordinates":[121.437598,31.235119]},"properties":{"published_address":"静安区曹家渡街道余姚路327号","geocoded_address":"上海市静安区余姚路|327"}},{"type":"Feature","geometry":{"type":"Point","coordinates":[121.46665,31.041281]},"properties":{"published_address":"闵行区吴泾镇剑川路165号","geocoded_address":"上海市闵行区吴泾镇剑川路165号"}},{"type":"Feature","geometry":{"type":"Point","coordinates":[121.38722,31.125379]},"properties":{"published_address":"闵行区莘庄镇报春路388弄新梅花苑","geocoded_address":"上海市闵行区新梅花苑"}},{"type":"Feature","geometry":{"type":"Point","coordinates":[121.540073,31.05653]},"properties":{"published_address":"闵行区浦江镇召楼路2056弄博雅苑","geocoded_address":"上海市闵行区博雅苑"}},{"type":"Feature","geometry":{"type":"Point","coordinates":[121.555815,31.22565]},"properties":{"published_address":"浦东新区花木街道丁香路910弄","geocoded_address":"上海市浦东新区花木街道丁香路910弄"}},{"type":"Feature","geometry":{"type":"Point","coordinates":[121.76146,31.05088]},"properties":{"published_address":"浦东新区惠南镇梅花新邨","geocoded_address":"上海市浦东新区梅花新邨"}},{"type":"Feature","geometry":{"type":"Point","coordinates":[121.559255,31.212756]},"properties":{"published_address":"浦东新区花木街道银霄路39弄","geocoded_address":"上海市浦东新区花木街道银霄路39弄"}},{"type":"Feature","geometry":{"type":"Point","coordinates":[121.559809,31.209157]},"properties":{"published_address":"浦东新区花木街道樱花路801弄","geocoded_address":"上海市浦东新区花木街道樱花路801弄"}},{"type":"Feature","geometry":{"type":"Point","coordinates":[121.205715,31.041095]},"properties":{"published_address":"松江区方松街道滨湖路585弄","geocoded_address":"上海市松江区滨湖路585弄"}}]}