{"type":"FeatureCollection","features":[{"type":"Feature","geometry":{"type":"Point","coordinates":[121.266398,31.173987]},"properties":{"published_address":"青浦区徐泾镇迮庵村杨巷西区","geocoded_address":"上海市青浦区杨巷西区"}},{"type":"Feature","geometry":{"type":"Point","coordinates":[121.595133,31.341665]},"properties":{"published_address":"浦东新区日京路88号","geocoded_address":"上海市浦东新区日京路88号"}},{"type":"Feature","geometry":{"type":"Point","coordinates":[121.551406,31.168369]},"properties":{"published_address":"浦东新区北蔡镇联勤村冯桥南宅","geocoded_address":"上海市浦东新区联勤村"}},{"type":"Feature","geometry":{"type":"Point","coordinates":[121.556073,31.171023]},"properties":{"published_address":"浦东新区北蔡镇鹏飞路411弄6号","geocoded_address":"上海市浦东新区北蔡镇鹏飞路411弄6号"}},{"type":"Feature","geometry":{"type":"Point","coordinates":[121.622679,31.141287]},"properties":{"published_address":"浦东新区康桥镇苗桥路935弄19号","geocoded_address":"上海市浦东新区康桥镇苗桥路935弄"}},{"type":"Feature","geometry":{"type":"Point","coordinates":[121.559153,31.15801]},"properties":{"published_address":"浦东新区北蔡镇御北路235号","geocoded_address":"上海市浦东新区御北路"}},{"type":"Feature","geometry":{"type":"Point","coordinates":[121.330245,31.226634]},"properties":{"published_address":"闵行区华漕镇许浦村三队","geocoded_address":"上海市闵行区许浦村3队"}},{"type":"Feature","geometry":{"type":"Point","coordinates":[121.479018,31.211278]},"properties":{"published_address":"黄浦区打浦桥街道顺昌路612弄20号","geocoded_address":"上海市黄浦区顺昌路612弄|20号"}}]}