{"type":"FeatureCollection","features":[{"type":"Feature","geometry":{"type":"Point","coordinates":[121.409313,31.271582]},"properties":{"type":"medium","town":"普陀区","published_address":"万里街道新村路1717弄19号","geocoded_address":"上海市普陀区新村路1717弄|19号"}},{"type":"Feature","geometry":{"type":"Point","coordinates":[121.409061,31.271605]},"properties":{"type":"medium","town":"普陀区","published_address":"万里街道新村路1717弄21号","geocoded_address":"上海市普陀区新村路1717弄|21号"}},{"type":"Feature","geometry":{"type":"Point","coordinates":[121.40883,31.271646]},"properties":{"type":"medium","town":"普陀区","published_address":"万里街道新村路1717弄23号","geocoded_address":"上海市普陀区新村路1717弄|23号"}},{"type":"Feature","geometry":{"type":"Point","coordinates":[121.40999,31.29972]},"properties":{"type":"medium","town":"宝山区","published_address":"大场镇南大路12弄洛河桥小区","geocoded_address":"上海市宝山区南大路12弄"}},{"type":"Feature","geometry":{"type":"Point","coordinates":[121.767035,31.058038]},"properties":{"type":"high","town":"浦东新区","published_address":"惠南镇靖海路547弄","geocoded_address":"上海市浦东新区惠南镇靖海路547弄"}},{"type":"Feature","geometry":{"type":"Point","coordinates":[121.52979,31.129512]},"properties":{"type":"high","town":"浦东新区","published_address":"康桥镇秀沿西路258弄","geocoded_address":"上海市浦东新区康桥镇秀沿西路258弄"}},{"type":"Feature","geometry":{"type":"Point","coordinates":[121.4761,31.27418]},"properties":{"type":"high","town":"虹口区","published_address":"广中路街道广中支路26号","geocoded_address":"上海市虹口区广中支路|26"}}]}