{"type":"FeatureCollection","features":[{"type":"Feature","geometry":{"type":"Point","coordinates":[121.510702,31.19976]},"properties":{"type":"medium","town":"浦东新区","published_address":"南码头路街道胶南小区","geocoded_address":"上海市浦东新区胶南小区"}},{"type":"Feature","geometry":{"type":"Point","coordinates":[121.573876,31.236661]},"properties":{"type":"medium","town":"浦东新区","published_address":"花木街道碧云路199弄爱建园","geocoded_address":"上海市浦东新区爱建园"}},{"type":"Feature","geometry":{"type":"Point","coordinates":[121.558493,31.25448]},"properties":{"type":"medium","town":"浦东新区","published_address":"金杨新村街道罗山一村","geocoded_address":"上海市浦东新区罗山一村"}},{"type":"Feature","geometry":{"type":"Point","coordinates":[121.5647,31.21776]},"properties":{"type":"medium","town":"浦东新区","published_address":"花木街道花木路1883弄御翠园","geocoded_address":"上海市浦东新区御翠园"}},{"type":"Feature","geometry":{"type":"Point","coordinates":[121.690152,31.17225]},"properties":{"type":"medium","town":"浦东新区","published_address":"川沙新镇心圆西苑","geocoded_address":"上海市浦东新区心圆西苑"}},{"type":"Feature","geometry":{"type":"Point","coordinates":[121.464718,31.249919]},"properties":{"type":"medium","town":"静安区","published_address":"芷江西路街道虬江路1489-1499号","geocoded_address":"上海市静安区虬江路|1489"}},{"type":"Feature","geometry":{"type":"Point","coordinates":[121.446966,31.230887]},"properties":{"type":"medium","town":"静安区","published_address":"江宁路街道静安枫景苑","geocoded_address":"上海市静安区静安枫景苑"}},{"type":"Feature","geometry":{"type":"Point","coordinates":[121.442646,31.311434]},"properties":{"type":"medium","town":"静安区","published_address":"彭浦新村街道临汾路1244弄","geocoded_address":"上海市静安区彭浦新村街道临汾路1244弄"}},{"type":"Feature","geometry":{"type":"Point","coordinates":[121.471119,31.248945]},"properties":{"type":"medium","town":"静安区","published_address":"宝山路街道虬江路1150号局南村一支弄","geocoded_address":"上海市静安区虬江路|1150号"}},{"type":"Feature","geometry":{"type":"Point","coordinates":[121.468976,31.25999]},"properties":{"type":"medium","town":"静安区","published_address":"宝山路街道止园路383号","geocoded_address":"上海市静安区止园路|383"}},{"type":"Feature","geometry":{"type":"Point","coordinates":[121.44597,31.32317]},"properties":{"type":"medium","town":"静安区","published_address":"彭浦新村街道共康四村第二居民区北区","geocoded_address":"上海市宝山区第二居民区北区"}},{"type":"Feature","geometry":{"type":"Point","coordinates":[121.465644,31.317954]},"properties":{"type":"medium","town":"静安区","published_address":"临汾路街道江杨南路466弄22-23号","geocoded_address":"上海市静安区江杨南路466弄|22号|-23号"}},{"type":"Feature","geometry":{"type":"Point","coordinates":[121.468143,31.248294]},"properties":{"type":"medium","town":"静安区","published_address":"芷江西路街道新马路258弄","geocoded_address":"上海市静安区芷江西路新马路258弄"}},{"type":"Feature","geometry":{"type":"Point","coordinates":[121.450748,31.309338]},"properties":{"type":"medium","town":"静安区","published_address":"彭浦新村街道彭三小区二期","geocoded_address":"上海市静安区彭三小区"}},{"type":"Feature","geometry":{"type":"Point","coordinates":[121.399867,31.214525]},"properties":{"type":"medium","town":"长宁区","published_address":"天山路街道古北路181弄","geocoded_address":"上海市长宁区天山路街道古北路181弄"}},{"type":"Feature","geometry":{"type":"Point","coordinates":[121.400994,31.213911]},"properties":{"type":"medium","town":"长宁区","published_address":"天山路街道古北路211弄","geocoded_address":"上海市长宁区天山路街道古北路211弄"}},{"type":"Feature","geometry":{"type":"Point","coordinates":[121.39992,31.214683]},"properties":{"type":"medium","town":"长宁区","published_address":"天山路街道玉屏南路731弄2号","geocoded_address":"上海市长宁区天山路街道玉屏南路731弄2号"}},{"type":"Feature","geometry":{"type":"Point","coordinates":[121.400098,31.214733]},"properties":{"type":"medium","town":"长宁区","published_address":"天山路街道玉屏南路731弄4号","geocoded_address":"上海市长宁区玉屏南路731弄|4号"}},{"type":"Feature","geometry":{"type":"Point","coordinates":[121.397725,31.233468]},"properties":{"type":"medium","town":"普陀区","published_address":"长风新村街道长风二村风荷苑","geocoded_address":"上海市普陀区长风二村风荷苑"}},{"type":"Feature","geometry":{"type":"Point","coordinates":[121.469755,31.279537]},"properties":{"type":"medium","town":"虹口区","published_address":"广中路街道广中路460号","geocoded_address":"上海市虹口区广中路|460"}},{"type":"Feature","geometry":{"type":"Point","coordinates":[121.47637,31.280853]},"properties":{"type":"medium","town":"虹口区","published_address":"广中路街道水电路583弄","geocoded_address":"上海市虹口区广中路街道水电路583弄"}},{"type":"Feature","geometry":{"type":"Point","coordinates":[121.495277,31.283072]},"properties":{"type":"medium","town":"虹口区","published_address":"曲阳路街道密云路471弄","geocoded_address":"上海市虹口区曲阳路街道密云路471弄"}},{"type":"Feature","geometry":{"type":"Point","coordinates":[121.483373,31.287812]},"properties":{"type":"medium","town":"虹口区","published_address":"曲阳路街道中山北一路865弄","geocoded_address":"上海市虹口区曲阳路街道中山北一路865弄"}},{"type":"Feature","geometry":{"type":"Point","coordinates":[121.492507,31.272928]},"properties":{"type":"medium","town":"虹口区","published_address":"欧阳路街道天宝西路252弄","geocoded_address":"上海市虹口区欧阳路街道天宝西路252弄"}},{"type":"Feature","geometry":{"type":"Point","coordinates":[121.491935,31.290083]},"properties":{"type":"medium","town":"虹口区","published_address":"曲阳路街道曲阳路800号","geocoded_address":"上海市虹口区曲阳路街道曲阳路800号"}},{"type":"Feature","geometry":{"type":"Point","coordinates":[121.484299,31.262015]},"properties":{"type":"medium","town":"虹口区","published_address":"四川北路街道四川北路1906弄","geocoded_address":"上海市虹口区四川北路街道四川北路1906弄"}},{"type":"Feature","geometry":{"type":"Point","coordinates":[121.4881,31.258999]},"properties":{"type":"medium","town":"虹口区","published_address":"四川北路街道四平路95号","geocoded_address":"上海市虹口区四川北路街道四平路95号"}},{"type":"Feature","geometry":{"type":"Point","coordinates":[121.490979,31.252557]},"properties":{"type":"medium","town":"虹口区","published_address":"北外滩街道海宁路55号长治公寓","geocoded_address":"上海市虹口区长治公寓"}},{"type":"Feature","geometry":{"type":"Point","coordinates":[121.490157,31.271459]},"properties":{"type":"medium","town":"虹口区","published_address":"欧阳路街道祥德路274弄","geocoded_address":"上海市虹口区欧阳路街道祥德路274弄"}},{"type":"Feature","geometry":{"type":"Point","coordinates":[121.490964,31.291892]},"properties":{"type":"medium","town":"虹口区","published_address":"曲阳路街道曲阳路990弄","geocoded_address":"上海市虹口区曲阳路街道曲阳路990弄"}},{"type":"Feature","geometry":{"type":"Point","coordinates":[121.479036,31.265239]},"properties":{"type":"medium","town":"虹口区","published_address":"广中路街道宝山路888弄","geocoded_address":"上海市虹口区广中路街道宝山路888弄"}},{"type":"Feature","geometry":{"type":"Point","coordinates":[121.474461,31.313071]},"properties":{"type":"medium","town":"虹口区","published_address":"江湾镇街道虹湾路86弄","geocoded_address":"上海市虹口区江湾镇虹湾路86弄"}},{"type":"Feature","geometry":{"type":"Point","coordinates":[121.519191,31.288711]},"properties":{"type":"medium","town":"杨浦区","published_address":"五角场街道国权路29号","geocoded_address":"上海市杨浦区国权路|29号"}},{"type":"Feature","geometry":{"type":"Point","coordinates":[121.519799,31.270829]},"properties":{"type":"medium","town":"杨浦区","published_address":"江浦路街道江浦路1275弄","geocoded_address":"上海市杨浦区江浦路1275弄"}},{"type":"Feature","geometry":{"type":"Point","coordinates":[121.550249,31.268738]},"properties":{"type":"medium","town":"杨浦区","published_address":"定海路街道隆昌路88弄","geocoded_address":"上海市杨浦区定海路街道隆昌路88弄"}},{"type":"Feature","geometry":{"type":"Point","coordinates":[121.52352,31.252929]},"properties":{"type":"medium","town":"杨浦区","published_address":"平凉路街道通北路24号-36号","geocoded_address":"上海市杨浦区通北路|24号"}},{"type":"Feature","geometry":{"type":"Point","coordinates":[121.540575,31.289198]},"properties":{"type":"medium","town":"杨浦区","published_address":"延吉新村街道敦化路小区","geocoded_address":"上海市杨浦区延吉新村街道敦化路"}},{"type":"Feature","geometry":{"type":"Point","coordinates":[121.530016,31.275694]},"properties":{"type":"medium","town":"杨浦区","published_address":"控江路街道周家嘴路3055号","geocoded_address":"上海市杨浦区控江路街道周家嘴路3055号"}},{"type":"Feature","geometry":{"type":"Point","coordinates":[121.555402,31.283876]},"properties":{"type":"medium","town":"杨浦区","published_address":"定海路街道顺平路60弄","geocoded_address":"上海市杨浦区定海路街道顺平路60弄"}},{"type":"Feature","geometry":{"type":"Point","coordinates":[121.540204,31.274392]},"properties":{"type":"medium","town":"杨浦区","published_address":"大桥街道双阳支路28弄","geocoded_address":"上海市杨浦区大桥街道双阳支路28弄"}},{"type":"Feature","geometry":{"type":"Point","coordinates":[121.538845,31.266902]},"properties":{"type":"medium","town":"杨浦区","published_address":"大桥街道锦州湾路169弄","geocoded_address":"上海市杨浦区大桥街道锦州湾路169弄"}},{"type":"Feature","geometry":{"type":"Point","coordinates":[121.534576,31.25961]},"properties":{"type":"medium","town":"杨浦区","published_address":"大桥街道沈阳路148号","geocoded_address":"上海市杨浦区沈阳路|148号"}},{"type":"Feature","geometry":{"type":"Point","coordinates":[121.535341,31.260207]},"properties":{"type":"medium","town":"杨浦区","published_address":"大桥街道沈阳路150号","geocoded_address":"上海市杨浦区沈阳路|150号"}},{"type":"Feature","geometry":{"type":"Point","coordinates":[121.535264,31.260221]},"properties":{"type":"medium","town":"杨浦区","published_address":"大桥街道沈阳路152号","geocoded_address":"上海市杨浦区大桥街道沈阳路152号"}},{"type":"Feature","geometry":{"type":"Point","coordinates":[121.524898,31.28513]},"properties":{"type":"medium","town":"杨浦区","published_address":"控江路街道控江四村","geocoded_address":"上海市杨浦区控江四村"}},{"type":"Feature","geometry":{"type":"Point","coordinates":[121.521925,31.280328]},"properties":{"type":"medium","town":"杨浦区","published_address":"控江路街道延吉西路81弄1号","geocoded_address":"上海市杨浦区延吉西路81弄|1号"}},{"type":"Feature","geometry":{"type":"Point","coordinates":[121.521699,31.28022]},"properties":{"type":"medium","town":"杨浦区","published_address":"控江路街道延吉西路81弄2号","geocoded_address":"上海市杨浦区控江路街道延吉西路81弄2号"}},{"type":"Feature","geometry":{"type":"Point","coordinates":[121.521562,31.28015]},"properties":{"type":"medium","town":"杨浦区","published_address":"控江路街道延吉西路81弄5号","geocoded_address":"上海市杨浦区控江路街道延吉西路81弄5号"}},{"type":"Feature","geometry":{"type":"Point","coordinates":[121.539625,31.328877]},"properties":{"type":"medium","town":"杨浦区","published_address":"殷行街道殷行路296弄","geocoded_address":"上海市杨浦区殷行街道殷行路296弄"}},{"type":"Feature","geometry":{"type":"Point","coordinates":[121.479865,31.320906]},"properties":{"type":"medium","town":"宝山区","published_address":"高境镇殷高西路215号","geocoded_address":"上海市宝山区高境镇殷高西路215号"}},{"type":"Feature","geometry":{"type":"Point","coordinates":[121.382883,31.31162]},"properties":{"type":"medium","town":"宝山区","published_address":"大场镇上大路1329弄祁连三村","geocoded_address":"上海市宝山区祁连三村"}},{"type":"Feature","geometry":{"type":"Point","coordinates":[121.494249,31.31407]},"properties":{"type":"medium","town":"宝山区","published_address":"高境镇三门路485弄东区","geocoded_address":"上海市宝山区高境镇三门路485弄"}},{"type":"Feature","geometry":{"type":"Point","coordinates":[121.447644,31.322004]},"properties":{"type":"medium","town":"宝山区","published_address":"高境镇共和新路4739弄","geocoded_address":"上海市宝山区共和新路4739弄"}},{"type":"Feature","geometry":{"type":"Point","coordinates":[121.39717,31.360853]},"properties":{"type":"medium","town":"宝山区","published_address":"顾村镇宝荻路535弄青秀苑卓庭","geocoded_address":"上海市宝山区中铁建青秀苑"}},{"type":"Feature","geometry":{"type":"Point","coordinates":[121.423026,31.264293]},"properties":{"type":"medium","town":"宝山区","published_address":"大场镇涵青路100弄学府阳光","geocoded_address":"上海市普陀区学府阳光"}},{"type":"Feature","geometry":{"type":"Point","coordinates":[121.475323,31.317288]},"properties":{"type":"medium","town":"宝山区","published_address":"高境镇云西路168弄西区","geocoded_address":"上海市宝山区高境镇云西路168弄"}},{"type":"Feature","geometry":{"type":"Point","coordinates":[121.447523,31.329402]},"properties":{"type":"medium","town":"宝山区","published_address":"张庙街道共江路1169弄通河八村西块","geocoded_address":"上海市宝山区通河八村"}},{"type":"Feature","geometry":{"type":"Point","coordinates":[121.425306,31.328516]},"properties":{"type":"medium","town":"宝山区","published_address":"庙行镇大康路891弄共康雅苑二居B区","geocoded_address":"上海市宝山区共康雅苑"}},{"type":"Feature","geometry":{"type":"Point","coordinates":[121.491155,31.338221]},"properties":{"type":"medium","town":"宝山区","published_address":"淞南镇长逸路301弄新梅淞南苑居民区","geocoded_address":"上海市宝山区淞南镇长逸路301弄新梅淞南苑(东南门)"}},{"type":"Feature","geometry":{"type":"Point","coordinates":[121.494502,31.317118]},"properties":{"type":"medium","town":"宝山区","published_address":"高境镇国权北路290弄","geocoded_address":"上海市宝山区高境镇国权北路290弄"}},{"type":"Feature","geometry":{"type":"Point","coordinates":[121.489261,31.311993]},"properties":{"type":"medium","town":"宝山区","published_address":"高境镇三门路555弄","geocoded_address":"上海市宝山区高境镇三门路555弄"}},{"type":"Feature","geometry":{"type":"Point","coordinates":[121.33847,31.385902]},"properties":{"type":"medium","town":"宝山区","published_address":"罗店镇美平路745弄美罗家园宝欣苑二村","geocoded_address":"上海市宝山区宝欣苑"}},{"type":"Feature","geometry":{"type":"Point","coordinates":[121.470084,31.334804]},"properties":{"type":"medium","town":"宝山区","published_address":"淞南镇通南路368弄86号","geocoded_address":"上海市宝山区通南路368弄|86号"}},{"type":"Feature","geometry":{"type":"Point","coordinates":[121.425548,31.386923]},"properties":{"type":"medium","town":"宝山区","published_address":"杨行镇蕰川路2226号苏鑫仓库","geocoded_address":"上海市宝山区蕰川路|2226"}},{"type":"Feature","geometry":{"type":"Point","coordinates":[121.447326,31.320281]},"properties":{"type":"medium","town":"宝山区","published_address":"高境镇共和新路4719弄惠民公寓","geocoded_address":"上海市宝山区惠民公寓"}},{"type":"Feature","geometry":{"type":"Point","coordinates":[121.448701,31.318988]},"properties":{"type":"medium","town":"宝山区","published_address":"高境镇共和新路4703弄","geocoded_address":"上海市宝山区高境镇共和新路4703弄"}},{"type":"Feature","geometry":{"type":"Point","coordinates":[121.499156,31.401491]},"properties":{"type":"medium","town":"宝山区","published_address":"友谊路街道宝杨路250号宝杨市场","geocoded_address":"上海市宝山区宝杨市场"}},{"type":"Feature","geometry":{"type":"Point","coordinates":[121.481603,31.4041]},"properties":{"type":"medium","town":"宝山区","published_address":"友谊路街道密山路101号宝山市场","geocoded_address":"上海市宝山区宝山市场"}},{"type":"Feature","geometry":{"type":"Point","coordinates":[121.293223,31.221416]},"properties":{"type":"medium","town":"闵行区","published_address":"华漕镇开兴路199弄景雅苑","geocoded_address":"上海市闵行区景雅苑"}},{"type":"Feature","geometry":{"type":"Point","coordinates":[121.500284,31.106635]},"properties":{"type":"medium","town":"闵行区","published_address":"浦锦街道浦晓路112弄华侨城六期","geocoded_address":"上海市闵行区华侨城"}},{"type":"Feature","geometry":{"type":"Point","coordinates":[121.546167,31.67475]},"properties":{"type":"medium","town":"崇明区","published_address":"东平镇平悦路80弄瀛丰嘉苑","geocoded_address":"上海市崇明区瀛丰嘉苑"}},{"type":"Feature","geometry":{"type":"Point","coordinates":[121.645233,31.063329]},"properties":{"type":"high","town":"浦东新区","published_address":"新场镇申江南路5700号","geocoded_address":"上海市浦东新区申江南路|5700"}},{"type":"Feature","geometry":{"type":"Point","coordinates":[121.388062,31.290925]},"properties":{"type":"high","town":"普陀区","published_address":"桃浦镇连亮路111弄","geocoded_address":"上海市普陀区连亮路111弄"}},{"type":"Feature","geometry":{"type":"Point","coordinates":[121.487782,31.25776]},"properties":{"type":"high","town":"虹口区","published_address":"四川北路街道四平路59号","geocoded_address":"上海市虹口区四川北路街道四平路59号"}},{"type":"Feature","geometry":{"type":"Point","coordinates":[121.509821,31.303988]},"properties":{"type":"high","town":"杨浦区","published_address":"五角场街道大学路","geocoded_address":"上海市杨浦区大学路"}},{"type":"Feature","geometry":{"type":"Point","coordinates":[121.481793,31.334987]},"properties":{"type":"high","town":"宝山区","published_address":"淞南镇淞南八村","geocoded_address":"上海市宝山区淞南八村"}},{"type":"Feature","geometry":{"type":"Point","coordinates":[121.493486,31.401912]},"properties":{"type":"high","town":"宝山区","published_address":"友谊路街道宝林路宝林三村","geocoded_address":"上海市宝山区宝林三村"}},{"type":"Feature","geometry":{"type":"Point","coordinates":[121.317814,31.109308]},"properties":{"type":"high","town":"松江区","published_address":"九亭镇同利路19-59号","geocoded_address":"上海市松江区同利路|19号"}},{"type":"Feature","geometry":{"type":"Point","coordinates":[121.317019,31.109457]},"properties":{"type":"high","town":"松江区","published_address":"九亭镇同利路36-68号","geocoded_address":"上海市松江区同利路|36号"}}]}