{"type":"FeatureCollection","features":[{"type":"Feature","geometry":{"type":"Point","coordinates":[121.49604,31.288]},"properties":{"published_address":"虹口区江湾镇街道池沟路60弄小区","geocoded_address":"上海市虹口区60弄小区"}},{"type":"Feature","geometry":{"type":"Point","coordinates":[121.50688,31.254752]},"properties":{"published_address":"虹口区北外滩街道昆明路56号","geocoded_address":"上海市虹口区昆明路|56"}},{"type":"Feature","geometry":{"type":"Point","coordinates":[121.456028,31.218306]},"properties":{"published_address":"徐汇区湖南路街道新乐路58弄","geocoded_address":"上海市徐汇区新乐路58弄"}},{"type":"Feature","geometry":{"type":"Point","coordinates":[121.416721,31.286835]},"properties":{"published_address":"宝山区大场镇乾溪一村小区","geocoded_address":"上海市宝山区大场镇"}},{"type":"Feature","geometry":{"type":"Point","coordinates":[121.425261,31.360868]},"properties":{"published_address":"宝山区杨行镇蕰川路1498弄","geocoded_address":"上海市宝山区蕰川路1498弄"}},{"type":"Feature","geometry":{"type":"Point","coordinates":[121.37295,31.360813]},"properties":{"published_address":"黄浦区瑞金二路街道13街坊","geocoded_address":"上海市宝山区馨家园13街坊"}},{"type":"Feature","geometry":{"type":"Point","coordinates":[121.43573,31.226361]},"properties":{"published_address":"静安区曹家渡街道武定西路1189号","geocoded_address":"上海市静安区曹家渡街道武定西路1189号"}},{"type":"Feature","geometry":{"type":"Point","coordinates":[121.454844,31.256438]},"properties":{"published_address":"静安区天目西路街道芷江西路593弄","geocoded_address":"上海市静安区天目西路街道芷江西路593弄"}},{"type":"Feature","geometry":{"type":"Point","coordinates":[121.46665,31.041281]},"properties":{"published_address":"闵行区吴泾镇剑川路165号","geocoded_address":"上海市闵行区吴泾镇剑川路165号"}},{"type":"Feature","geometry":{"type":"Point","coordinates":[121.555815,31.22565]},"properties":{"published_address":"浦东新区花木街道丁香路910弄","geocoded_address":"上海市浦东新区花木街道丁香路910弄"}},{"type":"Feature","geometry":{"type":"Point","coordinates":[121.76146,31.05088]},"properties":{"published_address":"浦东新区惠南镇梅花新邨","geocoded_address":"上海市浦东新区梅花新邨"}},{"type":"Feature","geometry":{"type":"Point","coordinates":[121.559255,31.212756]},"properties":{"published_address":"浦东新区花木街道银霄路39弄","geocoded_address":"上海市浦东新区花木街道银霄路39弄"}},{"type":"Feature","geometry":{"type":"Point","coordinates":[121.205715,31.041095]},"properties":{"published_address":"松江区方松街道滨湖路585弄","geocoded_address":"上海市松江区滨湖路585弄"}},{"type":"Feature","geometry":{"type":"Point","coordinates":[121.25944,31.40798]},"properties":{"published_address":"嘉定区菊园新区永靖路898弄北区","geocoded_address":"上海市嘉定区菊园新区永靖路898弄"}}]}