{"type":"FeatureCollection","features":[{"type":"Feature","geometry":{"type":"Point","coordinates":[121.454572,31.118048]},"properties":{"type":"medium","town":"徐汇区","published_address":"华泾镇龙吟路67号","geocoded_address":"上海市徐汇区华泾镇龙吟路67号"}},{"type":"Feature","geometry":{"type":"Point","coordinates":[121.321969,31.459869]},"properties":{"type":"medium","town":"虹口区","published_address":"广中路街道何家宅","geocoded_address":"上海市宝山区何家宅"}},{"type":"Feature","geometry":{"type":"Point","coordinates":[121.488458,31.262269]},"properties":{"type":"medium","town":"虹口区","published_address":"四川北路街道溧阳路1155号","geocoded_address":"上海市虹口区四川北路街道溧阳路1155号"}},{"type":"Feature","geometry":{"type":"Point","coordinates":[121.4739,31.043881]},"properties":{"type":"medium","town":"闵行区","published_address":"吴泾镇通海路360弄","geocoded_address":"上海市闵行区吴泾镇通海路360弄"}},{"type":"Feature","geometry":{"type":"Point","coordinates":[121.201363,31.152093]},"properties":{"type":"medium","town":"青浦区","published_address":"赵巷镇赵华路301弄","geocoded_address":"上海市青浦区赵巷镇赵华路301弄"}},{"type":"Feature","geometry":{"type":"Point","coordinates":[121.409313,31.271582]},"properties":{"type":"high","town":"普陀区","published_address":"万里街道新村路1717弄19号","geocoded_address":"上海市普陀区新村路1717弄|19号"}},{"type":"Feature","geometry":{"type":"Point","coordinates":[121.409061,31.271605]},"properties":{"type":"high","town":"普陀区","published_address":"万里街道新村路1717弄21号","geocoded_address":"上海市普陀区新村路1717弄|21号"}},{"type":"Feature","geometry":{"type":"Point","coordinates":[121.40883,31.271646]},"properties":{"type":"high","town":"普陀区","published_address":"万里街道新村路1717弄23号","geocoded_address":"上海市普陀区新村路1717弄|23号"}},{"type":"Feature","geometry":{"type":"Point","coordinates":[121.4761,31.27418]},"properties":{"type":"high","town":"虹口区","published_address":"广中路街道广中支路26号","geocoded_address":"上海市虹口区广中支路|26"}},{"type":"Feature","geometry":{"type":"Point","coordinates":[121.441282,31.081499]},"properties":{"type":"high","town":"闵行区","published_address":"梅陇镇澄江路1290号","geocoded_address":"上海市闵行区梅陇镇澄江路1290号"}},{"type":"Feature","geometry":{"type":"Point","coordinates":[121.397753,31.14412]},"properties":{"type":"high","town":"闵行区","published_address":"古美路街道万源路580弄万源城尚郡","geocoded_address":"上海市闵行区万源城尚郡"}}]}