{"type":"FeatureCollection","features":[{"type":"Feature","geometry":{"type":"Point","coordinates":[121.397123,31.165575]},"properties":{"type":"medium","town":"徐汇区","published_address":"虹梅路街道田林路397号B栋","geocoded_address":"上海市徐汇区虹梅路街道田林路397号"}},{"type":"Feature","geometry":{"type":"Point","coordinates":[121.441693,31.255125]},"properties":{"type":"medium","town":"普陀区","published_address":"宜川路街道远景路616号","geocoded_address":"上海市普陀区远景路|616号"}},{"type":"Feature","geometry":{"type":"Point","coordinates":[121.457961,31.247992]},"properties":{"type":"high","town":"静安区","published_address":"天目西路街道秣陵路83号","geocoded_address":"上海市静安区秣陵路|83"}},{"type":"Feature","geometry":{"type":"Point","coordinates":[121.38844,31.168079]},"properties":{"type":"high","town":"闵行区","published_address":"虹桥镇宜山路1888号","geocoded_address":"上海市闵行区虹桥镇宜山路1888号"}},{"type":"Feature","geometry":{"type":"Point","coordinates":[121.386932,31.166284]},"properties":{"type":"high","town":"闵行区","published_address":"虹桥镇宜山路1999号","geocoded_address":"上海市闵行区虹桥镇宜山路1999号"}},{"type":"Feature","geometry":{"type":"Point","coordinates":[121.384443,31.171983]},"properties":{"type":"high","town":"闵行区","published_address":"虹桥镇万源路2289弄万源新城","geocoded_address":"上海市闵行区万源新城"}}]}