{"type":"FeatureCollection","features":[{"type":"Feature","geometry":{"type":"Point","coordinates":[121.511458,31.229321]},"properties":{"type":"medium","town":"浦东新区","published_address":"陆家嘴街道商城路357号","geocoded_address":"上海市浦东新区商城路|357号"}},{"type":"Feature","geometry":{"type":"Point","coordinates":[121.567794,31.112088]},"properties":{"type":"medium","town":"浦东新区","published_address":"周浦镇里仁村13组","geocoded_address":"上海市浦东新区里仁村"}},{"type":"Feature","geometry":{"type":"Point","coordinates":[121.750534,31.178803]},"properties":{"type":"medium","town":"浦东新区","published_address":"祝桥镇晚霞路551弄晨阳小区","geocoded_address":"上海市浦东新区晨阳小区"}},{"type":"Feature","geometry":{"type":"Point","coordinates":[121.616058,31.265794]},"properties":{"type":"medium","town":"浦东新区","published_address":"金桥镇永业路188弄","geocoded_address":"上海市浦东新区金桥镇永业路188弄"}},{"type":"Feature","geometry":{"type":"Point","coordinates":[121.615781,31.267454]},"properties":{"type":"medium","town":"浦东新区","published_address":"金桥镇永业路218弄","geocoded_address":"上海市浦东新区金桥镇永业路218弄"}},{"type":"Feature","geometry":{"type":"Point","coordinates":[121.427364,31.252165]},"properties":{"type":"medium","town":"普陀区","published_address":"石泉路街道石泉一村","geocoded_address":"上海市普陀区石泉一村"}},{"type":"Feature","geometry":{"type":"Point","coordinates":[121.395829,31.231078]},"properties":{"type":"medium","town":"普陀区","published_address":"长风新村街道金沙江路895弄","geocoded_address":"上海市普陀区长风新村街道金沙江路895弄"}},{"type":"Feature","geometry":{"type":"Point","coordinates":[121.39869,31.004439]},"properties":{"type":"medium","town":"闵行区","published_address":"江川路街道华宁路111号","geocoded_address":"上海市闵行区华宁路|111号"}},{"type":"Feature","geometry":{"type":"Point","coordinates":[121.305388,31.312999]},"properties":{"type":"medium","town":"嘉定区","published_address":"南翔镇瑞林路1280弄湖畔名邸一期","geocoded_address":"上海市嘉定区湖畔名邸"}}]}