{"type":"FeatureCollection","features":[{"type":"Feature","geometry":{"type":"Point","coordinates":[121.582142,31.267011]},"properties":{"type":"medium","town":"浦东新区","published_address":"沪东新村街道朱家门","geocoded_address":"上海市浦东新区沪东新村街道"}},{"type":"Feature","geometry":{"type":"Point","coordinates":[121.5954,31.259611]},"properties":{"type":"medium","town":"浦东新区","published_address":"浦兴路街道金桥湾清水苑","geocoded_address":"上海市浦东新区清水苑"}},{"type":"Feature","geometry":{"type":"Point","coordinates":[121.456787,31.291393]},"properties":{"type":"medium","town":"静安区","published_address":"大宁路街道广延路1199弄","geocoded_address":"上海市静安区大宁路街道广延路1199弄"}},{"type":"Feature","geometry":{"type":"Point","coordinates":[121.4799,31.246584]},"properties":{"type":"medium","town":"静安区","published_address":"北站街道山西北路388弄","geocoded_address":"上海市静安区北站街道山西北路388弄"}},{"type":"Feature","geometry":{"type":"Point","coordinates":[121.458184,31.259443]},"properties":{"type":"medium","town":"静安区","published_address":"芷江西路街道中山北路814弄","geocoded_address":"上海市静安区芷江西路街道中山北路814弄"}},{"type":"Feature","geometry":{"type":"Point","coordinates":[121.49241,31.272504]},"properties":{"type":"medium","town":"虹口区","published_address":"欧阳路街道天宝第二小区","geocoded_address":"上海市虹口区第二小区"}},{"type":"Feature","geometry":{"type":"Point","coordinates":[121.497317,31.27346]},"properties":{"type":"medium","town":"虹口区","published_address":"欧阳路街道四平路幸福村","geocoded_address":"上海市虹口区幸福村"}},{"type":"Feature","geometry":{"type":"Point","coordinates":[121.496386,31.273383]},"properties":{"type":"medium","town":"虹口区","published_address":"欧阳路街道密云路250弄","geocoded_address":"上海市虹口区欧阳路街道密云路250弄"}},{"type":"Feature","geometry":{"type":"Point","coordinates":[121.529997,31.284596]},"properties":{"type":"medium","town":"杨浦区","published_address":"控江路街道控江六村","geocoded_address":"上海市杨浦区控江六村"}},{"type":"Feature","geometry":{"type":"Point","coordinates":[121.54481,31.290165]},"properties":{"type":"medium","town":"杨浦区","published_address":"长白新村街道安图路18弄益晖新苑","geocoded_address":"上海市杨浦区益晖新苑"}},{"type":"Feature","geometry":{"type":"Point","coordinates":[121.545539,31.295377]},"properties":{"type":"medium","town":"杨浦区","published_address":"长白新村街道延吉东路115弄","geocoded_address":"上海市杨浦区长白新村街道延吉东路115弄"}},{"type":"Feature","geometry":{"type":"Point","coordinates":[121.52484,31.298682]},"properties":{"type":"medium","town":"杨浦区","published_address":"长海路街道双阳北路395弄","geocoded_address":"上海市杨浦区长海路街道双阳北路395弄"}},{"type":"Feature","geometry":{"type":"Point","coordinates":[121.543462,31.29613]},"properties":{"type":"medium","town":"杨浦区","published_address":"长白新村街道延吉东路1弄","geocoded_address":"上海市杨浦区延吉东路1弄"}},{"type":"Feature","geometry":{"type":"Point","coordinates":[121.543297,31.295583]},"properties":{"type":"medium","town":"杨浦区","published_address":"长白新村街道延吉东路5弄","geocoded_address":"上海市杨浦区长白新村街道延吉东路5弄"}},{"type":"Feature","geometry":{"type":"Point","coordinates":[121.54116,31.290296]},"properties":{"type":"medium","town":"杨浦区","published_address":"长白新村街道安图新村","geocoded_address":"上海市杨浦区安图新村"}},{"type":"Feature","geometry":{"type":"Point","coordinates":[121.540707,31.290435]},"properties":{"type":"medium","town":"杨浦区","published_address":"长白新村街道靖宇东路85弄","geocoded_address":"上海市杨浦区长白新村街道靖宇东路85弄"}},{"type":"Feature","geometry":{"type":"Point","coordinates":[121.543555,31.294453]},"properties":{"type":"medium","town":"杨浦区","published_address":"长白新村街道长白二村","geocoded_address":"上海市杨浦区长白二村"}},{"type":"Feature","geometry":{"type":"Point","coordinates":[121.423026,31.264293]},"properties":{"type":"medium","town":"宝山区","published_address":"大场镇涵青路100弄学府阳光","geocoded_address":"上海市普陀区学府阳光"}},{"type":"Feature","geometry":{"type":"Point","coordinates":[121.445234,31.330689]},"properties":{"type":"medium","town":"宝山区","published_address":"张庙街道通河四村","geocoded_address":"上海市宝山区通河四村"}},{"type":"Feature","geometry":{"type":"Point","coordinates":[121.398926,31.289518]},"properties":{"type":"medium","town":"宝山区","published_address":"大场镇真大路358弄欧泊花郡","geocoded_address":"上海市宝山区欧泊花郡"}},{"type":"Feature","geometry":{"type":"Point","coordinates":[121.461522,31.342461]},"properties":{"type":"medium","town":"宝山区","published_address":"淞南镇江杨南路2058号","geocoded_address":"上海市宝山区淞南镇江杨南路2058号"}},{"type":"Feature","geometry":{"type":"Point","coordinates":[121.454867,31.322037]},"properties":{"type":"medium","town":"宝山区","published_address":"高境镇岭南家园","geocoded_address":"上海市宝山区岭南家园"}},{"type":"Feature","geometry":{"type":"Point","coordinates":[121.37901,31.106573]},"properties":{"type":"medium","town":"闵行区","published_address":"莘庄镇莘东路100号自由公寓","geocoded_address":"上海市闵行区自由公寓"}},{"type":"Feature","geometry":{"type":"Point","coordinates":[121.408106,31.143982]},"properties":{"type":"medium","town":"闵行区","published_address":"古美路街道平阳路50弄","geocoded_address":"上海市闵行区古美路街道平阳路50弄"}},{"type":"Feature","geometry":{"type":"Point","coordinates":[121.191322,30.828554]},"properties":{"type":"medium","town":"金山区","published_address":"吕巷镇荡田村戚埭18组","geocoded_address":"上海市金山区荡田村"}},{"type":"Feature","geometry":{"type":"Point","coordinates":[121.191322,30.828554]},"properties":{"type":"medium","town":"金山区","published_address":"吕巷镇荡田村戚埭28组","geocoded_address":"上海市金山区荡田村"}},{"type":"Feature","geometry":{"type":"Point","coordinates":[121.174844,30.825954]},"properties":{"type":"medium","town":"金山区","published_address":"吕巷镇璜溪西街21-84号","geocoded_address":"上海市金山区璜溪西街|21号"}},{"type":"Feature","geometry":{"type":"Point","coordinates":[121.316261,31.044919]},"properties":{"type":"medium","town":"松江区","published_address":"新桥镇新飞路1751弄晨星东区","geocoded_address":"上海市松江区晨星东区"}}]}