{"type":"FeatureCollection","features":[{"type":"Feature","geometry":{"type":"Point","coordinates":[121.706683,31.197161]},"properties":{"type":"medium","town":"浦东新区","published_address":"川沙新镇东河浜路10号26栋","geocoded_address":"上海市浦东新区川沙新镇东河浜路10号"}},{"type":"Feature","geometry":{"type":"Point","coordinates":[121.555778,31.181478]},"properties":{"type":"medium","town":"浦东新区","published_address":"北蔡镇沪南路1097号","geocoded_address":"上海市浦东新区北蔡镇沪南路1097号"}},{"type":"Feature","geometry":{"type":"Point","coordinates":[121.55988,31.249668]},"properties":{"type":"medium","town":"浦东新区","published_address":"金杨新村街道罗山四村南区","geocoded_address":"上海市浦东新区罗山四村南区"}},{"type":"Feature","geometry":{"type":"Point","coordinates":[121.588139,31.243889]},"properties":{"type":"medium","town":"浦东新区","published_address":"金桥镇红枫路108弄3-9号","geocoded_address":"上海市浦东新区金桥镇红枫路108弄3-8号"}},{"type":"Feature","geometry":{"type":"Point","coordinates":[121.672462,31.28271]},"properties":{"type":"medium","town":"浦东新区","published_address":"曹路镇海鸣路98弄中虹家园","geocoded_address":"上海市浦东新区中虹家园"}},{"type":"Feature","geometry":{"type":"Point","coordinates":[121.466306,31.223069]},"properties":{"type":"medium","town":"黄浦区","published_address":"瑞金二路街道巨鹿路158-168号","geocoded_address":"上海市黄浦区瑞金二路街道巨鹿路158-168号"}},{"type":"Feature","geometry":{"type":"Point","coordinates":[121.47102,31.204351]},"properties":{"type":"medium","town":"黄浦区","published_address":"打浦桥街道打浦路15号","geocoded_address":"上海市黄浦区打浦桥街道打浦路15号"}},{"type":"Feature","geometry":{"type":"Point","coordinates":[121.469043,31.204359]},"properties":{"type":"medium","town":"黄浦区","published_address":"打浦桥街道打浦路38弄海华花园","geocoded_address":"上海市黄浦区海华花园"}},{"type":"Feature","geometry":{"type":"Point","coordinates":[121.470892,31.204966]},"properties":{"type":"medium","town":"黄浦区","published_address":"打浦桥街道打浦路1号","geocoded_address":"上海市黄浦区打浦桥街道打浦路1号"}},{"type":"Feature","geometry":{"type":"Point","coordinates":[121.444808,31.239794]},"properties":{"type":"medium","town":"静安区","published_address":"江宁路街道陕西北路1155弄","geocoded_address":"上海市静安区江宁路街道陕西北路1155弄"}},{"type":"Feature","geometry":{"type":"Point","coordinates":[121.442768,31.305995]},"properties":{"type":"medium","town":"静安区","published_address":"彭浦新村街道场中路2471弄","geocoded_address":"上海市静安区彭浦新村街道场中路2471弄"}},{"type":"Feature","geometry":{"type":"Point","coordinates":[121.460693,31.252058]},"properties":{"type":"medium","town":"静安区","published_address":"芷江西路街道三兴大楼","geocoded_address":"上海市静安区三兴大楼"}},{"type":"Feature","geometry":{"type":"Point","coordinates":[121.436683,31.217415]},"properties":{"type":"medium","town":"长宁区","published_address":"江苏路街道延安西路488号","geocoded_address":"上海市长宁区延安西路|488"}},{"type":"Feature","geometry":{"type":"Point","coordinates":[121.432091,31.201354]},"properties":{"type":"medium","town":"长宁区","published_address":"新华路街道新华路24号","geocoded_address":"上海市长宁区新华路|24"}},{"type":"Feature","geometry":{"type":"Point","coordinates":[121.391238,31.210194]},"properties":{"type":"medium","town":"长宁区","published_address":"仙霞新村街道茅台路364弄","geocoded_address":"上海市长宁区茅台路"}},{"type":"Feature","geometry":{"type":"Point","coordinates":[121.404776,31.240023]},"properties":{"type":"medium","town":"普陀区","published_address":"曹杨新村街道兰溪路锐思特酒店","geocoded_address":"上海市普陀区曹杨新村街道兰溪路锐思特酒店(上海普陀中心医院华师大兰溪路店)"}},{"type":"Feature","geometry":{"type":"Point","coordinates":[121.447276,31.260128]},"properties":{"type":"medium","town":"普陀区","published_address":"宜川路街道泰山一村","geocoded_address":"上海市普陀区泰山一村"}},{"type":"Feature","geometry":{"type":"Point","coordinates":[121.359268,31.231874]},"properties":{"type":"medium","town":"普陀区","published_address":"长征镇丁香苑","geocoded_address":"上海市普陀区建德花园丁香苑"}},{"type":"Feature","geometry":{"type":"Point","coordinates":[121.419844,31.256949]},"properties":{"type":"medium","town":"普陀区","published_address":"石泉路街道品尊国际公寓","geocoded_address":"上海市普陀区品尊国际公寓"}},{"type":"Feature","geometry":{"type":"Point","coordinates":[121.430499,31.24748]},"properties":{"type":"medium","town":"普陀区","published_address":"长寿路街道中山北路2088号","geocoded_address":"上海市普陀区中山北路|2088"}},{"type":"Feature","geometry":{"type":"Point","coordinates":[121.448834,31.254822]},"properties":{"type":"medium","town":"普陀区","published_address":"宜川路街道嘉华苑","geocoded_address":"上海市普陀区嘉华苑"}},{"type":"Feature","geometry":{"type":"Point","coordinates":[121.49956,31.26365]},"properties":{"type":"medium","town":"虹口区","published_address":"嘉兴路街道瑞虹路233弄","geocoded_address":"上海市虹口区233弄"}},{"type":"Feature","geometry":{"type":"Point","coordinates":[121.531552,31.298922]},"properties":{"type":"medium","town":"杨浦区","published_address":"长海路街道营口路789弄","geocoded_address":"上海市杨浦区长海路街道营口路789弄"}},{"type":"Feature","geometry":{"type":"Point","coordinates":[121.529306,31.285658]},"properties":{"type":"medium","town":"杨浦区","published_address":"控江路街道靖宇中路58弄","geocoded_address":"上海市杨浦区控江路街道靖宇中路58弄"}},{"type":"Feature","geometry":{"type":"Point","coordinates":[121.529739,31.334607]},"properties":{"type":"medium","town":"杨浦区","published_address":"殷行街道闸殷路81弄","geocoded_address":"上海市杨浦区闸殷路81弄"}},{"type":"Feature","geometry":{"type":"Point","coordinates":[121.411561,31.352852]},"properties":{"type":"medium","town":"宝山区","published_address":"顾村镇盛宅一村","geocoded_address":"上海市宝山区盛宅一村"}},{"type":"Feature","geometry":{"type":"Point","coordinates":[121.426531,31.300762]},"properties":{"type":"medium","town":"宝山区","published_address":"大场镇场中路3658弄美好家","geocoded_address":"上海市宝山区美好家"}},{"type":"Feature","geometry":{"type":"Point","coordinates":[121.430622,31.334516]},"properties":{"type":"medium","town":"宝山区","published_address":"庙行镇场北路399弄","geocoded_address":"上海市宝山区庙行镇场北路399弄"}},{"type":"Feature","geometry":{"type":"Point","coordinates":[121.489885,31.333055]},"properties":{"type":"medium","town":"宝山区","published_address":"淞南镇长江南路99弄3号","geocoded_address":"上海市宝山区淞南镇长江南路99弄3号楼"}},{"type":"Feature","geometry":{"type":"Point","coordinates":[121.468411,31.399348]},"properties":{"type":"medium","town":"宝山区","published_address":"杨行镇友谊路1000弄","geocoded_address":"上海市宝山区杨行镇友谊路1000弄"}},{"type":"Feature","geometry":{"type":"Point","coordinates":[121.378544,31.325311]},"properties":{"type":"medium","town":"宝山区","published_address":"大场镇保利叶之林","geocoded_address":"上海市宝山区保利叶之林"}},{"type":"Feature","geometry":{"type":"Point","coordinates":[121.422274,31.271111]},"properties":{"type":"medium","town":"宝山区","published_address":"大场镇南华苑","geocoded_address":"上海市宝山区南华苑"}},{"type":"Feature","geometry":{"type":"Point","coordinates":[121.434796,31.012112]},"properties":{"type":"medium","town":"闵行区","published_address":"江川路街道永平南路198弄东苑佳和园","geocoded_address":"上海市闵行区东苑佳和园"}},{"type":"Feature","geometry":{"type":"Point","coordinates":[121.394497,31.045698]},"properties":{"type":"medium","town":"闵行区","published_address":"莘庄工业区中春路1299号","geocoded_address":"上海市闵行区莘庄中春路1299号"}},{"type":"Feature","geometry":{"type":"Point","coordinates":[121.465798,31.025979]},"properties":{"type":"medium","town":"闵行区","published_address":"吴泾镇东川路333弄紫竹半岛","geocoded_address":"上海市闵行区紫竹半岛"}},{"type":"Feature","geometry":{"type":"Point","coordinates":[121.402449,31.039876]},"properties":{"type":"medium","town":"闵行区","published_address":"颛桥镇北松公路489号蹦床乐园","geocoded_address":"上海市闵行区颛桥镇北松公路489号"}},{"type":"Feature","geometry":{"type":"Point","coordinates":[121.378196,31.163877]},"properties":{"type":"medium","town":"闵行区","published_address":"七宝镇漕宝路1555弄大上海国际花园","geocoded_address":"上海市闵行区大上海国际花园"}},{"type":"Feature","geometry":{"type":"Point","coordinates":[121.309013,31.237155]},"properties":{"type":"medium","town":"嘉定区","published_address":"江桥镇金耀南路299弄绿地新江桥城西区","geocoded_address":"上海市嘉定区绿地新江桥城西区"}},{"type":"Feature","geometry":{"type":"Point","coordinates":[121.317605,31.241474]},"properties":{"type":"medium","town":"嘉定区","published_address":"江桥镇金园一路1359弄缘圆宝邸北区","geocoded_address":"上海市嘉定区缘圆宝邸"}},{"type":"Feature","geometry":{"type":"Point","coordinates":[121.305534,31.15005]},"properties":{"type":"medium","town":"松江区","published_address":"九里亭街道涞坊路1010弄","geocoded_address":"上海市松江区九里亭街道涞坊路1010弄"}},{"type":"Feature","geometry":{"type":"Point","coordinates":[121.303785,31.148148]},"properties":{"type":"medium","town":"松江区","published_address":"九里亭街道涞坊路1053号","geocoded_address":"上海市松江区涞坊路|1053号"}},{"type":"Feature","geometry":{"type":"Point","coordinates":[121.182121,31.192229]},"properties":{"type":"medium","town":"青浦区","published_address":"重固镇大街518弄逸皓华庭","geocoded_address":"上海市青浦区逸皓华庭"}},{"type":"Feature","geometry":{"type":"Point","coordinates":[121.110633,31.141264]},"properties":{"type":"medium","town":"青浦区","published_address":"盈浦街道老朱青路41弄","geocoded_address":"上海市青浦区盈浦街道老朱青路41弄"}},{"type":"Feature","geometry":{"type":"Point","coordinates":[121.317605,31.241474]},"properties":{"type":"high","town":"嘉定区","published_address":"江桥镇金园一路1359弄缘圆宝邸南区","geocoded_address":"上海市嘉定区缘圆宝邸"}}]}