{"type":"FeatureCollection","features":[{"type":"Feature","geometry":{"type":"Point","coordinates":[121.471411,31.254151]},"properties":{"type":"medium","town":"静安区","published_address":"宝山路街道中兴路726号","geocoded_address":"上海市虹口区中兴路|726"}},{"type":"Feature","geometry":{"type":"Point","coordinates":[121.448639,31.240614]},"properties":{"type":"medium","town":"静安区","published_address":"江宁路街道海防路100弄","geocoded_address":"上海市静安区江宁路街道海防路100弄"}},{"type":"Feature","geometry":{"type":"Point","coordinates":[121.379969,31.259958]},"properties":{"type":"medium","town":"普陀区","published_address":"桃浦镇昆仑花苑桃浦路1149弄","geocoded_address":"上海市普陀区昆仑花苑"}},{"type":"Feature","geometry":{"type":"Point","coordinates":[121.446551,31.243052]},"properties":{"type":"medium","town":"普陀区","published_address":"长寿路街道昌化路780弄新锦绣里","geocoded_address":"上海市普陀区长寿路街道昌化路780弄"}},{"type":"Feature","geometry":{"type":"Point","coordinates":[121.515594,31.31167]},"properties":{"type":"medium","town":"杨浦区","published_address":"长海路街道三门路11弄","geocoded_address":"上海市杨浦区长海路街道三门路11弄"}},{"type":"Feature","geometry":{"type":"Point","coordinates":[121.516647,31.269365]},"properties":{"type":"medium","town":"杨浦区","published_address":"江浦路街道张家浜小区","geocoded_address":"上海市杨浦区张家浜小区"}},{"type":"Feature","geometry":{"type":"Point","coordinates":[121.498386,31.283561]},"properties":{"type":"medium","town":"杨浦区","published_address":"四平路街道赤峰路200号","geocoded_address":"上海市虹口区赤峰路|200"}},{"type":"Feature","geometry":{"type":"Point","coordinates":[121.527552,31.267749]},"properties":{"type":"medium","town":"杨浦区","published_address":"大桥街道长阳路1315弄","geocoded_address":"上海市杨浦区大桥街道长阳路1315弄"}},{"type":"Feature","geometry":{"type":"Point","coordinates":[121.385561,31.108555]},"properties":{"type":"medium","town":"闵行区","published_address":"莘庄镇莘朱路222弄江南苑","geocoded_address":"上海市闵行区江南苑"}},{"type":"Feature","geometry":{"type":"Point","coordinates":[121.390547,31.130733]},"properties":{"type":"medium","town":"闵行区","published_address":"古美路街道古美西路631弄","geocoded_address":"上海市闵行区古美路街道古美西路631弄"}},{"type":"Feature","geometry":{"type":"Point","coordinates":[121.32313,30.878964]},"properties":{"type":"medium","town":"金山区","published_address":"亭林镇东新村13组","geocoded_address":"上海市金山区东新村"}},{"type":"Feature","geometry":{"type":"Point","coordinates":[121.503978,31.222209]},"properties":{"type":"medium","town":"金山区","published_address":"复兴东路2号","geocoded_address":"上海市黄浦区复兴东路2号"}},{"type":"Feature","geometry":{"type":"Point","coordinates":[121.32179,30.881215]},"properties":{"type":"medium","town":"金山区","published_address":"南亭公路6328号","geocoded_address":"上海市金山区南亭公路6328号"}},{"type":"Feature","geometry":{"type":"Point","coordinates":[121.321438,30.880813]},"properties":{"type":"medium","town":"金山区","published_address":"南亭公路6455-6497号","geocoded_address":"上海市奉贤区南亭公路|6455号"}},{"type":"Feature","geometry":{"type":"Point","coordinates":[121.319157,30.882864]},"properties":{"type":"medium","town":"金山区","published_address":"桃贤路6-28号","geocoded_address":"上海市金山区桃贤路"}}]}