{"type":"FeatureCollection","features":[{"type":"Feature","geometry":{"type":"Point","coordinates":[121.511458,31.229321]},"properties":{"type":"medium","town":"浦东新区","published_address":"陆家嘴街道商城路357号","geocoded_address":"上海市浦东新区商城路|357号"}},{"type":"Feature","geometry":{"type":"Point","coordinates":[121.567794,31.112088]},"properties":{"type":"medium","town":"浦东新区","published_address":"周浦镇里仁村13组","geocoded_address":"上海市浦东新区里仁村"}},{"type":"Feature","geometry":{"type":"Point","coordinates":[121.750534,31.178803]},"properties":{"type":"medium","town":"浦东新区","published_address":"祝桥镇晚霞路551弄晨阳小区","geocoded_address":"上海市浦东新区晨阳小区"}},{"type":"Feature","geometry":{"type":"Point","coordinates":[121.498103,31.209549]},"properties":{"type":"medium","town":"黄浦区","published_address":"半淞园路街道中山南路1358弄中福浦江汇","geocoded_address":"上海市黄浦区中福浦江汇"}},{"type":"Feature","geometry":{"type":"Point","coordinates":[121.448639,31.240614]},"properties":{"type":"medium","town":"静安区","published_address":"江宁路街道海防路100弄","geocoded_address":"上海市静安区江宁路街道海防路100弄"}},{"type":"Feature","geometry":{"type":"Point","coordinates":[121.467746,31.317647]},"properties":{"type":"medium","town":"静安区","published_address":"临汾路街道江杨南路466弄17号","geocoded_address":"上海市静安区江杨南路466弄|17号"}},{"type":"Feature","geometry":{"type":"Point","coordinates":[121.467427,31.317581]},"properties":{"type":"medium","town":"静安区","published_address":"临汾路街道江杨南路466弄18号","geocoded_address":"上海市静安区江杨南路466弄|18号"}},{"type":"Feature","geometry":{"type":"Point","coordinates":[121.465914,31.193784]},"properties":{"type":"medium","town":"徐汇区","published_address":"斜土路街道日晖二村","geocoded_address":"上海市徐汇区日晖二村"}},{"type":"Feature","geometry":{"type":"Point","coordinates":[121.379969,31.259958]},"properties":{"type":"medium","town":"普陀区","published_address":"桃浦镇昆仑花苑桃浦路1149弄","geocoded_address":"上海市普陀区昆仑花苑"}},{"type":"Feature","geometry":{"type":"Point","coordinates":[121.446551,31.243052]},"properties":{"type":"medium","town":"普陀区","published_address":"长寿路街道昌化路780弄新锦绣里","geocoded_address":"上海市普陀区长寿路街道昌化路780弄"}},{"type":"Feature","geometry":{"type":"Point","coordinates":[121.427364,31.252165]},"properties":{"type":"medium","town":"普陀区","published_address":"石泉路街道石泉一村","geocoded_address":"上海市普陀区石泉一村"}},{"type":"Feature","geometry":{"type":"Point","coordinates":[121.527552,31.267749]},"properties":{"type":"medium","town":"杨浦区","published_address":"大桥街道长阳路1315弄","geocoded_address":"上海市杨浦区大桥街道长阳路1315弄"}},{"type":"Feature","geometry":{"type":"Point","coordinates":[121.39869,31.004439]},"properties":{"type":"medium","town":"闵行区","published_address":"江川路街道华宁路111号","geocoded_address":"上海市闵行区华宁路|111号"}},{"type":"Feature","geometry":{"type":"Point","coordinates":[121.305388,31.312999]},"properties":{"type":"medium","town":"嘉定区","published_address":"南翔镇瑞林路1280弄湖畔名邸一期","geocoded_address":"上海市嘉定区湖畔名邸"}}]}