{"type":"FeatureCollection","features":[{"type":"Feature","geometry":{"type":"Point","coordinates":[121.750534,31.178803]},"properties":{"type":"medium","town":"浦东新区","published_address":"祝桥镇晚霞路551弄晨阳小区","geocoded_address":"上海市浦东新区晨阳小区"}},{"type":"Feature","geometry":{"type":"Point","coordinates":[121.616058,31.265794]},"properties":{"type":"medium","town":"浦东新区","published_address":"金桥镇永业路188弄","geocoded_address":"上海市浦东新区金桥镇永业路188弄"}},{"type":"Feature","geometry":{"type":"Point","coordinates":[121.615781,31.267454]},"properties":{"type":"medium","town":"浦东新区","published_address":"金桥镇永业路218弄","geocoded_address":"上海市浦东新区金桥镇永业路218弄"}},{"type":"Feature","geometry":{"type":"Point","coordinates":[121.763029,30.956476]},"properties":{"type":"medium","town":"浦东新区","published_address":"大团镇海潮村","geocoded_address":"上海市浦东新区海潮村"}},{"type":"Feature","geometry":{"type":"Point","coordinates":[121.785641,30.959516]},"properties":{"type":"medium","town":"浦东新区","published_address":"大团镇金石村","geocoded_address":"上海市浦东新区金石村"}},{"type":"Feature","geometry":{"type":"Point","coordinates":[121.436785,31.221714]},"properties":{"type":"medium","town":"静安区","published_address":"静安寺街道愚园路608弄","geocoded_address":"上海市静安区静安寺街道愚园路608弄"}},{"type":"Feature","geometry":{"type":"Point","coordinates":[121.46229,31.25293]},"properties":{"type":"medium","town":"静安区","published_address":"芷江西路街道中兴路1279弄","geocoded_address":"上海市静安区中兴路1279弄"}},{"type":"Feature","geometry":{"type":"Point","coordinates":[121.461734,31.252801]},"properties":{"type":"medium","town":"静安区","published_address":"芷江西路街道中兴路1321弄","geocoded_address":"上海市静安区芷江西路街道中兴路1321弄"}},{"type":"Feature","geometry":{"type":"Point","coordinates":[121.461734,31.252801]},"properties":{"type":"medium","town":"静安区","published_address":"芷江西路街道中兴路1321弄","geocoded_address":"上海市静安区芷江西路街道中兴路1321弄"}},{"type":"Feature","geometry":{"type":"Point","coordinates":[121.46229,31.25293]},"properties":{"type":"medium","town":"静安区","published_address":"芷江西路街道中兴路1279弄","geocoded_address":"上海市静安区中兴路1279弄"}},{"type":"Feature","geometry":{"type":"Point","coordinates":[121.462308,31.253376]},"properties":{"type":"medium","town":"静安区","published_address":"芷江西路街道中华新路612号","geocoded_address":"上海市静安区中华新路|612号"}},{"type":"Feature","geometry":{"type":"Point","coordinates":[121.462044,31.253484]},"properties":{"type":"medium","town":"静安区","published_address":"芷江西路街道中华新路618号","geocoded_address":"上海市静安区中华新路|618号"}},{"type":"Feature","geometry":{"type":"Point","coordinates":[121.461702,31.253525]},"properties":{"type":"medium","town":"静安区","published_address":"芷江西路街道中华新路630号","geocoded_address":"上海市静安区中华新路|630"}},{"type":"Feature","geometry":{"type":"Point","coordinates":[121.461604,31.253318]},"properties":{"type":"medium","town":"静安区","published_address":"芷江西路街道中华新路640号","geocoded_address":"上海市静安区中华新路|640号"}},{"type":"Feature","geometry":{"type":"Point","coordinates":[121.395829,31.231078]},"properties":{"type":"medium","town":"普陀区","published_address":"长风新村街道金沙江路895弄","geocoded_address":"上海市普陀区长风新村街道金沙江路895弄"}}]}