{"type":"FeatureCollection","features":[{"type":"Feature","geometry":{"type":"Point","coordinates":[121.656363,31.219462]},"properties":{"type":"medium","town":"浦东新区","published_address":"唐镇齐爱路99弄绿城玉兰花园-御园","geocoded_address":"上海市浦东新区绿城御园"}},{"type":"Feature","geometry":{"type":"Point","coordinates":[121.593735,31.041226]},"properties":{"type":"medium","town":"浦东新区","published_address":"航头镇沪南公路5298号","geocoded_address":"上海市浦东新区航头镇沪南公路5298号"}},{"type":"Feature","geometry":{"type":"Point","coordinates":[121.51869,31.209266]},"properties":{"type":"medium","town":"浦东新区","published_address":"塘桥街道浦建路38号","geocoded_address":"上海市浦东新区浦建路|38号"}},{"type":"Feature","geometry":{"type":"Point","coordinates":[121.706683,31.197161]},"properties":{"type":"medium","town":"浦东新区","published_address":"川沙新镇东河浜路10号26栋","geocoded_address":"上海市浦东新区川沙新镇东河浜路10号"}},{"type":"Feature","geometry":{"type":"Point","coordinates":[121.555778,31.181478]},"properties":{"type":"medium","town":"浦东新区","published_address":"北蔡镇沪南路1097号","geocoded_address":"上海市浦东新区北蔡镇沪南路1097号"}},{"type":"Feature","geometry":{"type":"Point","coordinates":[121.496329,31.248981]},"properties":{"type":"medium","town":"虹口区","published_address":"北外滩街道旅顺路66号","geocoded_address":"上海市虹口区北外滩街道旅顺路66号"}},{"type":"Feature","geometry":{"type":"Point","coordinates":[121.388482,31.320961]},"properties":{"type":"medium","town":"宝山区","published_address":"大场镇锦秋路743号","geocoded_address":"上海市宝山区大场镇锦秋路743号"}},{"type":"Feature","geometry":{"type":"Point","coordinates":[121.434683,31.018099]},"properties":{"type":"medium","town":"闵行区","published_address":"江川路街道东川路811弄35号","geocoded_address":"上海市闵行区东川路811弄|35号"}},{"type":"Feature","geometry":{"type":"Point","coordinates":[121.309013,31.237155]},"properties":{"type":"medium","town":"嘉定区","published_address":"江桥镇金耀南路299弄绿地新江桥城西区","geocoded_address":"上海市嘉定区绿地新江桥城西区"}},{"type":"Feature","geometry":{"type":"Point","coordinates":[121.317605,31.241474]},"properties":{"type":"medium","town":"嘉定区","published_address":"江桥镇金园一路1359弄缘圆宝邸北区","geocoded_address":"上海市嘉定区缘圆宝邸"}},{"type":"Feature","geometry":{"type":"Point","coordinates":[121.317605,31.241474]},"properties":{"type":"high","town":"嘉定区","published_address":"江桥镇金园一路1359弄缘圆宝邸南区","geocoded_address":"上海市嘉定区缘圆宝邸"}}]}