{"type":"FeatureCollection","features":[{"type":"Feature","geometry":{"type":"Point","coordinates":[121.458184,31.259443]},"properties":{"type":"medium","town":"静安区","published_address":"芷江西路街道中山北路814弄","geocoded_address":"上海市静安区芷江西路街道中山北路814弄"}},{"type":"Feature","geometry":{"type":"Point","coordinates":[121.456107,31.254024]},"properties":{"type":"medium","town":"静安区","published_address":"天目西路街道中华新路866-886号","geocoded_address":"上海市普陀区中华新路|866"}},{"type":"Feature","geometry":{"type":"Point","coordinates":[121.45572,31.25404]},"properties":{"type":"medium","town":"静安区","published_address":"天目西路街道中华新路890弄","geocoded_address":"上海市静安区天目西路街道中华新路890弄"}},{"type":"Feature","geometry":{"type":"Point","coordinates":[121.444641,31.240109]},"properties":{"type":"medium","town":"静安区","published_address":"江宁路街道陕西北路1159-1179号","geocoded_address":"上海市静安区陕西北路|1159"}},{"type":"Feature","geometry":{"type":"Point","coordinates":[121.471411,31.254151]},"properties":{"type":"medium","town":"静安区","published_address":"宝山路街道中兴路726号","geocoded_address":"上海市虹口区中兴路|726"}},{"type":"Feature","geometry":{"type":"Point","coordinates":[121.407421,31.246864]},"properties":{"type":"medium","town":"普陀区","published_address":"宜川路街道龚家宅第一小区","geocoded_address":"上海市普陀区第一小区"}},{"type":"Feature","geometry":{"type":"Point","coordinates":[121.52657,31.26618]},"properties":{"type":"medium","town":"杨浦区","published_address":"江浦路街道长阳路1199号","geocoded_address":"上海市杨浦区长阳路|1199"}},{"type":"Feature","geometry":{"type":"Point","coordinates":[121.516656,31.2665]},"properties":{"type":"medium","town":"杨浦区","published_address":"江浦路街道唐山路1380弄","geocoded_address":"上海市杨浦区唐山路1380弄"}},{"type":"Feature","geometry":{"type":"Point","coordinates":[121.524898,31.28513]},"properties":{"type":"medium","town":"杨浦区","published_address":"控江路街道控江四村","geocoded_address":"上海市杨浦区控江四村"}},{"type":"Feature","geometry":{"type":"Point","coordinates":[121.51448,31.26442]},"properties":{"type":"medium","town":"杨浦区","published_address":"江浦路街道唐山路1280弄","geocoded_address":"上海市杨浦区江浦路街道唐山路1280弄"}},{"type":"Feature","geometry":{"type":"Point","coordinates":[121.515594,31.31167]},"properties":{"type":"medium","town":"杨浦区","published_address":"长海路街道三门路11弄","geocoded_address":"上海市杨浦区长海路街道三门路11弄"}},{"type":"Feature","geometry":{"type":"Point","coordinates":[121.454867,31.322037]},"properties":{"type":"medium","town":"宝山区","published_address":"高境镇岭南家园","geocoded_address":"上海市宝山区岭南家园"}},{"type":"Feature","geometry":{"type":"Point","coordinates":[121.385561,31.108555]},"properties":{"type":"medium","town":"闵行区","published_address":"莘庄镇莘朱路222弄江南苑","geocoded_address":"上海市闵行区江南苑"}},{"type":"Feature","geometry":{"type":"Point","coordinates":[121.32313,30.878964]},"properties":{"type":"medium","town":"金山区","published_address":"亭林镇东新村13组","geocoded_address":"上海市金山区东新村"}},{"type":"Feature","geometry":{"type":"Point","coordinates":[121.503978,31.222209]},"properties":{"type":"medium","town":"金山区","published_address":"复兴东路2号","geocoded_address":"上海市黄浦区复兴东路2号"}},{"type":"Feature","geometry":{"type":"Point","coordinates":[121.32179,30.881215]},"properties":{"type":"medium","town":"金山区","published_address":"南亭公路6328号","geocoded_address":"上海市金山区南亭公路6328号"}},{"type":"Feature","geometry":{"type":"Point","coordinates":[121.321438,30.880813]},"properties":{"type":"medium","town":"金山区","published_address":"南亭公路6455-6497号","geocoded_address":"上海市奉贤区南亭公路|6455号"}},{"type":"Feature","geometry":{"type":"Point","coordinates":[121.319157,30.882864]},"properties":{"type":"medium","town":"金山区","published_address":"桃贤路6-28号","geocoded_address":"上海市金山区桃贤路"}}]}