{"type":"FeatureCollection","features":[{"type":"Feature","geometry":{"type":"Point","coordinates":[121.4799,31.246584]},"properties":{"type":"medium","town":"静安区","published_address":"北站街道山西北路388弄","geocoded_address":"上海市静安区北站街道山西北路388弄"}},{"type":"Feature","geometry":{"type":"Point","coordinates":[121.458184,31.259443]},"properties":{"type":"medium","town":"静安区","published_address":"芷江西路街道中山北路814弄","geocoded_address":"上海市静安区芷江西路街道中山北路814弄"}},{"type":"Feature","geometry":{"type":"Point","coordinates":[121.456107,31.254024]},"properties":{"type":"medium","town":"静安区","published_address":"天目西路街道中华新路866-886号","geocoded_address":"上海市普陀区中华新路|866"}},{"type":"Feature","geometry":{"type":"Point","coordinates":[121.45572,31.25404]},"properties":{"type":"medium","town":"静安区","published_address":"天目西路街道中华新路890弄","geocoded_address":"上海市静安区天目西路街道中华新路890弄"}},{"type":"Feature","geometry":{"type":"Point","coordinates":[121.444641,31.240109]},"properties":{"type":"medium","town":"静安区","published_address":"江宁路街道陕西北路1159-1179号","geocoded_address":"上海市静安区陕西北路|1159"}},{"type":"Feature","geometry":{"type":"Point","coordinates":[121.407421,31.246864]},"properties":{"type":"medium","town":"普陀区","published_address":"宜川路街道龚家宅第一小区","geocoded_address":"上海市普陀区第一小区"}},{"type":"Feature","geometry":{"type":"Point","coordinates":[121.52657,31.26618]},"properties":{"type":"medium","town":"杨浦区","published_address":"江浦路街道长阳路1199号","geocoded_address":"上海市杨浦区长阳路|1199"}},{"type":"Feature","geometry":{"type":"Point","coordinates":[121.516656,31.2665]},"properties":{"type":"medium","town":"杨浦区","published_address":"江浦路街道唐山路1380弄","geocoded_address":"上海市杨浦区唐山路1380弄"}},{"type":"Feature","geometry":{"type":"Point","coordinates":[121.524898,31.28513]},"properties":{"type":"medium","town":"杨浦区","published_address":"控江路街道控江四村","geocoded_address":"上海市杨浦区控江四村"}},{"type":"Feature","geometry":{"type":"Point","coordinates":[121.461522,31.342461]},"properties":{"type":"medium","town":"宝山区","published_address":"淞南镇江杨南路2058号","geocoded_address":"上海市宝山区淞南镇江杨南路2058号"}},{"type":"Feature","geometry":{"type":"Point","coordinates":[121.454867,31.322037]},"properties":{"type":"medium","town":"宝山区","published_address":"高境镇岭南家园","geocoded_address":"上海市宝山区岭南家园"}},{"type":"Feature","geometry":{"type":"Point","coordinates":[121.37901,31.106573]},"properties":{"type":"medium","town":"闵行区","published_address":"莘庄镇莘东路100号自由公寓","geocoded_address":"上海市闵行区自由公寓"}},{"type":"Feature","geometry":{"type":"Point","coordinates":[121.408106,31.143982]},"properties":{"type":"medium","town":"闵行区","published_address":"古美路街道平阳路50弄","geocoded_address":"上海市闵行区古美路街道平阳路50弄"}},{"type":"Feature","geometry":{"type":"Point","coordinates":[121.316261,31.044919]},"properties":{"type":"medium","town":"松江区","published_address":"新桥镇新飞路1751弄晨星东区","geocoded_address":"上海市松江区晨星东区"}}]}