{"type":"FeatureCollection","features":[{"type":"Feature","geometry":{"type":"Point","coordinates":[121.580787,31.276582]},"properties":{"type":"medium","town":"浦东新区","published_address":"沪东新村街道朱家门小区","geocoded_address":"上海市浦东新区朱家门小区"}},{"type":"Feature","geometry":{"type":"Point","coordinates":[121.581744,31.274622]},"properties":{"type":"medium","town":"浦东新区","published_address":"沪东新村街道五莲路201弄","geocoded_address":"上海市浦东新区沪东新村街道五莲路201弄"}},{"type":"Feature","geometry":{"type":"Point","coordinates":[121.581109,31.276857]},"properties":{"type":"medium","town":"浦东新区","published_address":"沪东新村街道浦东大道2970弄","geocoded_address":"上海市浦东新区沪东新村街道浦东大道2970弄"}},{"type":"Feature","geometry":{"type":"Point","coordinates":[121.580854,31.278688]},"properties":{"type":"medium","town":"浦东新区","published_address":"沪东新村街道利津路158 弄","geocoded_address":"上海市浦东新区利津路158弄"}},{"type":"Feature","geometry":{"type":"Point","coordinates":[121.582551,31.275762]},"properties":{"type":"medium","town":"浦东新区","published_address":"沪东新村街道莱阳路451弄","geocoded_address":"上海市浦东新区莱阳路451弄"}},{"type":"Feature","geometry":{"type":"Point","coordinates":[121.5954,31.259611]},"properties":{"type":"medium","town":"浦东新区","published_address":"浦兴路街道金桥湾清水苑","geocoded_address":"上海市浦东新区清水苑"}},{"type":"Feature","geometry":{"type":"Point","coordinates":[121.594614,31.259942]},"properties":{"type":"medium","town":"浦东新区","published_address":"浦兴路街道长岛路1280弄","geocoded_address":"上海市浦东新区浦兴路街道长岛路1280弄"}},{"type":"Feature","geometry":{"type":"Point","coordinates":[121.596409,31.259515]},"properties":{"type":"medium","town":"浦东新区","published_address":"浦兴路街道台儿庄路363弄","geocoded_address":"上海市浦东新区浦兴路街道台儿庄路363弄"}},{"type":"Feature","geometry":{"type":"Point","coordinates":[121.59555,31.260195]},"properties":{"type":"medium","town":"浦东新区","published_address":"浦兴路街道荷泽路828弄","geocoded_address":"上海市浦东新区浦兴路街道荷泽路828弄"}},{"type":"Feature","geometry":{"type":"Point","coordinates":[121.456787,31.291393]},"properties":{"type":"medium","town":"静安区","published_address":"大宁路街道广延路1199弄","geocoded_address":"上海市静安区大宁路街道广延路1199弄"}},{"type":"Feature","geometry":{"type":"Point","coordinates":[121.4799,31.246584]},"properties":{"type":"medium","town":"静安区","published_address":"北站街道山西北路388弄","geocoded_address":"上海市静安区北站街道山西北路388弄"}},{"type":"Feature","geometry":{"type":"Point","coordinates":[121.458184,31.259443]},"properties":{"type":"medium","town":"静安区","published_address":"芷江西路街道中山北路814弄","geocoded_address":"上海市静安区芷江西路街道中山北路814弄"}},{"type":"Feature","geometry":{"type":"Point","coordinates":[121.456107,31.254024]},"properties":{"type":"medium","town":"静安区","published_address":"天目西路街道中华新路866-886号","geocoded_address":"上海市普陀区中华新路|866"}},{"type":"Feature","geometry":{"type":"Point","coordinates":[121.45572,31.25404]},"properties":{"type":"medium","town":"静安区","published_address":"天目西路街道中华新路890弄","geocoded_address":"上海市静安区天目西路街道中华新路890弄"}},{"type":"Feature","geometry":{"type":"Point","coordinates":[121.444641,31.240109]},"properties":{"type":"medium","town":"静安区","published_address":"江宁路街道陕西北路1159-1179号","geocoded_address":"上海市静安区陕西北路|1159"}},{"type":"Feature","geometry":{"type":"Point","coordinates":[121.407421,31.246864]},"properties":{"type":"medium","town":"普陀区","published_address":"宜川路街道龚家宅第一小区","geocoded_address":"上海市普陀区第一小区"}},{"type":"Feature","geometry":{"type":"Point","coordinates":[121.529997,31.284596]},"properties":{"type":"medium","town":"杨浦区","published_address":"控江路街道控江六村","geocoded_address":"上海市杨浦区控江六村"}},{"type":"Feature","geometry":{"type":"Point","coordinates":[121.543462,31.29613]},"properties":{"type":"medium","town":"杨浦区","published_address":"长白新村街道延吉东路1弄","geocoded_address":"上海市杨浦区延吉东路1弄"}},{"type":"Feature","geometry":{"type":"Point","coordinates":[121.543297,31.295583]},"properties":{"type":"medium","town":"杨浦区","published_address":"长白新村街道延吉东路5弄","geocoded_address":"上海市杨浦区长白新村街道延吉东路5弄"}},{"type":"Feature","geometry":{"type":"Point","coordinates":[121.54116,31.290296]},"properties":{"type":"medium","town":"杨浦区","published_address":"长白新村街道安图新村","geocoded_address":"上海市杨浦区安图新村"}},{"type":"Feature","geometry":{"type":"Point","coordinates":[121.540707,31.290435]},"properties":{"type":"medium","town":"杨浦区","published_address":"长白新村街道靖宇东路85弄","geocoded_address":"上海市杨浦区长白新村街道靖宇东路85弄"}},{"type":"Feature","geometry":{"type":"Point","coordinates":[121.543555,31.294453]},"properties":{"type":"medium","town":"杨浦区","published_address":"长白新村街道长白二村","geocoded_address":"上海市杨浦区长白二村"}},{"type":"Feature","geometry":{"type":"Point","coordinates":[121.52657,31.26618]},"properties":{"type":"medium","town":"杨浦区","published_address":"江浦路街道长阳路1199号","geocoded_address":"上海市杨浦区长阳路|1199"}},{"type":"Feature","geometry":{"type":"Point","coordinates":[121.516656,31.2665]},"properties":{"type":"medium","town":"杨浦区","published_address":"江浦路街道唐山路1380弄","geocoded_address":"上海市杨浦区唐山路1380弄"}},{"type":"Feature","geometry":{"type":"Point","coordinates":[121.524898,31.28513]},"properties":{"type":"medium","town":"杨浦区","published_address":"控江路街道控江四村","geocoded_address":"上海市杨浦区控江四村"}},{"type":"Feature","geometry":{"type":"Point","coordinates":[121.398926,31.289518]},"properties":{"type":"medium","town":"宝山区","published_address":"大场镇真大路358弄欧泊花郡","geocoded_address":"上海市宝山区欧泊花郡"}},{"type":"Feature","geometry":{"type":"Point","coordinates":[121.461522,31.342461]},"properties":{"type":"medium","town":"宝山区","published_address":"淞南镇江杨南路2058号","geocoded_address":"上海市宝山区淞南镇江杨南路2058号"}},{"type":"Feature","geometry":{"type":"Point","coordinates":[121.454867,31.322037]},"properties":{"type":"medium","town":"宝山区","published_address":"高境镇岭南家园","geocoded_address":"上海市宝山区岭南家园"}},{"type":"Feature","geometry":{"type":"Point","coordinates":[121.37901,31.106573]},"properties":{"type":"medium","town":"闵行区","published_address":"莘庄镇莘东路100号自由公寓","geocoded_address":"上海市闵行区自由公寓"}},{"type":"Feature","geometry":{"type":"Point","coordinates":[121.408106,31.143982]},"properties":{"type":"medium","town":"闵行区","published_address":"古美路街道平阳路50弄","geocoded_address":"上海市闵行区古美路街道平阳路50弄"}},{"type":"Feature","geometry":{"type":"Point","coordinates":[121.316261,31.044919]},"properties":{"type":"medium","town":"松江区","published_address":"新桥镇新飞路1751弄晨星东区","geocoded_address":"上海市松江区晨星东区"}}]}