{"type":"FeatureCollection","features":[{"type":"Feature","geometry":{"type":"Point","coordinates":[121.51869,31.209266]},"properties":{"type":"medium","town":"浦东新区","published_address":"塘桥街道浦建路38号","geocoded_address":"上海市浦东新区浦建路|38号"}},{"type":"Feature","geometry":{"type":"Point","coordinates":[121.706683,31.197161]},"properties":{"type":"medium","town":"浦东新区","published_address":"川沙新镇东河浜路10号26栋","geocoded_address":"上海市浦东新区川沙新镇东河浜路10号"}},{"type":"Feature","geometry":{"type":"Point","coordinates":[121.555778,31.181478]},"properties":{"type":"medium","town":"浦东新区","published_address":"北蔡镇沪南路1097号","geocoded_address":"上海市浦东新区北蔡镇沪南路1097号"}},{"type":"Feature","geometry":{"type":"Point","coordinates":[121.55988,31.249668]},"properties":{"type":"medium","town":"浦东新区","published_address":"金杨新村街道罗山四村南区","geocoded_address":"上海市浦东新区罗山四村南区"}},{"type":"Feature","geometry":{"type":"Point","coordinates":[121.588139,31.243889]},"properties":{"type":"medium","town":"浦东新区","published_address":"金桥镇红枫路108弄3-9号","geocoded_address":"上海市浦东新区金桥镇红枫路108弄3-8号"}},{"type":"Feature","geometry":{"type":"Point","coordinates":[121.466306,31.223069]},"properties":{"type":"medium","town":"黄浦区","published_address":"瑞金二路街道巨鹿路158-168号","geocoded_address":"上海市黄浦区瑞金二路街道巨鹿路158-168号"}},{"type":"Feature","geometry":{"type":"Point","coordinates":[121.47102,31.204351]},"properties":{"type":"medium","town":"黄浦区","published_address":"打浦桥街道打浦路15号","geocoded_address":"上海市黄浦区打浦桥街道打浦路15号"}},{"type":"Feature","geometry":{"type":"Point","coordinates":[121.436683,31.217415]},"properties":{"type":"medium","town":"长宁区","published_address":"江苏路街道延安西路488号","geocoded_address":"上海市长宁区延安西路|488"}},{"type":"Feature","geometry":{"type":"Point","coordinates":[121.432091,31.201354]},"properties":{"type":"medium","town":"长宁区","published_address":"新华路街道新华路24号","geocoded_address":"上海市长宁区新华路|24"}},{"type":"Feature","geometry":{"type":"Point","coordinates":[121.404776,31.240023]},"properties":{"type":"medium","town":"普陀区","published_address":"曹杨新村街道兰溪路锐思特酒店","geocoded_address":"上海市普陀区曹杨新村街道兰溪路锐思特酒店(上海普陀中心医院华师大兰溪路店)"}},{"type":"Feature","geometry":{"type":"Point","coordinates":[121.447276,31.260128]},"properties":{"type":"medium","town":"普陀区","published_address":"宜川路街道泰山一村","geocoded_address":"上海市普陀区泰山一村"}},{"type":"Feature","geometry":{"type":"Point","coordinates":[121.359268,31.231874]},"properties":{"type":"medium","town":"普陀区","published_address":"长征镇丁香苑","geocoded_address":"上海市普陀区建德花园丁香苑"}},{"type":"Feature","geometry":{"type":"Point","coordinates":[121.531552,31.298922]},"properties":{"type":"medium","town":"杨浦区","published_address":"长海路街道营口路789弄","geocoded_address":"上海市杨浦区长海路街道营口路789弄"}},{"type":"Feature","geometry":{"type":"Point","coordinates":[121.388482,31.320961]},"properties":{"type":"medium","town":"宝山区","published_address":"大场镇锦秋路743号","geocoded_address":"上海市宝山区大场镇锦秋路743号"}},{"type":"Feature","geometry":{"type":"Point","coordinates":[121.411561,31.352852]},"properties":{"type":"medium","town":"宝山区","published_address":"顾村镇盛宅一村","geocoded_address":"上海市宝山区盛宅一村"}},{"type":"Feature","geometry":{"type":"Point","coordinates":[121.434683,31.018099]},"properties":{"type":"medium","town":"闵行区","published_address":"江川路街道东川路811弄35号","geocoded_address":"上海市闵行区东川路811弄|35号"}},{"type":"Feature","geometry":{"type":"Point","coordinates":[121.434796,31.012112]},"properties":{"type":"medium","town":"闵行区","published_address":"江川路街道永平南路198弄东苑佳和园","geocoded_address":"上海市闵行区东苑佳和园"}},{"type":"Feature","geometry":{"type":"Point","coordinates":[121.394497,31.045698]},"properties":{"type":"medium","town":"闵行区","published_address":"莘庄工业区中春路1299号","geocoded_address":"上海市闵行区莘庄中春路1299号"}},{"type":"Feature","geometry":{"type":"Point","coordinates":[121.309013,31.237155]},"properties":{"type":"medium","town":"嘉定区","published_address":"江桥镇金耀南路299弄绿地新江桥城西区","geocoded_address":"上海市嘉定区绿地新江桥城西区"}},{"type":"Feature","geometry":{"type":"Point","coordinates":[121.317605,31.241474]},"properties":{"type":"medium","town":"嘉定区","published_address":"江桥镇金园一路1359弄缘圆宝邸北区","geocoded_address":"上海市嘉定区缘圆宝邸"}},{"type":"Feature","geometry":{"type":"Point","coordinates":[121.182121,31.192229]},"properties":{"type":"medium","town":"青浦区","published_address":"重固镇大街518弄逸皓华庭","geocoded_address":"上海市青浦区逸皓华庭"}},{"type":"Feature","geometry":{"type":"Point","coordinates":[121.317605,31.241474]},"properties":{"type":"high","town":"嘉定区","published_address":"江桥镇金园一路1359弄缘圆宝邸南区","geocoded_address":"上海市嘉定区缘圆宝邸"}}]}