{"type":"FeatureCollection","features":[{"type":"Feature","geometry":{"type":"Point","coordinates":[121.672462,31.28271]},"properties":{"type":"medium","town":"浦东新区","published_address":"曹路镇海鸣路98弄中虹家园","geocoded_address":"上海市浦东新区中虹家园"}},{"type":"Feature","geometry":{"type":"Point","coordinates":[121.769591,31.033008]},"properties":{"type":"medium","town":"浦东新区","published_address":"惠南镇靖海南路567弄","geocoded_address":"上海市浦东新区惠南镇靖海南路567弄"}},{"type":"Feature","geometry":{"type":"Point","coordinates":[121.469043,31.204359]},"properties":{"type":"medium","town":"黄浦区","published_address":"打浦桥街道打浦路38弄海华花园","geocoded_address":"上海市黄浦区海华花园"}},{"type":"Feature","geometry":{"type":"Point","coordinates":[121.470892,31.204966]},"properties":{"type":"medium","town":"黄浦区","published_address":"打浦桥街道打浦路1号","geocoded_address":"上海市黄浦区打浦桥街道打浦路1号"}},{"type":"Feature","geometry":{"type":"Point","coordinates":[121.483626,31.226531]},"properties":{"type":"medium","town":"黄浦区","published_address":"豫园街道人民路875号","geocoded_address":"上海市黄浦区豫园街道人民路875号"}},{"type":"Feature","geometry":{"type":"Point","coordinates":[121.454041,31.233861]},"properties":{"type":"medium","town":"黄浦区","published_address":"南京东路街道北京西路49号","geocoded_address":"上海市静安区北京西路|49号"}},{"type":"Feature","geometry":{"type":"Point","coordinates":[121.47279,31.236943]},"properties":{"type":"medium","town":"黄浦区","published_address":"南京东路街道北京西路55号","geocoded_address":"上海市黄浦区南京东路街道北京西路55号"}},{"type":"Feature","geometry":{"type":"Point","coordinates":[121.444808,31.239794]},"properties":{"type":"medium","town":"静安区","published_address":"江宁路街道陕西北路1155弄","geocoded_address":"上海市静安区江宁路街道陕西北路1155弄"}},{"type":"Feature","geometry":{"type":"Point","coordinates":[121.442768,31.305995]},"properties":{"type":"medium","town":"静安区","published_address":"彭浦新村街道场中路2471弄","geocoded_address":"上海市静安区彭浦新村街道场中路2471弄"}},{"type":"Feature","geometry":{"type":"Point","coordinates":[121.460693,31.252058]},"properties":{"type":"medium","town":"静安区","published_address":"芷江西路街道三兴大楼","geocoded_address":"上海市静安区三兴大楼"}},{"type":"Feature","geometry":{"type":"Point","coordinates":[121.468048,31.264095]},"properties":{"type":"medium","town":"静安区","published_address":"共和新路街道中山北路311号","geocoded_address":"上海市静安区共和新路中山北路311号"}},{"type":"Feature","geometry":{"type":"Point","coordinates":[121.47707,31.256793]},"properties":{"type":"medium","town":"静安区","published_address":"宝山路街道宝山路420号","geocoded_address":"上海市静安区宝山路|420"}},{"type":"Feature","geometry":{"type":"Point","coordinates":[121.461777,31.252495]},"properties":{"type":"medium","town":"静安区","published_address":"芷江西路街道兴新小区","geocoded_address":"上海市静安区芷江西路街道兴新小区(中兴路1321弄)"}},{"type":"Feature","geometry":{"type":"Point","coordinates":[121.46229,31.25293]},"properties":{"type":"medium","town":"静安区","published_address":"芷江西路街道中兴路1279弄","geocoded_address":"上海市静安区中兴路1279弄"}},{"type":"Feature","geometry":{"type":"Point","coordinates":[121.461734,31.252801]},"properties":{"type":"medium","town":"静安区","published_address":"芷江西路街道中兴路1321弄","geocoded_address":"上海市静安区芷江西路街道中兴路1321弄"}},{"type":"Feature","geometry":{"type":"Point","coordinates":[121.462308,31.253376]},"properties":{"type":"medium","town":"静安区","published_address":"芷江西路街道中华新路612号","geocoded_address":"上海市静安区中华新路|612号"}},{"type":"Feature","geometry":{"type":"Point","coordinates":[121.462044,31.253484]},"properties":{"type":"medium","town":"静安区","published_address":"芷江西路街道中华新路618号","geocoded_address":"上海市静安区中华新路|618号"}},{"type":"Feature","geometry":{"type":"Point","coordinates":[121.461702,31.253525]},"properties":{"type":"medium","town":"静安区","published_address":"芷江西路街道中华新路630号","geocoded_address":"上海市静安区中华新路|630"}},{"type":"Feature","geometry":{"type":"Point","coordinates":[121.461604,31.253318]},"properties":{"type":"medium","town":"静安区","published_address":"芷江西路街道中华新路640号","geocoded_address":"上海市静安区中华新路|640号"}},{"type":"Feature","geometry":{"type":"Point","coordinates":[121.432091,31.201354]},"properties":{"type":"medium","town":"长宁区","published_address":"新华路街道新华路24号","geocoded_address":"上海市长宁区新华路|24"}},{"type":"Feature","geometry":{"type":"Point","coordinates":[121.419844,31.256949]},"properties":{"type":"medium","town":"普陀区","published_address":"石泉路街道品尊国际公寓","geocoded_address":"上海市普陀区品尊国际公寓"}},{"type":"Feature","geometry":{"type":"Point","coordinates":[121.430499,31.24748]},"properties":{"type":"medium","town":"普陀区","published_address":"长寿路街道中山北路2088号","geocoded_address":"上海市普陀区中山北路|2088"}},{"type":"Feature","geometry":{"type":"Point","coordinates":[121.448834,31.254822]},"properties":{"type":"medium","town":"普陀区","published_address":"宜川路街道嘉华苑","geocoded_address":"上海市普陀区嘉华苑"}},{"type":"Feature","geometry":{"type":"Point","coordinates":[121.425326,31.264109]},"properties":{"type":"medium","town":"普陀区","published_address":"甘泉路街道宜君路80弄","geocoded_address":"上海市普陀区甘泉路街道街道宜君路80弄"}},{"type":"Feature","geometry":{"type":"Point","coordinates":[121.428522,31.256759]},"properties":{"type":"medium","town":"普陀区","published_address":"石泉路街道华池路58弄新体育广场","geocoded_address":"上海市普陀区新体育广场"}},{"type":"Feature","geometry":{"type":"Point","coordinates":[121.43759,31.260338]},"properties":{"type":"medium","town":"普陀区","published_address":"宜川路街道宜川二村","geocoded_address":"上海市普陀区宜川二村"}},{"type":"Feature","geometry":{"type":"Point","coordinates":[121.443202,31.24044]},"properties":{"type":"medium","town":"普陀区","published_address":"长寿路街道九茂小区","geocoded_address":"上海市普陀区九茂小区"}},{"type":"Feature","geometry":{"type":"Point","coordinates":[121.44162,31.265957]},"properties":{"type":"medium","town":"普陀区","published_address":"宜川路街道农林光新小区","geocoded_address":"上海市普陀区宜川路街道农林村光新延长小区"}},{"type":"Feature","geometry":{"type":"Point","coordinates":[121.380871,31.240314]},"properties":{"type":"medium","town":"普陀区","published_address":"长征镇真光路962弄","geocoded_address":"上海市普陀区长征镇真光路962弄"}},{"type":"Feature","geometry":{"type":"Point","coordinates":[121.49956,31.26365]},"properties":{"type":"medium","town":"虹口区","published_address":"嘉兴路街道瑞虹路233弄","geocoded_address":"上海市虹口区233弄"}},{"type":"Feature","geometry":{"type":"Point","coordinates":[121.474316,31.273561]},"properties":{"type":"medium","town":"虹口区","published_address":"广中路街道水电路191弄","geocoded_address":"上海市虹口区广中路街道水电路191弄"}},{"type":"Feature","geometry":{"type":"Point","coordinates":[121.529306,31.285658]},"properties":{"type":"medium","town":"杨浦区","published_address":"控江路街道靖宇中路58弄","geocoded_address":"上海市杨浦区控江路街道靖宇中路58弄"}},{"type":"Feature","geometry":{"type":"Point","coordinates":[121.529739,31.334607]},"properties":{"type":"medium","town":"杨浦区","published_address":"殷行街道闸殷路81弄","geocoded_address":"上海市杨浦区闸殷路81弄"}},{"type":"Feature","geometry":{"type":"Point","coordinates":[121.516145,31.286914]},"properties":{"type":"medium","town":"杨浦区","published_address":"五角场街道国权路95弄","geocoded_address":"上海市杨浦区五角场街道国权路95弄"}},{"type":"Feature","geometry":{"type":"Point","coordinates":[121.529997,31.284596]},"properties":{"type":"medium","town":"杨浦区","published_address":"控江路街道控江六村","geocoded_address":"上海市杨浦区控江六村"}},{"type":"Feature","geometry":{"type":"Point","coordinates":[121.524898,31.28513]},"properties":{"type":"medium","town":"杨浦区","published_address":"控江路街道控江四村","geocoded_address":"上海市杨浦区控江四村"}},{"type":"Feature","geometry":{"type":"Point","coordinates":[121.520445,31.288181]},"properties":{"type":"medium","town":"杨浦区","published_address":"五角场街道黄兴路1669弄","geocoded_address":"上海市杨浦区五角场街道黄兴路1669弄"}},{"type":"Feature","geometry":{"type":"Point","coordinates":[121.530114,31.287576]},"properties":{"type":"medium","town":"杨浦区","published_address":"延吉新村街道控江五村","geocoded_address":"上海市杨浦区控江五村"}},{"type":"Feature","geometry":{"type":"Point","coordinates":[121.54481,31.290165]},"properties":{"type":"medium","town":"杨浦区","published_address":"长白新村街道安图路18弄益晖新苑","geocoded_address":"上海市杨浦区益晖新苑"}},{"type":"Feature","geometry":{"type":"Point","coordinates":[121.545539,31.295377]},"properties":{"type":"medium","town":"杨浦区","published_address":"长白新村街道延吉东路115弄","geocoded_address":"上海市杨浦区长白新村街道延吉东路115弄"}},{"type":"Feature","geometry":{"type":"Point","coordinates":[121.426531,31.300762]},"properties":{"type":"medium","town":"宝山区","published_address":"大场镇场中路3658弄美好家","geocoded_address":"上海市宝山区美好家"}},{"type":"Feature","geometry":{"type":"Point","coordinates":[121.430622,31.334516]},"properties":{"type":"medium","town":"宝山区","published_address":"庙行镇场北路399弄","geocoded_address":"上海市宝山区庙行镇场北路399弄"}},{"type":"Feature","geometry":{"type":"Point","coordinates":[121.468411,31.399348]},"properties":{"type":"medium","town":"宝山区","published_address":"杨行镇友谊路1000弄","geocoded_address":"上海市宝山区杨行镇友谊路1000弄"}},{"type":"Feature","geometry":{"type":"Point","coordinates":[121.378544,31.325311]},"properties":{"type":"medium","town":"宝山区","published_address":"大场镇保利叶之林","geocoded_address":"上海市宝山区保利叶之林"}},{"type":"Feature","geometry":{"type":"Point","coordinates":[121.422274,31.271111]},"properties":{"type":"medium","town":"宝山区","published_address":"大场镇南华苑","geocoded_address":"上海市宝山区南华苑"}},{"type":"Feature","geometry":{"type":"Point","coordinates":[121.403734,31.328722]},"properties":{"type":"medium","town":"宝山区","published_address":"大场镇纬地路88弄阳光水岸家园","geocoded_address":"上海市宝山区阳光水岸家园"}},{"type":"Feature","geometry":{"type":"Point","coordinates":[121.412207,31.286889]},"properties":{"type":"medium","town":"宝山区","published_address":"大场镇真华路1600弄玉华东苑","geocoded_address":"上海市宝山区玉华东苑"}},{"type":"Feature","geometry":{"type":"Point","coordinates":[121.498639,31.372959]},"properties":{"type":"medium","town":"宝山区","published_address":"吴淞街道淞兴路76弄","geocoded_address":"上海市宝山区吴淞街道淞兴路76弄"}},{"type":"Feature","geometry":{"type":"Point","coordinates":[121.486953,31.366332]},"properties":{"type":"medium","town":"宝山区","published_address":"吴淞街道淞兴西路258号","geocoded_address":"上海市宝山区吴淞街道淞兴西路258号"}},{"type":"Feature","geometry":{"type":"Point","coordinates":[121.412641,31.42951]},"properties":{"type":"medium","town":"宝山区","published_address":"月浦镇月富路55弄昱翠家苑","geocoded_address":"上海市宝山区昱翠家苑"}},{"type":"Feature","geometry":{"type":"Point","coordinates":[121.494249,31.31407]},"properties":{"type":"medium","town":"宝山区","published_address":"高境镇三门路485弄西区","geocoded_address":"上海市宝山区高境镇三门路485弄"}},{"type":"Feature","geometry":{"type":"Point","coordinates":[121.423026,31.264293]},"properties":{"type":"medium","town":"宝山区","published_address":"大场镇涵青路100弄学府阳光","geocoded_address":"上海市普陀区学府阳光"}},{"type":"Feature","geometry":{"type":"Point","coordinates":[121.444622,31.335508]},"properties":{"type":"medium","town":"宝山区","published_address":"张庙街道通河三村","geocoded_address":"上海市宝山区通河三村"}},{"type":"Feature","geometry":{"type":"Point","coordinates":[121.445234,31.330689]},"properties":{"type":"medium","town":"宝山区","published_address":"张庙街道通河四村","geocoded_address":"上海市宝山区通河四村"}},{"type":"Feature","geometry":{"type":"Point","coordinates":[121.465798,31.025979]},"properties":{"type":"medium","town":"闵行区","published_address":"吴泾镇东川路333弄紫竹半岛","geocoded_address":"上海市闵行区紫竹半岛"}},{"type":"Feature","geometry":{"type":"Point","coordinates":[121.378196,31.163877]},"properties":{"type":"medium","town":"闵行区","published_address":"七宝镇漕宝路1555弄大上海国际花园","geocoded_address":"上海市闵行区大上海国际花园"}},{"type":"Feature","geometry":{"type":"Point","coordinates":[121.351416,31.166425]},"properties":{"type":"medium","town":"闵行区","published_address":"七宝镇航新路88弄三佳苑","geocoded_address":"上海市闵行区三佳苑"}},{"type":"Feature","geometry":{"type":"Point","coordinates":[121.373478,31.175035]},"properties":{"type":"medium","town":"闵行区","published_address":"虹桥镇吴中路1588弄","geocoded_address":"上海市闵行区虹桥镇吴中路1588弄"}},{"type":"Feature","geometry":{"type":"Point","coordinates":[121.402931,31.182483]},"properties":{"type":"medium","town":"闵行区","published_address":"虹桥镇吴中路511弄古北新城","geocoded_address":"上海市闵行区古北新城"}},{"type":"Feature","geometry":{"type":"Point","coordinates":[121.386966,31.176306]},"properties":{"type":"medium","town":"闵行区","published_address":"虹桥镇吴中路1065号虹桥吉祥公寓","geocoded_address":"上海市徐汇区吴中路|1065号"}},{"type":"Feature","geometry":{"type":"Point","coordinates":[121.192728,31.278111]},"properties":{"type":"medium","town":"嘉定区","published_address":"安亭镇安拓路155弄","geocoded_address":"上海市嘉定区安亭镇安拓路155弄"}},{"type":"Feature","geometry":{"type":"Point","coordinates":[121.191881,31.276024]},"properties":{"type":"medium","town":"嘉定区","published_address":"安亭镇安研路66弄瑞仕华庭","geocoded_address":"上海市嘉定区安亭瑞仕华庭"}},{"type":"Feature","geometry":{"type":"Point","coordinates":[121.235515,31.389114]},"properties":{"type":"medium","town":"嘉定区","published_address":"菊园新区平城路1455号","geocoded_address":"上海市嘉定区菊园新区平城路1455号"}},{"type":"Feature","geometry":{"type":"Point","coordinates":[121.22015,30.841815]},"properties":{"type":"medium","town":"金山区","published_address":"吕巷镇和平村5032号","geocoded_address":"上海市金山区和平村"}},{"type":"Feature","geometry":{"type":"Point","coordinates":[121.22015,30.841815]},"properties":{"type":"medium","town":"金山区","published_address":"吕巷镇和平村5033号","geocoded_address":"上海市金山区和平村"}},{"type":"Feature","geometry":{"type":"Point","coordinates":[121.22015,30.841815]},"properties":{"type":"medium","town":"金山区","published_address":"吕巷镇和平村5034号","geocoded_address":"上海市金山区和平村"}},{"type":"Feature","geometry":{"type":"Point","coordinates":[121.191322,30.828554]},"properties":{"type":"medium","town":"金山区","published_address":"吕巷镇荡田村戚埭18组","geocoded_address":"上海市金山区荡田村"}},{"type":"Feature","geometry":{"type":"Point","coordinates":[121.191322,30.828554]},"properties":{"type":"medium","town":"金山区","published_address":"吕巷镇荡田村戚埭28组","geocoded_address":"上海市金山区荡田村"}},{"type":"Feature","geometry":{"type":"Point","coordinates":[121.171423,30.85329]},"properties":{"type":"medium","town":"金山区","published_address":"吕巷镇姚家村16组1067-1083号","geocoded_address":"上海市金山区姚家村"}},{"type":"Feature","geometry":{"type":"Point","coordinates":[121.171423,30.85329]},"properties":{"type":"medium","town":"金山区","published_address":"吕巷镇姚家村16组1086号","geocoded_address":"上海市金山区姚家村"}},{"type":"Feature","geometry":{"type":"Point","coordinates":[121.171423,30.85329]},"properties":{"type":"medium","town":"金山区","published_address":"吕巷镇姚家村16组1088号","geocoded_address":"上海市金山区姚家村"}},{"type":"Feature","geometry":{"type":"Point","coordinates":[121.191322,30.828554]},"properties":{"type":"medium","town":"金山区","published_address":"吕巷镇荡田村9组7001-7023号","geocoded_address":"上海市金山区荡田村"}},{"type":"Feature","geometry":{"type":"Point","coordinates":[121.22015,30.841815]},"properties":{"type":"medium","town":"金山区","published_address":"吕巷镇和平村25组4074-4102号","geocoded_address":"上海市金山区和平村"}},{"type":"Feature","geometry":{"type":"Point","coordinates":[121.22015,30.841815]},"properties":{"type":"medium","town":"金山区","published_address":"吕巷镇和平村25组4107-4113号","geocoded_address":"上海市金山区和平村"}},{"type":"Feature","geometry":{"type":"Point","coordinates":[121.22015,30.841815]},"properties":{"type":"medium","town":"金山区","published_address":"吕巷镇和平村25组4114-4124号","geocoded_address":"上海市金山区和平村"}},{"type":"Feature","geometry":{"type":"Point","coordinates":[121.22015,30.841815]},"properties":{"type":"medium","town":"金山区","published_address":"吕巷镇和平村25组4128号","geocoded_address":"上海市金山区和平村"}},{"type":"Feature","geometry":{"type":"Point","coordinates":[121.181223,30.830219]},"properties":{"type":"medium","town":"金山区","published_address":"吕巷镇康兴路150弄","geocoded_address":"上海市金山区吕巷镇康兴路150弄"}},{"type":"Feature","geometry":{"type":"Point","coordinates":[121.305534,31.15005]},"properties":{"type":"medium","town":"松江区","published_address":"九里亭街道涞坊路1010弄","geocoded_address":"上海市松江区九里亭街道涞坊路1010弄"}},{"type":"Feature","geometry":{"type":"Point","coordinates":[121.303785,31.148148]},"properties":{"type":"medium","town":"松江区","published_address":"九里亭街道涞坊路1053号","geocoded_address":"上海市松江区涞坊路|1053号"}},{"type":"Feature","geometry":{"type":"Point","coordinates":[121.250281,31.121155]},"properties":{"type":"medium","town":"松江区","published_address":"泗泾镇泗陈公路1888弄山水四季城","geocoded_address":"上海市松江区山水四季城"}},{"type":"Feature","geometry":{"type":"Point","coordinates":[121.305396,31.147258]},"properties":{"type":"medium","town":"松江区","published_address":"九里亭街道涞坊路1033弄英伦风尚","geocoded_address":"上海市松江区英伦风尚"}},{"type":"Feature","geometry":{"type":"Point","coordinates":[121.246561,31.060015]},"properties":{"type":"medium","town":"松江区","published_address":"中山街道茸悦路208弄富悦财富广场","geocoded_address":"上海市松江区富悦财富广场"}},{"type":"Feature","geometry":{"type":"Point","coordinates":[121.110633,31.141264]},"properties":{"type":"medium","town":"青浦区","published_address":"盈浦街道老朱青路41弄","geocoded_address":"上海市青浦区盈浦街道老朱青路41弄"}},{"type":"Feature","geometry":{"type":"Point","coordinates":[121.262904,31.157082]},"properties":{"type":"medium","town":"青浦区","published_address":"徐泾镇沪青平公路2103号杜家新区","geocoded_address":"上海市青浦区杜家新区"}},{"type":"Feature","geometry":{"type":"Point","coordinates":[121.266692,31.1462]},"properties":{"type":"medium","town":"青浦区","published_address":"徐泾镇前云路145弄杨家小区","geocoded_address":"上海市青浦区杨家小区"}},{"type":"Feature","geometry":{"type":"Point","coordinates":[121.317605,31.241474]},"properties":{"type":"high","town":"嘉定区","published_address":"江桥镇金园一路1359弄缘圆宝邸南区","geocoded_address":"上海市嘉定区缘圆宝邸"}}]}